{
"type": "FeatureCollection",
"name": "Moncton_ss",
"crs": { "type": "name", "properties": { "name": "urn:ogc:def:crs:OGC:1.3:CRS84" } },
"features": [
{ "type": "Feature", "properties": { "PERMIT ID": "64471", "DATE OF ISSUE": "27/6/2024", "DATE OF COMPLETION": "28/6/2024", "STATUS": "1", "ADDRESS": "29 RENOIR ST" }, "geometry": { "type": "Point", "coordinates": [ -64.87256746, 46.10401679 ] } },
{ "type": "Feature", "properties": { "PERMIT ID": "64353", "DATE OF ISSUE": "19/6/2024", "DATE OF COMPLETION": "", "STATUS": "0", "ADDRESS": "51 NAVIGATEURS ST" }, "geometry": { "type": "Point", "coordinates": [ -64.7365062, 46.11502012 ] } },
{ "type": "Feature", "properties": { "PERMIT ID": "64335", "DATE OF ISSUE": "19/6/2024", "DATE OF COMPLETION": "", "STATUS": "0", "ADDRESS": "49 RACHEL ST" }, "geometry": { "type": "Point", "coordinates": [ -64.87998773, 46.11595726 ] } },
{ "type": "Feature", "properties": { "PERMIT ID": "64227", "DATE OF ISSUE": "6/6/2024", "DATE OF COMPLETION": "", "STATUS": "0", "ADDRESS": "15 VALENTIN CT" }, "geometry": { "type": "Point", "coordinates": [ -64.86963095, 46.10340213 ] } },
{ "type": "Feature", "properties": { "PERMIT ID": "64039", "DATE OF ISSUE": "23/5/2024", "DATE OF COMPLETION": "", "STATUS": "0", "ADDRESS": "112 MELBA ST" }, "geometry": { "type": "Point", "coordinates": [ -64.73529853, 46.11611997 ] } },
{ "type": "Feature", "properties": { "PERMIT ID": "64099", "DATE OF ISSUE": "22/5/2024", "DATE OF COMPLETION": "", "STATUS": "0", "ADDRESS": "122 MELBOURNE CRES" }, "geometry": { "type": "Point", "coordinates": [ -64.85791838, 46.10093594 ] } },
{ "type": "Feature", "properties": { "PERMIT ID": "64289", "DATE OF ISSUE": "6/5/2024", "DATE OF COMPLETION": "", "STATUS": "0", "ADDRESS": "48 BELIDOR ST" }, "geometry": { "type": "Point", "coordinates": [ -64.87105474, 46.10400293 ] } },
{ "type": "Feature", "properties": { "PERMIT ID": "63973", "DATE OF ISSUE": "30/4/2024", "DATE OF COMPLETION": "", "STATUS": "0", "ADDRESS": "19 BELIDOR ST" }, "geometry": { "type": "Point", "coordinates": [ -64.87182647, 46.10464597 ] } },
{ "type": "Feature", "properties": { "PERMIT ID": "63985", "DATE OF ISSUE": "29/4/2024", "DATE OF COMPLETION": "", "STATUS": "0", "ADDRESS": "33 BELIDOR ST" }, "geometry": { "type": "Point", "coordinates": [ -64.87128709, 46.10450963 ] } },
{ "type": "Feature", "properties": { "PERMIT ID": "63877", "DATE OF ISSUE": "26/4/2024", "DATE OF COMPLETION": "", "STATUS": "0", "ADDRESS": "40 BELIDOR ST" }, "geometry": { "type": "Point", "coordinates": [ -64.87130932, 46.10409329 ] } },
{ "type": "Feature", "properties": { "PERMIT ID": "63838", "DATE OF ISSUE": "26/4/2024", "DATE OF COMPLETION": "", "STATUS": "0", "ADDRESS": "81 RACHEL ST" }, "geometry": { "type": "Point", "coordinates": [ -64.87951974, 46.11495771 ] } },
{ "type": "Feature", "properties": { "PERMIT ID": "63880", "DATE OF ISSUE": "26/4/2024", "DATE OF COMPLETION": "", "STATUS": "0", "ADDRESS": "48 BELIDOR ST" }, "geometry": { "type": "Point", "coordinates": [ -64.87105474, 46.10400293 ] } },
{ "type": "Feature", "properties": { "PERMIT ID": "63640", "DATE OF ISSUE": "3/4/2024", "DATE OF COMPLETION": "", "STATUS": "0", "ADDRESS": "64 MACINTOSH BLVD" }, "geometry": { "type": "Point", "coordinates": [ -64.70783595, 46.12648103 ] } },
{ "type": "Feature", "properties": { "PERMIT ID": "63757", "DATE OF ISSUE": "28/3/2024", "DATE OF COMPLETION": "", "STATUS": "0", "ADDRESS": "101 MACINTOSH BLVD" }, "geometry": { "type": "Point", "coordinates": [ -64.70830544, 46.12752817 ] } },
{ "type": "Feature", "properties": { "PERMIT ID": "63633", "DATE OF ISSUE": "20/3/2024", "DATE OF COMPLETION": "", "STATUS": "0", "ADDRESS": "107 HASTINGS ST" }, "geometry": { "type": "Point", "coordinates": [ -64.82345079, 46.10268076 ] } },
{ "type": "Feature", "properties": { "PERMIT ID": "63573", "DATE OF ISSUE": "14/3/2024", "DATE OF COMPLETION": "", "STATUS": "0", "ADDRESS": "83 MACINTOSH BLVD" }, "geometry": { "type": "Point", "coordinates": [ -64.70786105, 46.12716461 ] } },
{ "type": "Feature", "properties": { "PERMIT ID": "63713", "DATE OF ISSUE": "14/3/2024", "DATE OF COMPLETION": "", "STATUS": "0", "ADDRESS": "33 HEROS CT" }, "geometry": { "type": "Point", "coordinates": [ -64.87715558, 46.12674649 ] } },
{ "type": "Feature", "properties": { "PERMIT ID": "63578", "DATE OF ISSUE": "27/2/2024", "DATE OF COMPLETION": "", "STATUS": "0", "ADDRESS": "10 EDGEWATER CT" }, "geometry": { "type": "Point", "coordinates": [ -64.83079396, 46.06715566 ] } },
{ "type": "Feature", "properties": { "PERMIT ID": "63621", "DATE OF ISSUE": "26/2/2024", "DATE OF COMPLETION": "", "STATUS": "0", "ADDRESS": "68 MACINTOSH BLVD" }, "geometry": { "type": "Point", "coordinates": [ -64.70802277, 46.12660894 ] } },
{ "type": "Feature", "properties": { "PERMIT ID": "63618", "DATE OF ISSUE": "23/2/2024", "DATE OF COMPLETION": "", "STATUS": "0", "ADDRESS": "87 MACINTOSH BLVD" }, "geometry": { "type": "Point", "coordinates": [ -64.70800048, 46.12728994 ] } },
{ "type": "Feature", "properties": { "PERMIT ID": "63616", "DATE OF ISSUE": "23/2/2024", "DATE OF COMPLETION": "", "STATUS": "0", "ADDRESS": "63 MACINTOSH BLVD" }, "geometry": { "type": "Point", "coordinates": [ -64.70730046, 46.12676046 ] } },
{ "type": "Feature", "properties": { "PERMIT ID": "63571", "DATE OF ISSUE": "22/2/2024", "DATE OF COMPLETION": "", "STATUS": "0", "ADDRESS": "98 MACINTOSH BLVD" }, "geometry": { "type": "Point", "coordinates": [ -64.70881858, 46.12724363 ] } },
{ "type": "Feature", "properties": { "PERMIT ID": "63595", "DATE OF ISSUE": "21/2/2024", "DATE OF COMPLETION": "", "STATUS": "0", "ADDRESS": "74 MACINTOSH BLVD" }, "geometry": { "type": "Point", "coordinates": [ -64.70819729, 46.12677644 ] } },
{ "type": "Feature", "properties": { "PERMIT ID": "63582", "DATE OF ISSUE": "4/2/2024", "DATE OF COMPLETION": "", "STATUS": "0", "ADDRESS": "92 MACINTOSH BLVD" }, "geometry": { "type": "Point", "coordinates": [ -64.7086563, 46.12712705 ] } },
{ "type": "Feature", "properties": { "PERMIT ID": "63183", "DATE OF ISSUE": "27/10/2023", "DATE OF COMPLETION": "18/1/2024", "STATUS": "1", "ADDRESS": "27 GLOUCESTER ST" }, "geometry": { "type": "Point", "coordinates": [ -64.769028, 46.10554336 ] } },
{ "type": "Feature", "properties": { "PERMIT ID": "63152", "DATE OF ISSUE": "24/10/2023", "DATE OF COMPLETION": "", "STATUS": "0", "ADDRESS": "155 RIPPLEWOOD RD" }, "geometry": { "type": "Point", "coordinates": [ -64.73544021, 46.11568027 ] } },
{ "type": "Feature", "properties": { "PERMIT ID": "62871", "DATE OF ISSUE": "26/9/2023", "DATE OF COMPLETION": "", "STATUS": "0", "ADDRESS": "33 GATINEAU ST" }, "geometry": { "type": "Point", "coordinates": [ -64.83050648, 46.10123678 ] } },
{ "type": "Feature", "properties": { "PERMIT ID": "61799", "DATE OF ISSUE": "3/9/2023", "DATE OF COMPLETION": "19/4/2023", "STATUS": "1", "ADDRESS": "21 SYCAMORE DR" }, "geometry": { "type": "Point", "coordinates": [ -64.88336012, 46.05959201 ] } },
{ "type": "Feature", "properties": { "PERMIT ID": "63240", "DATE OF ISSUE": "11/8/2023", "DATE OF COMPLETION": "1/4/2024", "STATUS": "1", "ADDRESS": "69 ALLISON DR" }, "geometry": { "type": "Point", "coordinates": [ -64.80574709, 46.07834034 ] } },
{ "type": "Feature", "properties": { "PERMIT ID": "63231", "DATE OF ISSUE": "11/8/2023", "DATE OF COMPLETION": "", "STATUS": "0", "ADDRESS": "151 RIPPLEWOOD RD" }, "geometry": { "type": "Point", "coordinates": [ -64.73531016, 46.11549513 ] } },
{ "type": "Feature", "properties": { "PERMIT ID": "62601", "DATE OF ISSUE": "18/7/2023", "DATE OF COMPLETION": "", "STATUS": "0", "ADDRESS": "48 ROYAL OAKS BLVD" }, "geometry": { "type": "Point", "coordinates": [ -64.78035707, 46.15045714 ] } },
{ "type": "Feature", "properties": { "PERMIT ID": "62170", "DATE OF ISSUE": "25/5/2023", "DATE OF COMPLETION": "", "STATUS": "0", "ADDRESS": "51 GENERATION AVE" }, "geometry": { "type": "Point", "coordinates": [ -64.79262066, 46.11849882 ] } },
{ "type": "Feature", "properties": { "PERMIT ID": "62273", "DATE OF ISSUE": "24/5/2023", "DATE OF COMPLETION": "", "STATUS": "0", "ADDRESS": "321 FALCON DR" }, "geometry": { "type": "Point", "coordinates": [ -64.8782346, 46.11574418 ] } },
{ "type": "Feature", "properties": { "PERMIT ID": "62092", "DATE OF ISSUE": "16/5/2023", "DATE OF COMPLETION": "2/2/2024", "STATUS": "1", "ADDRESS": "3 ST. ANDREWS DR" }, "geometry": { "type": "Point", "coordinates": [ -64.86985261, 46.13870461 ] } },
{ "type": "Feature", "properties": { "PERMIT ID": "61823", "DATE OF ISSUE": "19/4/2023", "DATE OF COMPLETION": "20/6/2023", "STATUS": "1", "ADDRESS": "27 SYCAMORE DR" }, "geometry": { "type": "Point", "coordinates": [ -64.88345026, 46.05976978 ] } },
{ "type": "Feature", "properties": { "PERMIT ID": "60812", "DATE OF ISSUE": "29/3/2023", "DATE OF COMPLETION": "23/11/2023", "STATUS": "1", "ADDRESS": "37 RENOIR ST" }, "geometry": { "type": "Point", "coordinates": [ -64.87241988, 46.10373602 ] } },
{ "type": "Feature", "properties": { "PERMIT ID": "61868", "DATE OF ISSUE": "22/3/2023", "DATE OF COMPLETION": "15/12/2023", "STATUS": "1", "ADDRESS": "100 MELBOURNE CRES" }, "geometry": { "type": "Point", "coordinates": [ -64.85856522, 46.1014663 ] } },
{ "type": "Feature", "properties": { "PERMIT ID": "63161", "DATE OF ISSUE": "11/3/2023", "DATE OF COMPLETION": "", "STATUS": "0", "ADDRESS": "117 RACHEL ST" }, "geometry": { "type": "Point", "coordinates": [ -64.8784547, 46.11416063 ] } },
{ "type": "Feature", "properties": { "PERMIT ID": "61208", "DATE OF ISSUE": "9/12/2022", "DATE OF COMPLETION": "5/11/2023", "STATUS": "1", "ADDRESS": "32 DEERFIELD DR" }, "geometry": { "type": "Point", "coordinates": [ -64.87498042, 46.12489638 ] } },
{ "type": "Feature", "properties": { "PERMIT ID": "60123", "DATE OF ISSUE": "4/12/2022", "DATE OF COMPLETION": "6/2/2023", "STATUS": "1", "ADDRESS": "229 MACBEATH AVE" }, "geometry": { "type": "Point", "coordinates": [ -64.80789749, 46.10904885 ] } },
{ "type": "Feature", "properties": { "PERMIT ID": "61483", "DATE OF ISSUE": "14/11/2022", "DATE OF COMPLETION": "", "STATUS": "0", "ADDRESS": "57 GENERATION AVE" }, "geometry": { "type": "Point", "coordinates": [ -64.79271566, 46.11872451 ] } },
{ "type": "Feature", "properties": { "PERMIT ID": "61461", "DATE OF ISSUE": "14/11/2022", "DATE OF COMPLETION": "30/6/2023", "STATUS": "1", "ADDRESS": "3 LE GUERNE CT" }, "geometry": { "type": "Point", "coordinates": [ -64.7369917, 46.1173027 ] } },
{ "type": "Feature", "properties": { "PERMIT ID": "61400", "DATE OF ISSUE": "27/10/2022", "DATE OF COMPLETION": "", "STATUS": "0", "ADDRESS": "46 ROCKLAND DR" }, "geometry": { "type": "Point", "coordinates": [ -64.7774853, 46.10226314 ] } },
{ "type": "Feature", "properties": { "PERMIT ID": "59838", "DATE OF ISSUE": "2/10/2022", "DATE OF COMPLETION": "19/4/2023", "STATUS": "1", "ADDRESS": "102 ROCKLAND DR" }, "geometry": { "type": "Point", "coordinates": [ -64.77828393, 46.10408449 ] } },
{ "type": "Feature", "properties": { "PERMIT ID": "61497", "DATE OF ISSUE": "11/9/2022", "DATE OF COMPLETION": "20/11/2023", "STATUS": "1", "ADDRESS": "173 RIPPLEWOOD RD NORTH" }, "geometry": { "type": "Point", "coordinates": [ -64.73592677, 46.11638479 ] } },
{ "type": "Feature", "properties": { "PERMIT ID": "60609", "DATE OF ISSUE": "6/8/2022", "DATE OF COMPLETION": "29/9/2023", "STATUS": "1", "ADDRESS": "4 ST. ANDREWS DR" }, "geometry": { "type": "Point", "coordinates": [ -64.86937599, 46.13846244 ] } },
{ "type": "Feature", "properties": { "PERMIT ID": "59948", "DATE OF ISSUE": "3/8/2022", "DATE OF COMPLETION": "11/1/2023", "STATUS": "1", "ADDRESS": "225 FALCON DR" }, "geometry": { "type": "Point", "coordinates": [ -64.87691758, 46.1189868 ] } },
{ "type": "Feature", "properties": { "PERMIT ID": "59944", "DATE OF ISSUE": "3/8/2022", "DATE OF COMPLETION": "12/11/2023", "STATUS": "1", "ADDRESS": "224 FALCON DR" }, "geometry": { "type": "Point", "coordinates": [ -64.87638561, 46.11909908 ] } },
{ "type": "Feature", "properties": { "PERMIT ID": "60945", "DATE OF ISSUE": "26/7/2022", "DATE OF COMPLETION": "", "STATUS": "0", "ADDRESS": "27 LE GUERNE CT" }, "geometry": { "type": "Point", "coordinates": [ -64.73622768, 46.1176751 ] } },
{ "type": "Feature", "properties": { "PERMIT ID": "60926", "DATE OF ISSUE": "20/7/2022", "DATE OF COMPLETION": "30/10/2023", "STATUS": "1", "ADDRESS": "337 GLENGROVE RD" }, "geometry": { "type": "Point", "coordinates": [ -64.73358768, 46.12199849 ] } },
{ "type": "Feature", "properties": { "PERMIT ID": "60909", "DATE OF ISSUE": "20/7/2022", "DATE OF COMPLETION": "25/1/2023", "STATUS": "1", "ADDRESS": "206 MACCOUN ST" }, "geometry": { "type": "Point", "coordinates": [ -64.70735149, 46.12493358 ] } },
{ "type": "Feature", "properties": { "PERMIT ID": "60879", "DATE OF ISSUE": "14/7/2022", "DATE OF COMPLETION": "7/11/2023", "STATUS": "1", "ADDRESS": "48 MACINTOSH BLVD" }, "geometry": { "type": "Point", "coordinates": [ -64.70747257, 46.12617041 ] } },
{ "type": "Feature", "properties": { "PERMIT ID": "60888", "DATE OF ISSUE": "14/7/2022", "DATE OF COMPLETION": "2/1/2024", "STATUS": "1", "ADDRESS": "51 MACINTOSH BLVD" }, "geometry": { "type": "Point", "coordinates": [ -64.70697459, 46.12645617 ] } },
{ "type": "Feature", "properties": { "PERMIT ID": "60844", "DATE OF ISSUE": "7/7/2022", "DATE OF COMPLETION": "7/11/2023", "STATUS": "1", "ADDRESS": "36 MACINTOSH BLVD" }, "geometry": { "type": "Point", "coordinates": [ -64.70712067, 46.12588381 ] } },
{ "type": "Feature", "properties": { "PERMIT ID": "59937", "DATE OF ISSUE": "3/7/2022", "DATE OF COMPLETION": "11/1/2023", "STATUS": "1", "ADDRESS": "217 FALCON DR" }, "geometry": { "type": "Point", "coordinates": [ -64.87696679, 46.11912648 ] } },
{ "type": "Feature", "properties": { "PERMIT ID": "59941", "DATE OF ISSUE": "3/7/2022", "DATE OF COMPLETION": "31/10/2023", "STATUS": "1", "ADDRESS": "218 FALCON DR" }, "geometry": { "type": "Point", "coordinates": [ -64.87644525, 46.11921666 ] } },
{ "type": "Feature", "properties": { "PERMIT ID": "59935", "DATE OF ISSUE": "3/7/2022", "DATE OF COMPLETION": "25/10/2023", "STATUS": "1", "ADDRESS": "212 FALCON DR" }, "geometry": { "type": "Point", "coordinates": [ -64.87658043, 46.11959425 ] } },
{ "type": "Feature", "properties": { "PERMIT ID": "59932", "DATE OF ISSUE": "3/7/2022", "DATE OF COMPLETION": "12/1/2023", "STATUS": "1", "ADDRESS": "211 FALCON DR" }, "geometry": { "type": "Point", "coordinates": [ -64.87714062, 46.11949458 ] } },
{ "type": "Feature", "properties": { "PERMIT ID": "60798", "DATE OF ISSUE": "29/6/2022", "DATE OF COMPLETION": "22/8/2023", "STATUS": "1", "ADDRESS": "57 MACINTOSH BLVD" }, "geometry": { "type": "Point", "coordinates": [ -64.70720383, 46.1266419 ] } },
{ "type": "Feature", "properties": { "PERMIT ID": "60784", "DATE OF ISSUE": "29/6/2022", "DATE OF COMPLETION": "16/1/2023", "STATUS": "1", "ADDRESS": "205 MACCOUN ST" }, "geometry": { "type": "Point", "coordinates": [ -64.70776552, 46.12523294 ] } },
{ "type": "Feature", "properties": { "PERMIT ID": "60734", "DATE OF ISSUE": "23/6/2022", "DATE OF COMPLETION": "16/1/2023", "STATUS": "1", "ADDRESS": "42 MACINTOSH BLVD" }, "geometry": { "type": "Point", "coordinates": [ -64.70729995, 46.12602603 ] } },
{ "type": "Feature", "properties": { "PERMIT ID": "60749", "DATE OF ISSUE": "23/6/2022", "DATE OF COMPLETION": "16/1/2023", "STATUS": "1", "ADDRESS": "140 MACCOUN ST" }, "geometry": { "type": "Point", "coordinates": [ -64.70606071, 46.12569284 ] } },
{ "type": "Feature", "properties": { "PERMIT ID": "60708", "DATE OF ISSUE": "22/6/2022", "DATE OF COMPLETION": "7/11/2023", "STATUS": "1", "ADDRESS": "151 MACCOUN ST" }, "geometry": { "type": "Point", "coordinates": [ -64.70718423, 46.12558276 ] } },
{ "type": "Feature", "properties": { "PERMIT ID": "60647", "DATE OF ISSUE": "13/6/2022", "DATE OF COMPLETION": "12/7/2022", "STATUS": "1", "ADDRESS": "94 ISINGTON ST" }, "geometry": { "type": "Point", "coordinates": [ -64.8457469, 46.1089771 ] } },
{ "type": "Feature", "properties": { "PERMIT ID": "61522", "DATE OF ISSUE": "12/6/2022", "DATE OF COMPLETION": "23/5/2023", "STATUS": "1", "ADDRESS": "64 EDGETT AVE" }, "geometry": { "type": "Point", "coordinates": [ -64.80680278, 46.10265229 ] } },
{ "type": "Feature", "properties": { "PERMIT ID": "60516", "DATE OF ISSUE": "6/6/2022", "DATE OF COMPLETION": "15/1/2024", "STATUS": "1", "ADDRESS": "100 LEOPOLD F. BELLIVEAU DR" }, "geometry": { "type": "Point", "coordinates": [ -64.79357021, 46.12042474 ] } },
{ "type": "Feature", "properties": { "PERMIT ID": "60353", "DATE OF ISSUE": "5/6/2022", "DATE OF COMPLETION": "30/11/2022", "STATUS": "1", "ADDRESS": "114 BLACKSTONE DR" }, "geometry": { "type": "Point", "coordinates": [ -64.87254037, 46.11108722 ] } },
{ "type": "Feature", "properties": { "PERMIT ID": "60260", "DATE OF ISSUE": "28/4/2022", "DATE OF COMPLETION": "25/10/2022", "STATUS": "1", "ADDRESS": "149 O'NEILL ST" }, "geometry": { "type": "Point", "coordinates": [ -64.73315977, 46.12062661 ] } },
{ "type": "Feature", "properties": { "PERMIT ID": "60100", "DATE OF ISSUE": "31/3/2022", "DATE OF COMPLETION": "8/12/2022", "STATUS": "1", "ADDRESS": "186 MACCOUN ST" }, "geometry": { "type": "Point", "coordinates": [ -64.70678173, 46.12530949 ] } },
{ "type": "Feature", "properties": { "PERMIT ID": "60060", "DATE OF ISSUE": "24/3/2022", "DATE OF COMPLETION": "17/10/2022", "STATUS": "1", "ADDRESS": "210 HIGHLANDVIEW RD" }, "geometry": { "type": "Point", "coordinates": [ -64.74648929, 46.10408813 ] } },
{ "type": "Feature", "properties": { "PERMIT ID": "60034", "DATE OF ISSUE": "21/3/2022", "DATE OF COMPLETION": "1/10/2023", "STATUS": "1", "ADDRESS": "157 MACCOUN ST" }, "geometry": { "type": "Point", "coordinates": [ -64.7073664, 46.12549986 ] } },
{ "type": "Feature", "properties": { "PERMIT ID": "60025", "DATE OF ISSUE": "17/3/2022", "DATE OF COMPLETION": "9/1/2022", "STATUS": "1", "ADDRESS": "11 WILMINGTON DR" }, "geometry": { "type": "Point", "coordinates": [ -64.72554444, 46.10943033 ] } },
{ "type": "Feature", "properties": { "PERMIT ID": "59850", "DATE OF ISSUE": "14/3/2022", "DATE OF COMPLETION": "21/11/2022", "STATUS": "1", "ADDRESS": "157 O'NEILL ST" }, "geometry": { "type": "Point", "coordinates": [ -64.73338446, 46.12051434 ] } },
{ "type": "Feature", "properties": { "PERMIT ID": "61439", "DATE OF ISSUE": "11/3/2022", "DATE OF COMPLETION": "12/7/2022", "STATUS": "1", "ADDRESS": "11 WILMINGTON DR" }, "geometry": { "type": "Point", "coordinates": [ -64.72554444, 46.10943033 ] } },
{ "type": "Feature", "properties": { "PERMIT ID": "59827", "DATE OF ISSUE": "25/2/2022", "DATE OF COMPLETION": "25/10/2023", "STATUS": "1", "ADDRESS": "206 FALCON DR" }, "geometry": { "type": "Point", "coordinates": [ -64.87665779, 46.11972806 ] } },
{ "type": "Feature", "properties": { "PERMIT ID": "59825", "DATE OF ISSUE": "25/2/2022", "DATE OF COMPLETION": "15/2/2024", "STATUS": "1", "ADDRESS": "205 FALCON DR" }, "geometry": { "type": "Point", "coordinates": [ -64.87720738, 46.11961864 ] } },
{ "type": "Feature", "properties": { "PERMIT ID": "59889", "DATE OF ISSUE": "3/2/2022", "DATE OF COMPLETION": "26/7/2022", "STATUS": "1", "ADDRESS": "153 MCSWEENEY AVE" }, "geometry": { "type": "Point", "coordinates": [ -64.8083926, 46.10497229 ] } },
{ "type": "Feature", "properties": { "PERMIT ID": "59808", "DATE OF ISSUE": "2/2/2022", "DATE OF COMPLETION": "7/6/2022", "STATUS": "1", "ADDRESS": "31 MAGELLAN DR" }, "geometry": { "type": "Point", "coordinates": [ -64.778194, 46.12425555 ] } },
{ "type": "Feature", "properties": { "PERMIT ID": "59362", "DATE OF ISSUE": "21/10/2021", "DATE OF COMPLETION": "6/1/2022", "STATUS": "1", "ADDRESS": "50 DRUMMOND ST" }, "geometry": { "type": "Point", "coordinates": [ -64.76487849, 46.10939694 ] } },
{ "type": "Feature", "properties": { "PERMIT ID": "59339", "DATE OF ISSUE": "19/10/2021", "DATE OF COMPLETION": "29/6/2022", "STATUS": "1", "ADDRESS": "154 TWIN OAKS DR" }, "geometry": { "type": "Point", "coordinates": [ -64.8659105, 46.11293104 ] } },
{ "type": "Feature", "properties": { "PERMIT ID": "57803", "DATE OF ISSUE": "11/10/2021", "DATE OF COMPLETION": "19/4/2022", "STATUS": "1", "ADDRESS": "128 CHURCHILL ST" }, "geometry": { "type": "Point", "coordinates": [ -64.81260991, 46.1051023 ] } },
{ "type": "Feature", "properties": { "PERMIT ID": "59078", "DATE OF ISSUE": "21/9/2021", "DATE OF COMPLETION": "15/12/2022", "STATUS": "1", "ADDRESS": "175 BROMLEY AVE" }, "geometry": { "type": "Point", "coordinates": [ -64.7923422, 46.10228178 ] } },
{ "type": "Feature", "properties": { "PERMIT ID": "59140", "DATE OF ISSUE": "9/8/2021", "DATE OF COMPLETION": "25/3/2022", "STATUS": "1", "ADDRESS": "112 JANICE AVE" }, "geometry": { "type": "Point", "coordinates": [ -64.75349721, 46.11537317 ] } },
{ "type": "Feature", "properties": { "PERMIT ID": "58662", "DATE OF ISSUE": "29/6/2021", "DATE OF COMPLETION": "", "STATUS": "0", "ADDRESS": "74 ALBION ST" }, "geometry": { "type": "Point", "coordinates": [ -64.86562515, 46.10811241 ] } },
{ "type": "Feature", "properties": { "PERMIT ID": "58191", "DATE OF ISSUE": "5/6/2021", "DATE OF COMPLETION": "9/9/2021", "STATUS": "1", "ADDRESS": "28 WARNER ST" }, "geometry": { "type": "Point", "coordinates": [ -64.72729048, 46.10894775 ] } },
{ "type": "Feature", "properties": { "PERMIT ID": "59498", "DATE OF ISSUE": "11/5/2021", "DATE OF COMPLETION": "9/6/2022", "STATUS": "1", "ADDRESS": "74 ALBION ST" }, "geometry": { "type": "Point", "coordinates": [ -64.86562515, 46.10811241 ] } },
{ "type": "Feature", "properties": { "PERMIT ID": "57776", "DATE OF ISSUE": "2/4/2021", "DATE OF COMPLETION": "16/3/2021", "STATUS": "1", "ADDRESS": "82 WALSH ST" }, "geometry": { "type": "Point", "coordinates": [ -64.80304657, 46.10170349 ] } },
{ "type": "Feature", "properties": { "PERMIT ID": "57947", "DATE OF ISSUE": "22/3/2021", "DATE OF COMPLETION": "13/9/2021", "STATUS": "1", "ADDRESS": "50 ARMADA CT" }, "geometry": { "type": "Point", "coordinates": [ -64.77656919, 46.12449365 ] } },
{ "type": "Feature", "properties": { "PERMIT ID": "58947", "DATE OF ISSUE": "8/3/2021", "DATE OF COMPLETION": "6/2/2023", "STATUS": "1", "ADDRESS": "95 LEFURGEY AVE" }, "geometry": { "type": "Point", "coordinates": [ -64.80892765, 46.10339733 ] } },
{ "type": "Feature", "properties": { "PERMIT ID": "57468", "DATE OF ISSUE": "25/11/2020", "DATE OF COMPLETION": "", "STATUS": "0", "ADDRESS": "4 PARKPLACE LN" }, "geometry": { "type": "Point", "coordinates": [ -64.7958197, 46.11732114 ] } },
{ "type": "Feature", "properties": { "PERMIT ID": "56342", "DATE OF ISSUE": "7/10/2020", "DATE OF COMPLETION": "6/9/2023", "STATUS": "1", "ADDRESS": "16 TIMANDRA CRES" }, "geometry": { "type": "Point", "coordinates": [ -64.8673255, 46.11061103 ] } },
{ "type": "Feature", "properties": { "PERMIT ID": "56183", "DATE OF ISSUE": "26/6/2020", "DATE OF COMPLETION": "25/2/2022", "STATUS": "1", "ADDRESS": "363 GLENGROVE RD" }, "geometry": { "type": "Point", "coordinates": [ -64.73434988, 46.12260026 ] } },
{ "type": "Feature", "properties": { "PERMIT ID": "56249", "DATE OF ISSUE": "25/6/2020", "DATE OF COMPLETION": "16/1/2023", "STATUS": "1", "ADDRESS": "137 WEST LN" }, "geometry": { "type": "Point", "coordinates": [ -64.80223967, 46.10337349 ] } },
{ "type": "Feature", "properties": { "PERMIT ID": "55634", "DATE OF ISSUE": "4/6/2020", "DATE OF COMPLETION": "24/7/2020", "STATUS": "1", "ADDRESS": "27 PEBBLE CREEK WAY" }, "geometry": { "type": "Point", "coordinates": [ -64.85709093, 46.10208573 ] } },
{ "type": "Feature", "properties": { "PERMIT ID": "55694", "DATE OF ISSUE": "29/4/2020", "DATE OF COMPLETION": "13/1/2023", "STATUS": "1", "ADDRESS": "5 FRANCFORT CRES" }, "geometry": { "type": "Point", "coordinates": [ -64.86853447, 46.11074632 ] } },
{ "type": "Feature", "properties": { "PERMIT ID": "54398", "DATE OF ISSUE": "16/8/2019", "DATE OF COMPLETION": "20/5/2021", "STATUS": "1", "ADDRESS": "5 TIMANDRA CRES" }, "geometry": { "type": "Point", "coordinates": [ -64.86799253, 46.1108557 ] } },
{ "type": "Feature", "properties": { "PERMIT ID": "54786", "DATE OF ISSUE": "10/8/2019", "DATE OF COMPLETION": "16/12/2020", "STATUS": "1", "ADDRESS": "10 TIMANDRA CRES" }, "geometry": { "type": "Point", "coordinates": [ -64.86760149, 46.11056764 ] } },
{ "type": "Feature", "properties": { "PERMIT ID": "54213", "DATE OF ISSUE": "26/7/2019", "DATE OF COMPLETION": "6/11/2020", "STATUS": "1", "ADDRESS": "270 LADY RUSSELL ST" }, "geometry": { "type": "Point", "coordinates": [ -64.84860484, 46.09968558 ] } },
{ "type": "Feature", "properties": { "PERMIT ID": "52784", "DATE OF ISSUE": "12/12/2018", "DATE OF COMPLETION": "9/12/2019", "STATUS": "1", "ADDRESS": "69 HILTON DR" }, "geometry": { "type": "Point", "coordinates": [ -64.85145761, 46.12355929 ] } },
{ "type": "Feature", "properties": { "PERMIT ID": "51819", "DATE OF ISSUE": "18/7/2018", "DATE OF COMPLETION": "1/10/2019", "STATUS": "1", "ADDRESS": "102 ELLESMERE DR" }, "geometry": { "type": "Point", "coordinates": [ -64.83457097, 46.10064959 ] } },
{ "type": "Feature", "properties": { "PERMIT ID": "51046", "DATE OF ISSUE": "20/4/2018", "DATE OF COMPLETION": "18/10/2018", "STATUS": "1", "ADDRESS": "961 RYAN ST" }, "geometry": { "type": "Point", "coordinates": [ -64.87541768, 46.11003116 ] } },
{ "type": "Feature", "properties": { "PERMIT ID": "49081", "DATE OF ISSUE": "6/12/2017", "DATE OF COMPLETION": "27/11/2017", "STATUS": "1", "ADDRESS": "7 JAMES ST" }, "geometry": { "type": "Point", "coordinates": [ -64.81096108, 46.10476284 ] } },
{ "type": "Feature", "properties": { "PERMIT ID": "48756", "DATE OF ISSUE": "5/10/2017", "DATE OF COMPLETION": "1/8/2019", "STATUS": "1", "ADDRESS": "4 TIMANDRA CRES" }, "geometry": { "type": "Point", "coordinates": [ -64.86783418, 46.1105076 ] } },
{ "type": "Feature", "properties": { "PERMIT ID": "50003", "DATE OF ISSUE": "22/9/2017", "DATE OF COMPLETION": "14/2/2019", "STATUS": "1", "ADDRESS": "17 TIMANDRA CRES" }, "geometry": { "type": "Point", "coordinates": [ -64.86747791, 46.11099497 ] } },
{ "type": "Feature", "properties": { "PERMIT ID": "50005", "DATE OF ISSUE": "22/9/2017", "DATE OF COMPLETION": "5/3/2019", "STATUS": "1", "ADDRESS": "11 TIMANDRA CRES" }, "geometry": { "type": "Point", "coordinates": [ -64.86775872, 46.110937 ] } },
{ "type": "Feature", "properties": { "PERMIT ID": "48815", "DATE OF ISSUE": "29/5/2017", "DATE OF COMPLETION": "", "STATUS": "0", "ADDRESS": "44 HAMMOND ST" }, "geometry": { "type": "Point", "coordinates": [ -64.72676499, 46.12093551 ] } },
{ "type": "Feature", "properties": { "PERMIT ID": "47945", "DATE OF ISSUE": "12/12/2016", "DATE OF COMPLETION": "6/6/2019", "STATUS": "1", "ADDRESS": "100 RURAL ESTATES DR" }, "geometry": { "type": "Point", "coordinates": [ -64.8881871, 46.11700032 ] } },
{ "type": "Feature", "properties": { "PERMIT ID": "47802", "DATE OF ISSUE": "24/11/2016", "DATE OF COMPLETION": "12/5/2019", "STATUS": "1", "ADDRESS": "9 AMBERWOOD CT" }, "geometry": { "type": "Point", "coordinates": [ -64.8337584, 46.10318467 ] } },
{ "type": "Feature", "properties": { "PERMIT ID": "47443", "DATE OF ISSUE": "14/11/2016", "DATE OF COMPLETION": "12/5/2019", "STATUS": "1", "ADDRESS": "52 DOMINION ST" }, "geometry": { "type": "Point", "coordinates": [ -64.79151046, 46.08774598 ] } },
{ "type": "Feature", "properties": { "PERMIT ID": "46796", "DATE OF ISSUE": "19/7/2016", "DATE OF COMPLETION": "", "STATUS": "0", "ADDRESS": "52 GARFIELD ST" }, "geometry": { "type": "Point", "coordinates": [ -64.80148424, 46.10507177 ] } },
{ "type": "Feature", "properties": { "PERMIT ID": "45962", "DATE OF ISSUE": "19/4/2016", "DATE OF COMPLETION": "31/1/2017", "STATUS": "1", "ADDRESS": "17 FRANCFORT CRES" }, "geometry": { "type": "Point", "coordinates": [ -64.86907701, 46.11062705 ] } },
{ "type": "Feature", "properties": { "PERMIT ID": "47916", "DATE OF ISSUE": "12/2/2016", "DATE OF COMPLETION": "14/10/2021", "STATUS": "1", "ADDRESS": "16 FRANCFORT CRES" }, "geometry": { "type": "Point", "coordinates": [ -64.86882003, 46.11023079 ] } },
{ "type": "Feature", "properties": { "PERMIT ID": "47607", "DATE OF ISSUE": "11/2/2016", "DATE OF COMPLETION": "15/6/2020", "STATUS": "1", "ADDRESS": "23 FRANCFORT CRES" }, "geometry": { "type": "Point", "coordinates": [ -64.86933935, 46.11056509 ] } },
{ "type": "Feature", "properties": { "PERMIT ID": "47906", "DATE OF ISSUE": "12/1/2016", "DATE OF COMPLETION": "14/10/2021", "STATUS": "1", "ADDRESS": "22 FRANCFORT CRES" }, "geometry": { "type": "Point", "coordinates": [ -64.86909097, 46.11015482 ] } },
{ "type": "Feature", "properties": { "PERMIT ID": "44897", "DATE OF ISSUE": "20/10/2015", "DATE OF COMPLETION": "12/5/2019", "STATUS": "1", "ADDRESS": "125 ARDEN ST" }, "geometry": { "type": "Point", "coordinates": [ -64.80762508, 46.10604813 ] } },
{ "type": "Feature", "properties": { "PERMIT ID": "43636", "DATE OF ISSUE": "17/6/2015", "DATE OF COMPLETION": "6/11/2020", "STATUS": "1", "ADDRESS": "4 FRANCFORT CRES" }, "geometry": { "type": "Point", "coordinates": [ -64.86835125, 46.11037722 ] } },
{ "type": "Feature", "properties": { "PERMIT ID": "43323", "DATE OF ISSUE": "20/4/2015", "DATE OF COMPLETION": "", "STATUS": "0", "ADDRESS": "41 ERINVALE DR" }, "geometry": { "type": "Point", "coordinates": [ -64.73652021, 46.11456335 ] } },
{ "type": "Feature", "properties": { "PERMIT ID": "41837", "DATE OF ISSUE": "14/7/2014", "DATE OF COMPLETION": "11/7/2014", "STATUS": "1", "ADDRESS": "157 CUMBERLAND ST" }, "geometry": { "type": "Point", "coordinates": [ -64.83264305, 46.13709459 ] } }
]
}
