{
"type": "FeatureCollection",
"name": "Kingston_ss",
"crs": { "type": "name", "properties": { "name": "urn:ogc:def:crs:OGC:1.3:CRS84" } },
"features": [
{ "type": "Feature", "properties": { "PERMIT ID": "D30-0719-2024", "DATE OF ISSUE": "21/6/2024", "DATE OF COMPLETION": "", "STATUS": "0", "ADDRESS": "89 MORENZ CRES" }, "geometry": { "type": "Point", "coordinates": [ -76.4870974, 44.2678537 ] } },
{ "type": "Feature", "properties": { "PERMIT ID": "D30-1732-2023", "DATE OF ISSUE": "20/6/2024", "DATE OF COMPLETION": "", "STATUS": "0", "ADDRESS": "1 KARLEE CRT" }, "geometry": { "type": "Point", "coordinates": [ -76.48239, 44.2718566 ] } },
{ "type": "Feature", "properties": { "PERMIT ID": "D30-1690-2023", "DATE OF ISSUE": "20/6/2024", "DATE OF COMPLETION": "", "STATUS": "0", "ADDRESS": "3 KARLEE CRT" }, "geometry": { "type": "Point", "coordinates": [ -76.4824292, 44.2718878 ] } },
{ "type": "Feature", "properties": { "PERMIT ID": "D30-0895-2024", "DATE OF ISSUE": "20/6/2024", "DATE OF COMPLETION": "", "STATUS": "0", "ADDRESS": "315 PORTSMOUTH AVE" }, "geometry": { "type": "Point", "coordinates": [ -76.5258799, 44.2313028 ] } },
{ "type": "Feature", "properties": { "PERMIT ID": "D30-0678-2024", "DATE OF ISSUE": "6/6/2024", "DATE OF COMPLETION": "", "STATUS": "0", "ADDRESS": "1209 LINCOLN DR" }, "geometry": { "type": "Point", "coordinates": [ -76.6002341, 44.2468289 ] } },
{ "type": "Feature", "properties": { "PERMIT ID": "D30-0590-2024", "DATE OF ISSUE": "5/6/2024", "DATE OF COMPLETION": "", "STATUS": "0", "ADDRESS": "123 DAUPHIN AVE" }, "geometry": { "type": "Point", "coordinates": [ -76.4834338, 44.2695906 ] } },
{ "type": "Feature", "properties": { "PERMIT ID": "D30-0292-2024", "DATE OF ISSUE": "29/5/2024", "DATE OF COMPLETION": "", "STATUS": "0", "ADDRESS": "61 BAIDEN ST" }, "geometry": { "type": "Point", "coordinates": [ -76.5218431, 44.2216551 ] } },
{ "type": "Feature", "properties": { "PERMIT ID": "D30-0570-2024", "DATE OF ISSUE": "21/5/2024", "DATE OF COMPLETION": "", "STATUS": "0", "ADDRESS": "516 EVANGELINE AVE" }, "geometry": { "type": "Point", "coordinates": [ -76.5939084, 44.2343744 ] } },
{ "type": "Feature", "properties": { "PERMIT ID": "D30-0291-2024", "DATE OF ISSUE": "21/5/2024", "DATE OF COMPLETION": "", "STATUS": "0", "ADDRESS": "61 BAIDEN ST" }, "geometry": { "type": "Point", "coordinates": [ -76.5218431, 44.2216551 ] } },
{ "type": "Feature", "properties": { "PERMIT ID": "D30-0210-2024", "DATE OF ISSUE": "17/5/2024", "DATE OF COMPLETION": "", "STATUS": "0", "ADDRESS": "1224 BRACKENWOOD CRES" }, "geometry": { "type": "Point", "coordinates": [ -76.5785177, 44.2677949 ] } },
{ "type": "Feature", "properties": { "PERMIT ID": "D30-0581-2024", "DATE OF ISSUE": "17/5/2024", "DATE OF COMPLETION": "", "STATUS": "0", "ADDRESS": "964 LANCASTER DR" }, "geometry": { "type": "Point", "coordinates": [ -76.5937886, 44.2565117 ] } },
{ "type": "Feature", "properties": { "PERMIT ID": "D30-0367-2024", "DATE OF ISSUE": "10/5/2024", "DATE OF COMPLETION": "", "STATUS": "0", "ADDRESS": "620 FLEET ST" }, "geometry": { "type": "Point", "coordinates": [ -76.5919499, 44.2419388 ] } },
{ "type": "Feature", "properties": { "PERMIT ID": "D30-0610-2024", "DATE OF ISSUE": "9/5/2024", "DATE OF COMPLETION": "", "STATUS": "0", "ADDRESS": "618 DIVISION ST" }, "geometry": { "type": "Point", "coordinates": [ -76.4960258, 44.2473237 ] } },
{ "type": "Feature", "properties": { "PERMIT ID": "D30-0151-2024", "DATE OF ISSUE": "2/5/2024", "DATE OF COMPLETION": "", "STATUS": "0", "ADDRESS": "" }, "geometry": { "type": "Point", "coordinates": [ -76.5079912, 44.2316566 ] } },
{ "type": "Feature", "properties": { "PERMIT ID": "D30-0555-2024", "DATE OF ISSUE": "1/5/2024", "DATE OF COMPLETION": "", "STATUS": "0", "ADDRESS": "1701 EXECUTIVE AVE" }, "geometry": { "type": "Point", "coordinates": [ -76.5827889, 44.2778975 ] } },
{ "type": "Feature", "properties": { "PERMIT ID": "D30-0511-2024", "DATE OF ISSUE": "29/4/2024", "DATE OF COMPLETION": "", "STATUS": "0", "ADDRESS": "448 MCCALLUM ST" }, "geometry": { "type": "Point", "coordinates": [ -76.4487321, 44.2640646 ] } },
{ "type": "Feature", "properties": { "PERMIT ID": "D30-0277-2024", "DATE OF ISSUE": "23/4/2024", "DATE OF COMPLETION": "", "STATUS": "0", "ADDRESS": "333 ARROWHEAD PL" }, "geometry": { "type": "Point", "coordinates": [ -76.5277559, 44.2577978 ] } },
{ "type": "Feature", "properties": { "PERMIT ID": "D30-0269-2024", "DATE OF ISSUE": "19/4/2024", "DATE OF COMPLETION": "", "STATUS": "0", "ADDRESS": "928 MAYFAIR CRES" }, "geometry": { "type": "Point", "coordinates": [ -76.5870763, 44.2438973 ] } },
{ "type": "Feature", "properties": { "PERMIT ID": "D30-2290-2023", "DATE OF ISSUE": "15/4/2024", "DATE OF COMPLETION": "", "STATUS": "0", "ADDRESS": "322 HOLDEN ST" }, "geometry": { "type": "Point", "coordinates": [ -76.5895651, 44.2659271 ] } },
{ "type": "Feature", "properties": { "PERMIT ID": "D30-0356-2024", "DATE OF ISSUE": "11/4/2024", "DATE OF COMPLETION": "", "STATUS": "1", "ADDRESS": "170 WILSON ST" }, "geometry": { "type": "Point", "coordinates": [ -76.4869048, 44.2624233 ] } },
{ "type": "Feature", "properties": { "PERMIT ID": "D30-0199-2024", "DATE OF ISSUE": "11/4/2024", "DATE OF COMPLETION": "", "STATUS": "0", "ADDRESS": "45 JORENE DR" }, "geometry": { "type": "Point", "coordinates": [ -76.5734746, 44.2160491 ] } },
{ "type": "Feature", "properties": { "PERMIT ID": "D30-1319-2023", "DATE OF ISSUE": "3/4/2024", "DATE OF COMPLETION": "", "STATUS": "0", "ADDRESS": "14 CONNAUGHT ST" }, "geometry": { "type": "Point", "coordinates": [ -76.505071, 44.2417432 ] } },
{ "type": "Feature", "properties": { "PERMIT ID": "D30-1988-2023", "DATE OF ISSUE": "3/4/2024", "DATE OF COMPLETION": "", "STATUS": "0", "ADDRESS": "1015 MONTREAL ST" }, "geometry": { "type": "Point", "coordinates": [ -76.4812502, 44.2601942 ] } },
{ "type": "Feature", "properties": { "PERMIT ID": "D30-0384-2024", "DATE OF ISSUE": "2/4/2024", "DATE OF COMPLETION": "", "STATUS": "0", "ADDRESS": "814 BROCK ST" }, "geometry": { "type": "Point", "coordinates": [ -76.5134507, 44.2321212 ] } },
{ "type": "Feature", "properties": { "PERMIT ID": "D30-0014-2024", "DATE OF ISSUE": "27/3/2024", "DATE OF COMPLETION": "", "STATUS": "0", "ADDRESS": "839 ALFRED CRES" }, "geometry": { "type": "Point", "coordinates": [ -76.4987733, 44.2481572 ] } },
{ "type": "Feature", "properties": { "PERMIT ID": "D30-0075-2024", "DATE OF ISSUE": "26/3/2024", "DATE OF COMPLETION": "", "STATUS": "0", "ADDRESS": "505 CITATION CRES" }, "geometry": { "type": "Point", "coordinates": [ -76.5976164, 44.2338104 ] } },
{ "type": "Feature", "properties": { "PERMIT ID": "D30-1813-2023", "DATE OF ISSUE": "20/3/2024", "DATE OF COMPLETION": "", "STATUS": "0", "ADDRESS": "9 DICKENS DR" }, "geometry": { "type": "Point", "coordinates": [ -76.5214932, 44.2297867 ] } },
{ "type": "Feature", "properties": { "PERMIT ID": "D30-0154-2024", "DATE OF ISSUE": "18/3/2024", "DATE OF COMPLETION": "", "STATUS": "0", "ADDRESS": "12 ROBERT WALLACE DR" }, "geometry": { "type": "Point", "coordinates": [ -76.5283705, 44.2304253 ] } },
{ "type": "Feature", "properties": { "PERMIT ID": "D30-0211-2024", "DATE OF ISSUE": "18/3/2024", "DATE OF COMPLETION": "", "STATUS": "0", "ADDRESS": "354 BUCKTHORN DR" }, "geometry": { "type": "Point", "coordinates": [ -76.5926772, 44.2693081 ] } },
{ "type": "Feature", "properties": { "PERMIT ID": "D30-0206-2024", "DATE OF ISSUE": "15/3/2024", "DATE OF COMPLETION": "", "STATUS": "0", "ADDRESS": "260 BARRIE ST" }, "geometry": { "type": "Point", "coordinates": [ -76.4913532, 44.2308661 ] } },
{ "type": "Feature", "properties": { "PERMIT ID": "D30-0205-2024", "DATE OF ISSUE": "11/3/2024", "DATE OF COMPLETION": "", "STATUS": "0", "ADDRESS": "358 BUCKTHORN DR" }, "geometry": { "type": "Point", "coordinates": [ -76.5928311, 44.2694832 ] } },
{ "type": "Feature", "properties": { "PERMIT ID": "D30-0178-2024", "DATE OF ISSUE": "6/3/2024", "DATE OF COMPLETION": "", "STATUS": "1", "ADDRESS": "293 VAN ORDER DR" }, "geometry": { "type": "Point", "coordinates": [ -76.5271526, 44.2380049 ] } },
{ "type": "Feature", "properties": { "PERMIT ID": "D30-0215-2024", "DATE OF ISSUE": "4/3/2024", "DATE OF COMPLETION": "", "STATUS": "0", "ADDRESS": "14 SYDENHAM ST" }, "geometry": { "type": "Point", "coordinates": [ -76.4886347, 44.228258 ] } },
{ "type": "Feature", "properties": { "PERMIT ID": "D30-2234-2023", "DATE OF ISSUE": "26/2/2024", "DATE OF COMPLETION": "", "STATUS": "0", "ADDRESS": "104 CAMERON ST" }, "geometry": { "type": "Point", "coordinates": [ -76.5033001, 44.2496757 ] } },
{ "type": "Feature", "properties": { "PERMIT ID": "D30-0148-2024", "DATE OF ISSUE": "21/2/2024", "DATE OF COMPLETION": "", "STATUS": "0", "ADDRESS": "610 DIVISION ST" }, "geometry": { "type": "Point", "coordinates": [ -76.4960581, 44.2470332 ] } },
{ "type": "Feature", "properties": { "PERMIT ID": "D30-0213-2024", "DATE OF ISSUE": "20/2/2024", "DATE OF COMPLETION": "", "STATUS": "0", "ADDRESS": "1026 ROSANNA AVE" }, "geometry": { "type": "Point", "coordinates": [ -76.5996172, 44.2641823 ] } },
{ "type": "Feature", "properties": { "PERMIT ID": "D30-0067-2024", "DATE OF ISSUE": "9/2/2024", "DATE OF COMPLETION": "", "STATUS": "0", "ADDRESS": "6 HOWARD CRES" }, "geometry": { "type": "Point", "coordinates": [ -76.5300528, 44.2484646 ] } },
{ "type": "Feature", "properties": { "PERMIT ID": "D30-0079-2024", "DATE OF ISSUE": "2/2/2024", "DATE OF COMPLETION": "", "STATUS": "1", "ADDRESS": "784 AYLMER CRES" }, "geometry": { "type": "Point", "coordinates": [ -76.6138731, 44.2487557 ] } },
{ "type": "Feature", "properties": { "PERMIT ID": "D30-2312-2023", "DATE OF ISSUE": "1/2/2024", "DATE OF COMPLETION": "", "STATUS": "1", "ADDRESS": "26 CASTERTON AVE" }, "geometry": { "type": "Point", "coordinates": [ -76.5263806, 44.2337064 ] } },
{ "type": "Feature", "properties": { "PERMIT ID": "D30-0754-2019", "DATE OF ISSUE": "31/1/2024", "DATE OF COMPLETION": "", "STATUS": "0", "ADDRESS": "34 CHURCHILL ST" }, "geometry": { "type": "Point", "coordinates": [ -76.5218089, 44.2223505 ] } },
{ "type": "Feature", "properties": { "PERMIT ID": "D30-2339-2023", "DATE OF ISSUE": "30/1/2024", "DATE OF COMPLETION": "", "STATUS": "0", "ADDRESS": "1021 WISE ST" }, "geometry": { "type": "Point", "coordinates": [ -76.5942342, 44.2596343 ] } },
{ "type": "Feature", "properties": { "PERMIT ID": "D30-0725-2023", "DATE OF ISSUE": "18/1/2024", "DATE OF COMPLETION": "", "STATUS": "0", "ADDRESS": "1355 GRAYSON DR" }, "geometry": { "type": "Point", "coordinates": [ -76.5611655, 44.246388 ] } },
{ "type": "Feature", "properties": { "PERMIT ID": "D30-2338-2023", "DATE OF ISSUE": "16/1/2024", "DATE OF COMPLETION": "", "STATUS": "0", "ADDRESS": "162 MORENZ CRES" }, "geometry": { "type": "Point", "coordinates": [ -76.4869317, 44.2670395 ] } },
{ "type": "Feature", "properties": { "PERMIT ID": "D30-2255-2023", "DATE OF ISSUE": "11/1/2024", "DATE OF COMPLETION": "", "STATUS": "0", "ADDRESS": "1383 ANDERSEN DR" }, "geometry": { "type": "Point", "coordinates": [ -76.5493208, 44.2688598 ] } },
{ "type": "Feature", "properties": { "PERMIT ID": "D30-0033-2023", "DATE OF ISSUE": "3/1/2024", "DATE OF COMPLETION": "", "STATUS": "0", "ADDRESS": "980 PINEWOOD PL" }, "geometry": { "type": "Point", "coordinates": [ -76.5798749, 44.2639031 ] } },
{ "type": "Feature", "properties": { "PERMIT ID": "D30-2311-2023", "DATE OF ISSUE": "3/1/2024", "DATE OF COMPLETION": "", "STATUS": "1", "ADDRESS": "805 WINDERMERE DR" }, "geometry": { "type": "Point", "coordinates": [ -76.62517, 44.2730086 ] } },
{ "type": "Feature", "properties": { "PERMIT ID": "D30-2206-2023", "DATE OF ISSUE": "28/12/2023", "DATE OF COMPLETION": "", "STATUS": "0", "ADDRESS": "" }, "geometry": { "type": "Point", "coordinates": [ -76.5918502, 44.2681509 ] } },
{ "type": "Feature", "properties": { "PERMIT ID": "D30-2242-2023", "DATE OF ISSUE": "28/12/2023", "DATE OF COMPLETION": "", "STATUS": "0", "ADDRESS": "7 MACKENZIE CRES" }, "geometry": { "type": "Point", "coordinates": [ -76.5276137, 44.2305877 ] } },
{ "type": "Feature", "properties": { "PERMIT ID": "D30-2154-2023", "DATE OF ISSUE": "28/12/2023", "DATE OF COMPLETION": "", "STATUS": "1", "ADDRESS": "364 MELANIE AVE" }, "geometry": { "type": "Point", "coordinates": [ -76.5476159, 44.2432861 ] } },
{ "type": "Feature", "properties": { "PERMIT ID": "D30-2233-2023", "DATE OF ISSUE": "21/12/2023", "DATE OF COMPLETION": "", "STATUS": "0", "ADDRESS": "983 SYDENHAM RD" }, "geometry": { "type": "Point", "coordinates": [ -76.5443304, 44.2631254 ] } },
{ "type": "Feature", "properties": { "PERMIT ID": "D30-2170-2023", "DATE OF ISSUE": "11/12/2023", "DATE OF COMPLETION": "", "STATUS": "0", "ADDRESS": "1074 PINEWOOD PL" }, "geometry": { "type": "Point", "coordinates": [ -76.5824974, 44.2608596 ] } },
{ "type": "Feature", "properties": { "PERMIT ID": "D30-1237-2023", "DATE OF ISSUE": "5/12/2023", "DATE OF COMPLETION": "", "STATUS": "0", "ADDRESS": "23 ELLERBECK ST" }, "geometry": { "type": "Point", "coordinates": [ -76.5068402, 44.2220217 ] } },
{ "type": "Feature", "properties": { "PERMIT ID": "D30-1344-2023", "DATE OF ISSUE": "5/12/2023", "DATE OF COMPLETION": "", "STATUS": "0", "ADDRESS": "25 ELLERBECK ST" }, "geometry": { "type": "Point", "coordinates": [ -76.5068557, 44.2220857 ] } },
{ "type": "Feature", "properties": { "PERMIT ID": "D30-1649-2022", "DATE OF ISSUE": "5/12/2023", "DATE OF COMPLETION": "", "STATUS": "1", "ADDRESS": "597 DAVIS DR" }, "geometry": { "type": "Point", "coordinates": [ -76.5657781, 44.2527486 ] } },
{ "type": "Feature", "properties": { "PERMIT ID": "D30-2094-2023", "DATE OF ISSUE": "4/12/2023", "DATE OF COMPLETION": "", "STATUS": "1", "ADDRESS": "60 CAMPBELL CRES" }, "geometry": { "type": "Point", "coordinates": [ -76.53051, 44.2303788 ] } },
{ "type": "Feature", "properties": { "PERMIT ID": "D30-2134-2023", "DATE OF ISSUE": "30/11/2023", "DATE OF COMPLETION": "", "STATUS": "0", "ADDRESS": "1393 ANDERSEN DR" }, "geometry": { "type": "Point", "coordinates": [ -76.5493034, 44.2693547 ] } },
{ "type": "Feature", "properties": { "PERMIT ID": "D30-1790-2023", "DATE OF ISSUE": "27/11/2023", "DATE OF COMPLETION": "", "STATUS": "1", "ADDRESS": "56 BARBARA AVE" }, "geometry": { "type": "Point", "coordinates": [ -76.4974486, 44.2483226 ] } },
{ "type": "Feature", "properties": { "PERMIT ID": "D30-1824-2023", "DATE OF ISSUE": "27/11/2023", "DATE OF COMPLETION": "", "STATUS": "1", "ADDRESS": "54 BARBARA AVE" }, "geometry": { "type": "Point", "coordinates": [ -76.4974486, 44.2483226 ] } },
{ "type": "Feature", "properties": { "PERMIT ID": "D30-1837-2023", "DATE OF ISSUE": "27/11/2023", "DATE OF COMPLETION": "", "STATUS": "1", "ADDRESS": "62 BARBARA AVE" }, "geometry": { "type": "Point", "coordinates": [ -76.4974486, 44.2483226 ] } },
{ "type": "Feature", "properties": { "PERMIT ID": "D30-1838-2023", "DATE OF ISSUE": "27/11/2023", "DATE OF COMPLETION": "", "STATUS": "1", "ADDRESS": "60 BARBARA AVE" }, "geometry": { "type": "Point", "coordinates": [ -76.4974486, 44.2483226 ] } },
{ "type": "Feature", "properties": { "PERMIT ID": "D30-1788-2023", "DATE OF ISSUE": "27/11/2023", "DATE OF COMPLETION": "", "STATUS": "1", "ADDRESS": "50 BARBARA AVE" }, "geometry": { "type": "Point", "coordinates": [ -76.497491, 44.2486507 ] } },
{ "type": "Feature", "properties": { "PERMIT ID": "D30-1789-2023", "DATE OF ISSUE": "27/11/2023", "DATE OF COMPLETION": "", "STATUS": "1", "ADDRESS": "52 BARBARA AVE" }, "geometry": { "type": "Point", "coordinates": [ -76.4974486, 44.2483226 ] } },
{ "type": "Feature", "properties": { "PERMIT ID": "D30-1707-2023", "DATE OF ISSUE": "27/11/2023", "DATE OF COMPLETION": "", "STATUS": "1", "ADDRESS": "44 BARBARA AVE" }, "geometry": { "type": "Point", "coordinates": [ -76.497491, 44.2486507 ] } },
{ "type": "Feature", "properties": { "PERMIT ID": "D30-1786-2023", "DATE OF ISSUE": "27/11/2023", "DATE OF COMPLETION": "", "STATUS": "1", "ADDRESS": "46 BARBARA AVE" }, "geometry": { "type": "Point", "coordinates": [ -76.497491, 44.2486507 ] } },
{ "type": "Feature", "properties": { "PERMIT ID": "D30-1787-2023", "DATE OF ISSUE": "27/11/2023", "DATE OF COMPLETION": "", "STATUS": "1", "ADDRESS": "48 BARBARA AVE" }, "geometry": { "type": "Point", "coordinates": [ -76.497491, 44.2486507 ] } },
{ "type": "Feature", "properties": { "PERMIT ID": "D30-1836-2023", "DATE OF ISSUE": "27/11/2023", "DATE OF COMPLETION": "", "STATUS": "1", "ADDRESS": "58 BARBARA AVE" }, "geometry": { "type": "Point", "coordinates": [ -76.4974486, 44.2483226 ] } },
{ "type": "Feature", "properties": { "PERMIT ID": "D30-1902-2023", "DATE OF ISSUE": "21/11/2023", "DATE OF COMPLETION": "", "STATUS": "0", "ADDRESS": "976 SWANFIELD ST" }, "geometry": { "type": "Point", "coordinates": [ -76.5542923, 44.2467819 ] } },
{ "type": "Feature", "properties": { "PERMIT ID": "D30-2030-2023", "DATE OF ISSUE": "13/11/2023", "DATE OF COMPLETION": "", "STATUS": "1", "ADDRESS": "1199 MONTREAL ST" }, "geometry": { "type": "Point", "coordinates": [ -76.4782378, 44.2659889 ] } },
{ "type": "Feature", "properties": { "PERMIT ID": "D30-1156-2023", "DATE OF ISSUE": "13/11/2023", "DATE OF COMPLETION": "", "STATUS": "0", "ADDRESS": "212 HAWTHORNE AVE" }, "geometry": { "type": "Point", "coordinates": [ -76.5322166, 44.2482179 ] } },
{ "type": "Feature", "properties": { "PERMIT ID": "D30-1715-2023", "DATE OF ISSUE": "27/10/2023", "DATE OF COMPLETION": "", "STATUS": "0", "ADDRESS": "437 MCCALLUM ST" }, "geometry": { "type": "Point", "coordinates": [ -76.4498243, 44.2635378 ] } },
{ "type": "Feature", "properties": { "PERMIT ID": "D30-1815-2023", "DATE OF ISSUE": "24/10/2023", "DATE OF COMPLETION": "", "STATUS": "1", "ADDRESS": "119 COUNTRY CLUB DR" }, "geometry": { "type": "Point", "coordinates": [ -76.5308462, 44.2247348 ] } },
{ "type": "Feature", "properties": { "PERMIT ID": "D30-0358-2023", "DATE OF ISSUE": "11/10/2023", "DATE OF COMPLETION": "", "STATUS": "0", "ADDRESS": "335 OWENS CRES" }, "geometry": { "type": "Point", "coordinates": [ -76.5473833, 44.2421037 ] } },
{ "type": "Feature", "properties": { "PERMIT ID": "D30-1812-2023", "DATE OF ISSUE": "10/10/2023", "DATE OF COMPLETION": "", "STATUS": "0", "ADDRESS": "224 MCLELLAN CRT" }, "geometry": { "type": "Point", "coordinates": [ -76.5431328, 44.243516 ] } },
{ "type": "Feature", "properties": { "PERMIT ID": "D30-1203-2023", "DATE OF ISSUE": "10/10/2023", "DATE OF COMPLETION": "", "STATUS": "1", "ADDRESS": "1157 HALIFAX DR" }, "geometry": { "type": "Point", "coordinates": [ -76.5585105, 44.2660482 ] } },
{ "type": "Feature", "properties": { "PERMIT ID": "D30-1520-2023", "DATE OF ISSUE": "10/10/2023", "DATE OF COMPLETION": "", "STATUS": "0", "ADDRESS": "1441 MONTREAL ST" }, "geometry": { "type": "Point", "coordinates": [ -76.4764467, 44.2738021 ] } },
{ "type": "Feature", "properties": { "PERMIT ID": "D30-0923-2023", "DATE OF ISSUE": "3/10/2023", "DATE OF COMPLETION": "", "STATUS": "0", "ADDRESS": "949 BLOSSOM ST" }, "geometry": { "type": "Point", "coordinates": [ -76.6023817, 44.2638408 ] } },
{ "type": "Feature", "properties": { "PERMIT ID": "D30-0495-2023", "DATE OF ISSUE": "3/10/2023", "DATE OF COMPLETION": "", "STATUS": "0", "ADDRESS": "506 GRANDTRUNK AVE" }, "geometry": { "type": "Point", "coordinates": [ -76.5531022, 44.2553328 ] } },
{ "type": "Feature", "properties": { "PERMIT ID": "D30-1141-2023", "DATE OF ISSUE": "2/10/2023", "DATE OF COMPLETION": "", "STATUS": "0", "ADDRESS": "62 HATTER ST" }, "geometry": { "type": "Point", "coordinates": [ -76.519562, 44.2256961 ] } },
{ "type": "Feature", "properties": { "PERMIT ID": "D30-0749-2023", "DATE OF ISSUE": "25/9/2023", "DATE OF COMPLETION": "", "STATUS": "1", "ADDRESS": "606 DAVIS DR" }, "geometry": { "type": "Point", "coordinates": [ -76.5659191, 44.2532054 ] } },
{ "type": "Feature", "properties": { "PERMIT ID": "D30-1293-2023", "DATE OF ISSUE": "25/9/2023", "DATE OF COMPLETION": "", "STATUS": "0", "ADDRESS": "724 CENTRE ST" }, "geometry": { "type": "Point", "coordinates": [ -76.6067033, 44.2462152 ] } },
{ "type": "Feature", "properties": { "PERMIT ID": "D30-1519-2023", "DATE OF ISSUE": "18/9/2023", "DATE OF COMPLETION": "", "STATUS": "1", "ADDRESS": "1329 FRANK ST" }, "geometry": { "type": "Point", "coordinates": [ -76.5817451, 44.2756964 ] } },
{ "type": "Feature", "properties": { "PERMIT ID": "D30-1439-2023", "DATE OF ISSUE": "13/9/2023", "DATE OF COMPLETION": "", "STATUS": "1", "ADDRESS": "312 FRIARHILL CRES" }, "geometry": { "type": "Point", "coordinates": [ -76.5497167, 44.2547587 ] } },
{ "type": "Feature", "properties": { "PERMIT ID": "D30-0943-2023", "DATE OF ISSUE": "11/9/2023", "DATE OF COMPLETION": "", "STATUS": "0", "ADDRESS": "83 CALDERWOOD DR" }, "geometry": { "type": "Point", "coordinates": [ -76.5232107, 44.2256561 ] } },
{ "type": "Feature", "properties": { "PERMIT ID": "D30-1363-2023", "DATE OF ISSUE": "5/9/2023", "DATE OF COMPLETION": "", "STATUS": "1", "ADDRESS": "599 DIVISION ST" }, "geometry": { "type": "Point", "coordinates": [ -76.4954148, 44.2467857 ] } },
{ "type": "Feature", "properties": { "PERMIT ID": "D30-1142-2023", "DATE OF ISSUE": "31/8/2023", "DATE OF COMPLETION": "", "STATUS": "1", "ADDRESS": "82 BARKER DR" }, "geometry": { "type": "Point", "coordinates": [ -76.4621741, 44.2581536 ] } },
{ "type": "Feature", "properties": { "PERMIT ID": "D30-1229-2022", "DATE OF ISSUE": "28/8/2023", "DATE OF COMPLETION": "", "STATUS": "0", "ADDRESS": "130 HINEMAN ST" }, "geometry": { "type": "Point", "coordinates": [ -76.4026683, 44.3250162 ] } },
{ "type": "Feature", "properties": { "PERMIT ID": "D30-1053-2023", "DATE OF ISSUE": "24/8/2023", "DATE OF COMPLETION": "", "STATUS": "1", "ADDRESS": "1345 MONACO CRT" }, "geometry": { "type": "Point", "coordinates": [ -76.5549177, 44.267985 ] } },
{ "type": "Feature", "properties": { "PERMIT ID": "D30-1345-2023", "DATE OF ISSUE": "23/8/2023", "DATE OF COMPLETION": "", "STATUS": "1", "ADDRESS": "923 PEMBRIDGE CRES" }, "geometry": { "type": "Point", "coordinates": [ -76.5864556, 44.2463984 ] } },
{ "type": "Feature", "properties": { "PERMIT ID": "D30-1369-2023", "DATE OF ISSUE": "22/8/2023", "DATE OF COMPLETION": "", "STATUS": "0", "ADDRESS": "281 MOWAT AVE" }, "geometry": { "type": "Point", "coordinates": [ -76.520305, 44.2263486 ] } },
{ "type": "Feature", "properties": { "PERMIT ID": "D30-0514-2023", "DATE OF ISSUE": "10/8/2023", "DATE OF COMPLETION": "", "STATUS": "0", "ADDRESS": "2494 BATTERSEA RD" }, "geometry": { "type": "Point", "coordinates": [ -76.4564182, 44.3312312 ] } },
{ "type": "Feature", "properties": { "PERMIT ID": "D30-1346-2023", "DATE OF ISSUE": "10/8/2023", "DATE OF COMPLETION": "", "STATUS": "1", "ADDRESS": "1 CONACHER DR" }, "geometry": { "type": "Point", "coordinates": [ -76.4819953, 44.2683853 ] } },
{ "type": "Feature", "properties": { "PERMIT ID": "D30-1270-2023", "DATE OF ISSUE": "8/8/2023", "DATE OF COMPLETION": "", "STATUS": "1", "ADDRESS": "724 CENTRE ST" }, "geometry": { "type": "Point", "coordinates": [ -76.6067033, 44.2462152 ] } },
{ "type": "Feature", "properties": { "PERMIT ID": "D30-2052-2022", "DATE OF ISSUE": "8/8/2023", "DATE OF COMPLETION": "", "STATUS": "1", "ADDRESS": "668 CHADWICK CRT" }, "geometry": { "type": "Point", "coordinates": [ -76.5491396, 44.2625784 ] } },
{ "type": "Feature", "properties": { "PERMIT ID": "D30-0661-2023", "DATE OF ISSUE": "27/7/2023", "DATE OF COMPLETION": "", "STATUS": "1", "ADDRESS": "170 ROBERT WALLACE DR" }, "geometry": { "type": "Point", "coordinates": [ -76.5301088, 44.2345475 ] } },
{ "type": "Feature", "properties": { "PERMIT ID": "D30-1096-2023", "DATE OF ISSUE": "20/7/2023", "DATE OF COMPLETION": "", "STATUS": "1", "ADDRESS": "152 BRICELAND ST" }, "geometry": { "type": "Point", "coordinates": [ -76.4885688, 44.2579129 ] } },
{ "type": "Feature", "properties": { "PERMIT ID": "D30-0663-2023", "DATE OF ISSUE": "20/7/2023", "DATE OF COMPLETION": "", "STATUS": "1", "ADDRESS": "29 REDDEN ST" }, "geometry": { "type": "Point", "coordinates": [ -76.5736543, 44.217341 ] } },
{ "type": "Feature", "properties": { "PERMIT ID": "D30-1024-2023", "DATE OF ISSUE": "10/7/2023", "DATE OF COMPLETION": "", "STATUS": "0", "ADDRESS": "86 BAIDEN ST" }, "geometry": { "type": "Point", "coordinates": [ -76.5231428, 44.2212527 ] } },
{ "type": "Feature", "properties": { "PERMIT ID": "D30-0944-2023", "DATE OF ISSUE": "5/7/2023", "DATE OF COMPLETION": "", "STATUS": "1", "ADDRESS": "847 AUGUSTA DR" }, "geometry": { "type": "Point", "coordinates": [ -76.5529244, 44.2667454 ] } },
{ "type": "Feature", "properties": { "PERMIT ID": "D30-0960-2023", "DATE OF ISSUE": "28/6/2023", "DATE OF COMPLETION": "", "STATUS": "1", "ADDRESS": "1 - 1012 WATERBURY CRES" }, "geometry": { "type": "Point", "coordinates": [ -76.589803, 44.2316336 ] } },
{ "type": "Feature", "properties": { "PERMIT ID": "D30-0131-2023", "DATE OF ISSUE": "26/6/2023", "DATE OF COMPLETION": "", "STATUS": "1", "ADDRESS": "21 HOLLAND CRES" }, "geometry": { "type": "Point", "coordinates": [ -76.5255354, 44.2354155 ] } },
{ "type": "Feature", "properties": { "PERMIT ID": "D30-2036-2022", "DATE OF ISSUE": "19/6/2023", "DATE OF COMPLETION": "", "STATUS": "1", "ADDRESS": "647 CHADWICK CRT" }, "geometry": { "type": "Point", "coordinates": [ -76.5497293, 44.2617656 ] } },
{ "type": "Feature", "properties": { "PERMIT ID": "D30-0512-2023", "DATE OF ISSUE": "7/6/2023", "DATE OF COMPLETION": "", "STATUS": "0", "ADDRESS": "160 BRICELAND ST" }, "geometry": { "type": "Point", "coordinates": [ -76.4890144, 44.2579622 ] } },
{ "type": "Feature", "properties": { "PERMIT ID": "D30-2020-2023", "DATE OF ISSUE": "6/6/2023", "DATE OF COMPLETION": "", "STATUS": "1", "ADDRESS": "355 MELANIE AVE" }, "geometry": { "type": "Point", "coordinates": [ -76.5481684, 44.2428849 ] } },
{ "type": "Feature", "properties": { "PERMIT ID": "D30-0845-2023", "DATE OF ISSUE": "6/6/2023", "DATE OF COMPLETION": "", "STATUS": "1", "ADDRESS": "119 DRENNAN ST" }, "geometry": { "type": "Point", "coordinates": [ -76.4872241, 44.2609324 ] } },
{ "type": "Feature", "properties": { "PERMIT ID": "D30-1214-2023", "DATE OF ISSUE": "6/6/2023", "DATE OF COMPLETION": "", "STATUS": "0", "ADDRESS": "15 RICHARDSON DR" }, "geometry": { "type": "Point", "coordinates": [ -76.5289816, 44.2317073 ] } },
{ "type": "Feature", "properties": { "PERMIT ID": "D30-0639-2023", "DATE OF ISSUE": "31/5/2023", "DATE OF COMPLETION": "", "STATUS": "0", "ADDRESS": "284 WESTDALE AVE" }, "geometry": { "type": "Point", "coordinates": [ -76.5133971, 44.2389988 ] } },
{ "type": "Feature", "properties": { "PERMIT ID": "D30-0597-2023", "DATE OF ISSUE": "18/5/2023", "DATE OF COMPLETION": "", "STATUS": "1", "ADDRESS": "712 COLLINS BAY RD" }, "geometry": { "type": "Point", "coordinates": [ -76.6099011, 44.2451199 ] } },
{ "type": "Feature", "properties": { "PERMIT ID": "D30-0098-2023", "DATE OF ISSUE": "11/5/2023", "DATE OF COMPLETION": "", "STATUS": "0", "ADDRESS": "429 DIVISION ST" }, "geometry": { "type": "Point", "coordinates": [ -76.4946146, 44.2411666 ] } },
{ "type": "Feature", "properties": { "PERMIT ID": "D30-0646-2023", "DATE OF ISSUE": "5/5/2023", "DATE OF COMPLETION": "", "STATUS": "0", "ADDRESS": "9 NOTTINGHAM PL" }, "geometry": { "type": "Point", "coordinates": [ -76.5211658, 44.248489 ] } },
{ "type": "Feature", "properties": { "PERMIT ID": "D30-0379-2023", "DATE OF ISSUE": "24/4/2023", "DATE OF COMPLETION": "", "STATUS": "1", "ADDRESS": "200 CAMBERLEY CRES" }, "geometry": { "type": "Point", "coordinates": [ -76.5750332, 44.2219165 ] } },
{ "type": "Feature", "properties": { "PERMIT ID": "D30-1143-2022", "DATE OF ISSUE": "20/4/2023", "DATE OF COMPLETION": "", "STATUS": "1", "ADDRESS": "139 PINE ST" }, "geometry": { "type": "Point", "coordinates": [ -76.4947274, 44.2394583 ] } },
{ "type": "Feature", "properties": { "PERMIT ID": "D30-0431-2023", "DATE OF ISSUE": "14/4/2023", "DATE OF COMPLETION": "", "STATUS": "1", "ADDRESS": "93 CAMPBELL CRES" }, "geometry": { "type": "Point", "coordinates": [ -76.5313043, 44.2309263 ] } },
{ "type": "Feature", "properties": { "PERMIT ID": "D30-0435-2023", "DATE OF ISSUE": "13/4/2023", "DATE OF COMPLETION": "", "STATUS": "1", "ADDRESS": "365 MELANIE AVE" }, "geometry": { "type": "Point", "coordinates": [ -76.5483198, 44.2433074 ] } },
{ "type": "Feature", "properties": { "PERMIT ID": "D30-0167-2023", "DATE OF ISSUE": "13/4/2023", "DATE OF COMPLETION": "", "STATUS": "0", "ADDRESS": "4 DALY ST" }, "geometry": { "type": "Point", "coordinates": [ -76.4823107, 44.261351 ] } },
{ "type": "Feature", "properties": { "PERMIT ID": "D30-0441-2023", "DATE OF ISSUE": "12/4/2023", "DATE OF COMPLETION": "", "STATUS": "1", "ADDRESS": "7 WOLFE ST" }, "geometry": { "type": "Point", "coordinates": [ -76.5191469, 44.2273304 ] } },
{ "type": "Feature", "properties": { "PERMIT ID": "D30-0384-2023", "DATE OF ISSUE": "4/4/2023", "DATE OF COMPLETION": "", "STATUS": "1", "ADDRESS": "1207 WATERSIDE WAY" }, "geometry": { "type": "Point", "coordinates": [ -76.4544603, 44.2704523 ] } },
{ "type": "Feature", "properties": { "PERMIT ID": "D30-0070-2023", "DATE OF ISSUE": "28/3/2023", "DATE OF COMPLETION": "", "STATUS": "1", "ADDRESS": "49 HATTER ST" }, "geometry": { "type": "Point", "coordinates": [ -76.5189308, 44.2252091 ] } },
{ "type": "Feature", "properties": { "PERMIT ID": "D30-0183-2023", "DATE OF ISSUE": "20/3/2023", "DATE OF COMPLETION": "", "STATUS": "1", "ADDRESS": "7 MORENZ CRES" }, "geometry": { "type": "Point", "coordinates": [ -76.4834718, 44.2676405 ] } },
{ "type": "Feature", "properties": { "PERMIT ID": "D30-0249-2023", "DATE OF ISSUE": "20/3/2023", "DATE OF COMPLETION": "", "STATUS": "1", "ADDRESS": "429 FIELDSTONE DR" }, "geometry": { "type": "Point", "coordinates": [ -76.4504949, 44.26035 ] } },
{ "type": "Feature", "properties": { "PERMIT ID": "D30-0209-2023", "DATE OF ISSUE": "10/3/2023", "DATE OF COMPLETION": "", "STATUS": "1", "ADDRESS": "16 LIMERIDGE DR" }, "geometry": { "type": "Point", "coordinates": [ -76.4613078, 44.2537768 ] } },
{ "type": "Feature", "properties": { "PERMIT ID": "D30-0164-2023", "DATE OF ISSUE": "10/3/2023", "DATE OF COMPLETION": "", "STATUS": "0", "ADDRESS": "661 CARNABY ST" }, "geometry": { "type": "Point", "coordinates": [ -76.5974057, 44.2434131 ] } },
{ "type": "Feature", "properties": { "PERMIT ID": "D30-0233-2022", "DATE OF ISSUE": "7/3/2023", "DATE OF COMPLETION": "", "STATUS": "0", "ADDRESS": "442 MCCALLUM ST" }, "geometry": { "type": "Point", "coordinates": [ -76.4491417, 44.2640288 ] } },
{ "type": "Feature", "properties": { "PERMIT ID": "D30-2073-2022", "DATE OF ISSUE": "7/3/2023", "DATE OF COMPLETION": "", "STATUS": "0", "ADDRESS": "542 DAVIS DR" }, "geometry": { "type": "Point", "coordinates": [ -76.5622318, 44.2529009 ] } },
{ "type": "Feature", "properties": { "PERMIT ID": "D30-2034-2022", "DATE OF ISSUE": "27/2/2023", "DATE OF COMPLETION": "", "STATUS": "1", "ADDRESS": "913 WARBURTON CRES" }, "geometry": { "type": "Point", "coordinates": [ -76.5543109, 44.2532196 ] } },
{ "type": "Feature", "properties": { "PERMIT ID": "D30-0034-2023", "DATE OF ISSUE": "24/2/2023", "DATE OF COMPLETION": "", "STATUS": "1", "ADDRESS": "151 DAUPHIN AVE" }, "geometry": { "type": "Point", "coordinates": [ -76.4846864, 44.2694952 ] } },
{ "type": "Feature", "properties": { "PERMIT ID": "D30-2165-2022", "DATE OF ISSUE": "23/2/2023", "DATE OF COMPLETION": "", "STATUS": "1", "ADDRESS": "743 RIDLEY DR" }, "geometry": { "type": "Point", "coordinates": [ -76.5762664, 44.2556456 ] } },
{ "type": "Feature", "properties": { "PERMIT ID": "D30-0855-2019", "DATE OF ISSUE": "21/2/2023", "DATE OF COMPLETION": "", "STATUS": "0", "ADDRESS": "92 BAIDEN ST" }, "geometry": { "type": "Point", "coordinates": [ -76.5233564, 44.2212431 ] } },
{ "type": "Feature", "properties": { "PERMIT ID": "D30-0007-2023", "DATE OF ISSUE": "14/2/2023", "DATE OF COMPLETION": "", "STATUS": "1", "ADDRESS": "171 BRICELAND ST" }, "geometry": { "type": "Point", "coordinates": [ -76.4895787, 44.2584619 ] } },
{ "type": "Feature", "properties": { "PERMIT ID": "D30-0047-2023", "DATE OF ISSUE": "10/2/2023", "DATE OF COMPLETION": "", "STATUS": "1", "ADDRESS": "650 FLEET ST" }, "geometry": { "type": "Point", "coordinates": [ -76.5923655, 44.2439319 ] } },
{ "type": "Feature", "properties": { "PERMIT ID": "D30-0002-2023", "DATE OF ISSUE": "8/2/2023", "DATE OF COMPLETION": "", "STATUS": "1", "ADDRESS": "162 MACDONNELL ST" }, "geometry": { "type": "Point", "coordinates": [ -76.5051557, 44.2305346 ] } },
{ "type": "Feature", "properties": { "PERMIT ID": "D30-0046-2023", "DATE OF ISSUE": "2/2/2023", "DATE OF COMPLETION": "", "STATUS": "1", "ADDRESS": "949 LINCOLN DR" }, "geometry": { "type": "Point", "coordinates": [ -76.5869696, 44.2399932 ] } },
{ "type": "Feature", "properties": { "PERMIT ID": "D30-0035-2023", "DATE OF ISSUE": "1/2/2023", "DATE OF COMPLETION": "", "STATUS": "0", "ADDRESS": "29 HOLLAND CRES" }, "geometry": { "type": "Point", "coordinates": [ -76.5251449, 44.2355056 ] } },
{ "type": "Feature", "properties": { "PERMIT ID": "D30-1869-2022", "DATE OF ISSUE": "26/1/2023", "DATE OF COMPLETION": "", "STATUS": "0", "ADDRESS": "100 RUSSELL ST" }, "geometry": { "type": "Point", "coordinates": [ -76.4914387, 44.2440811 ] } },
{ "type": "Feature", "properties": { "PERMIT ID": "D30-2042-2022", "DATE OF ISSUE": "18/1/2023", "DATE OF COMPLETION": "", "STATUS": "1", "ADDRESS": "949 LIMESTONE DR" }, "geometry": { "type": "Point", "coordinates": [ -76.5953904, 44.2566662 ] } },
{ "type": "Feature", "properties": { "PERMIT ID": "D30-1424-2022", "DATE OF ISSUE": "16/1/2023", "DATE OF COMPLETION": "", "STATUS": "1", "ADDRESS": "4255 BATH RD" }, "geometry": { "type": "Point", "coordinates": [ -76.6261003, 44.2323441 ] } },
{ "type": "Feature", "properties": { "PERMIT ID": "D30-1715-2022", "DATE OF ISSUE": "16/1/2023", "DATE OF COMPLETION": "", "STATUS": "0", "ADDRESS": "593 BARNSLEY CRES" }, "geometry": { "type": "Point", "coordinates": [ -76.5952728, 44.2307118 ] } },
{ "type": "Feature", "properties": { "PERMIT ID": "D30-2137-2022", "DATE OF ISSUE": "11/1/2023", "DATE OF COMPLETION": "", "STATUS": "0", "ADDRESS": "45 MORENZ CRES" }, "geometry": { "type": "Point", "coordinates": [ -76.4850114, 44.2679964 ] } },
{ "type": "Feature", "properties": { "PERMIT ID": "D30-2178-2022", "DATE OF ISSUE": "11/1/2023", "DATE OF COMPLETION": "", "STATUS": "1", "ADDRESS": "11 JANE AVE" }, "geometry": { "type": "Point", "coordinates": [ -76.5196248, 44.2467968 ] } },
{ "type": "Feature", "properties": { "PERMIT ID": "D30-0006-2023", "DATE OF ISSUE": "10/1/2023", "DATE OF COMPLETION": "", "STATUS": "0", "ADDRESS": "477 WESTON CRES" }, "geometry": { "type": "Point", "coordinates": [ -76.5457783, 44.2546782 ] } },
{ "type": "Feature", "properties": { "PERMIT ID": "D30-1773-2022", "DATE OF ISSUE": "19/12/2022", "DATE OF COMPLETION": "", "STATUS": "1", "ADDRESS": "1407 TULIP DR" }, "geometry": { "type": "Point", "coordinates": [ -76.5879877, 44.2681607 ] } },
{ "type": "Feature", "properties": { "PERMIT ID": "D30-2031-2022", "DATE OF ISSUE": "15/12/2022", "DATE OF COMPLETION": "", "STATUS": "1", "ADDRESS": "248 MCLELLAN CRT" }, "geometry": { "type": "Point", "coordinates": [ -76.5439451, 44.2428521 ] } },
{ "type": "Feature", "properties": { "PERMIT ID": "D30-0337-2022", "DATE OF ISSUE": "13/12/2022", "DATE OF COMPLETION": "", "STATUS": "1", "ADDRESS": "592 BARNSLEY CRES" }, "geometry": { "type": "Point", "coordinates": [ -76.5951286, 44.2302526 ] } },
{ "type": "Feature", "properties": { "PERMIT ID": "D30-1937-2022", "DATE OF ISSUE": "7/12/2022", "DATE OF COMPLETION": "", "STATUS": "1", "ADDRESS": "345 JANETTE ST" }, "geometry": { "type": "Point", "coordinates": [ -76.5917939, 44.2625164 ] } },
{ "type": "Feature", "properties": { "PERMIT ID": "D30-1061-2022", "DATE OF ISSUE": "30/11/2022", "DATE OF COMPLETION": "", "STATUS": "1", "ADDRESS": "32 HOLLAND CRES" }, "geometry": { "type": "Point", "coordinates": [ -76.5252477, 44.2359549 ] } },
{ "type": "Feature", "properties": { "PERMIT ID": "D30-1906-2022", "DATE OF ISSUE": "23/11/2022", "DATE OF COMPLETION": "", "STATUS": "1", "ADDRESS": "1319 THORNWOOD CRES" }, "geometry": { "type": "Point", "coordinates": [ -76.5798487, 44.2697108 ] } },
{ "type": "Feature", "properties": { "PERMIT ID": "D30-1650-2022", "DATE OF ISSUE": "16/11/2022", "DATE OF COMPLETION": "", "STATUS": "1", "ADDRESS": "798 CANNIFF PL" }, "geometry": { "type": "Point", "coordinates": [ -76.5797762, 44.2475832 ] } },
{ "type": "Feature", "properties": { "PERMIT ID": "D30-1874-2022", "DATE OF ISSUE": "8/11/2022", "DATE OF COMPLETION": "", "STATUS": "1", "ADDRESS": "491 MCCALLUM ST" }, "geometry": { "type": "Point", "coordinates": [ -76.4468883, 44.2632095 ] } },
{ "type": "Feature", "properties": { "PERMIT ID": "D30-0553-2022", "DATE OF ISSUE": "7/11/2022", "DATE OF COMPLETION": "", "STATUS": "1", "ADDRESS": "788 HILLSIDE DR" }, "geometry": { "type": "Point", "coordinates": [ -76.6033035, 44.2491626 ] } },
{ "type": "Feature", "properties": { "PERMIT ID": "D30-1356-2022", "DATE OF ISSUE": "11/10/2022", "DATE OF COMPLETION": "", "STATUS": "1", "ADDRESS": "41 MACKENZIE CRES" }, "geometry": { "type": "Point", "coordinates": [ -76.52672, 44.2313686 ] } },
{ "type": "Feature", "properties": { "PERMIT ID": "D30-1689-2022", "DATE OF ISSUE": "11/10/2022", "DATE OF COMPLETION": "", "STATUS": "0", "ADDRESS": "250 MCLELLAN CRT" }, "geometry": { "type": "Point", "coordinates": [ -76.5438558, 44.2427078 ] } },
{ "type": "Feature", "properties": { "PERMIT ID": "D30-1025-2022", "DATE OF ISSUE": "28/9/2022", "DATE OF COMPLETION": "", "STATUS": "0", "ADDRESS": "396 VICTORIA ST" }, "geometry": { "type": "Point", "coordinates": [ -76.5030992, 44.2329851 ] } },
{ "type": "Feature", "properties": { "PERMIT ID": "D30-1527-2022", "DATE OF ISSUE": "7/9/2022", "DATE OF COMPLETION": "", "STATUS": "1", "ADDRESS": "76 JOSEPH ST" }, "geometry": { "type": "Point", "coordinates": [ -76.4909592, 44.2450564 ] } },
{ "type": "Feature", "properties": { "PERMIT ID": "D30-0507-2022", "DATE OF ISSUE": "26/8/2022", "DATE OF COMPLETION": "", "STATUS": "1", "ADDRESS": "285 NORMAN ROGERS DR" }, "geometry": { "type": "Point", "coordinates": [ -76.5227301, 44.2359341 ] } },
{ "type": "Feature", "properties": { "PERMIT ID": "D30-1326-2022", "DATE OF ISSUE": "22/8/2022", "DATE OF COMPLETION": "", "STATUS": "1", "ADDRESS": "252 SUTHERLAND DR" }, "geometry": { "type": "Point", "coordinates": [ -76.4868637, 44.2681767 ] } },
{ "type": "Feature", "properties": { "PERMIT ID": "D30-1212-2022", "DATE OF ISSUE": "19/8/2022", "DATE OF COMPLETION": "", "STATUS": "1", "ADDRESS": "396 ALFRED ST" }, "geometry": { "type": "Point", "coordinates": [ -76.4979287, 44.237359 ] } },
{ "type": "Feature", "properties": { "PERMIT ID": "D30-0586-2022", "DATE OF ISSUE": "18/8/2022", "DATE OF COMPLETION": "", "STATUS": "1", "ADDRESS": "766 CATARAQUI WOODS DR" }, "geometry": { "type": "Point", "coordinates": [ -76.5773675, 44.2675088 ] } },
{ "type": "Feature", "properties": { "PERMIT ID": "D30-1348-2022", "DATE OF ISSUE": "16/8/2022", "DATE OF COMPLETION": "", "STATUS": "1", "ADDRESS": "311 PORTSMOUTH AVE" }, "geometry": { "type": "Point", "coordinates": [ -76.525863, 44.2311526 ] } },
{ "type": "Feature", "properties": { "PERMIT ID": "D30-0674-2022", "DATE OF ISSUE": "11/8/2022", "DATE OF COMPLETION": "", "STATUS": "1", "ADDRESS": "23B CRERAR BLVD" }, "geometry": { "type": "Point", "coordinates": [ -76.5687044, 44.2160839 ] } },
{ "type": "Feature", "properties": { "PERMIT ID": "D30-1255-2022", "DATE OF ISSUE": "10/8/2022", "DATE OF COMPLETION": "", "STATUS": "1", "ADDRESS": "1047 WATERBURY CRES" }, "geometry": { "type": "Point", "coordinates": [ -76.5905103, 44.230855 ] } },
{ "type": "Feature", "properties": { "PERMIT ID": "D30-1216-2022", "DATE OF ISSUE": "2/8/2022", "DATE OF COMPLETION": "", "STATUS": "1", "ADDRESS": "739 VICTORIA ST" }, "geometry": { "type": "Point", "coordinates": [ -76.5034745, 44.2426282 ] } },
{ "type": "Feature", "properties": { "PERMIT ID": "D30-1267-2022", "DATE OF ISSUE": "2/8/2022", "DATE OF COMPLETION": "", "STATUS": "0", "ADDRESS": "363 KINGSDALE AVE" }, "geometry": { "type": "Point", "coordinates": [ -76.5428453, 44.2431367 ] } },
{ "type": "Feature", "properties": { "PERMIT ID": "D30-1176-2022", "DATE OF ISSUE": "27/7/2022", "DATE OF COMPLETION": "", "STATUS": "0", "ADDRESS": "211 MORENZ CRES" }, "geometry": { "type": "Point", "coordinates": [ -76.4847178, 44.2668111 ] } },
{ "type": "Feature", "properties": { "PERMIT ID": "D30-0670-2022", "DATE OF ISSUE": "22/7/2022", "DATE OF COMPLETION": "", "STATUS": "1", "ADDRESS": "52 OLIVE CRES" }, "geometry": { "type": "Point", "coordinates": [ -76.5727979, 44.2205943 ] } },
{ "type": "Feature", "properties": { "PERMIT ID": "D30-1172-2022", "DATE OF ISSUE": "19/7/2022", "DATE OF COMPLETION": "", "STATUS": "1", "ADDRESS": "197 BELMONT AVE" }, "geometry": { "type": "Point", "coordinates": [ -76.5767153, 44.2216142 ] } },
{ "type": "Feature", "properties": { "PERMIT ID": "D30-0838-2022", "DATE OF ISSUE": "5/7/2022", "DATE OF COMPLETION": "", "STATUS": "1", "ADDRESS": "115 CASTERTON AVE" }, "geometry": { "type": "Point", "coordinates": [ -76.5268372, 44.2367981 ] } },
{ "type": "Feature", "properties": { "PERMIT ID": "D30-0911-2022", "DATE OF ISSUE": "27/6/2022", "DATE OF COMPLETION": "", "STATUS": "0", "ADDRESS": "1395 MONTREAL ST" }, "geometry": { "type": "Point", "coordinates": [ -76.477487, 44.2725031 ] } },
{ "type": "Feature", "properties": { "PERMIT ID": "D30-0268-2022", "DATE OF ISSUE": "24/6/2022", "DATE OF COMPLETION": "", "STATUS": "1", "ADDRESS": "191 VAN ORDER DR" }, "geometry": { "type": "Point", "coordinates": [ -76.5224134, 44.2387335 ] } },
{ "type": "Feature", "properties": { "PERMIT ID": "D30-0876-2022", "DATE OF ISSUE": "22/6/2022", "DATE OF COMPLETION": "", "STATUS": "1", "ADDRESS": "180 CASTERTON AVE" }, "geometry": { "type": "Point", "coordinates": [ -76.5249812, 44.2376066 ] } },
{ "type": "Feature", "properties": { "PERMIT ID": "D30-0588-2022", "DATE OF ISSUE": "14/6/2022", "DATE OF COMPLETION": "", "STATUS": "1", "ADDRESS": "312 WATERLOO DR" }, "geometry": { "type": "Point", "coordinates": [ -76.5501565, 44.2539425 ] } },
{ "type": "Feature", "properties": { "PERMIT ID": "D30-0716-2022", "DATE OF ISSUE": "2/6/2022", "DATE OF COMPLETION": "", "STATUS": "1", "ADDRESS": "299 OWENS CRES" }, "geometry": { "type": "Point", "coordinates": [ -76.5453647, 44.2421688 ] } },
{ "type": "Feature", "properties": { "PERMIT ID": "D30-0607-2022", "DATE OF ISSUE": "1/6/2022", "DATE OF COMPLETION": "", "STATUS": "1", "ADDRESS": "19 CLIFF CRES" }, "geometry": { "type": "Point", "coordinates": [ -76.5161851, 44.2325884 ] } },
{ "type": "Feature", "properties": { "PERMIT ID": "D30-1564-2021", "DATE OF ISSUE": "30/5/2022", "DATE OF COMPLETION": "", "STATUS": "0", "ADDRESS": "717 RIVERVIEW WAY" }, "geometry": { "type": "Point", "coordinates": [ -76.4547226, 44.2694108 ] } },
{ "type": "Feature", "properties": { "PERMIT ID": "D30-0399-2022", "DATE OF ISSUE": "19/5/2022", "DATE OF COMPLETION": "", "STATUS": "1", "ADDRESS": "431 NELSON ST" }, "geometry": { "type": "Point", "coordinates": [ -76.5023776, 44.2440582 ] } },
{ "type": "Feature", "properties": { "PERMIT ID": "D30-0310-2022", "DATE OF ISSUE": "13/5/2022", "DATE OF COMPLETION": "", "STATUS": "1", "ADDRESS": "41 LINTON ST" }, "geometry": { "type": "Point", "coordinates": [ -76.4958615, 44.2373086 ] } },
{ "type": "Feature", "properties": { "PERMIT ID": "D30-0593-2022", "DATE OF ISSUE": "11/5/2022", "DATE OF COMPLETION": "", "STATUS": "1", "ADDRESS": "30 BARBARA AVE" }, "geometry": { "type": "Point", "coordinates": [ -76.4968916, 44.249509 ] } },
{ "type": "Feature", "properties": { "PERMIT ID": "D30-0594-2022", "DATE OF ISSUE": "11/5/2022", "DATE OF COMPLETION": "", "STATUS": "1", "ADDRESS": "787 DOWNING ST" }, "geometry": { "type": "Point", "coordinates": [ -76.5964457, 44.249694 ] } },
{ "type": "Feature", "properties": { "PERMIT ID": "D30-0628-2022", "DATE OF ISSUE": "11/5/2022", "DATE OF COMPLETION": "", "STATUS": "1", "ADDRESS": "254 YONGE ST" }, "geometry": { "type": "Point", "coordinates": [ -76.5183108, 44.2254022 ] } },
{ "type": "Feature", "properties": { "PERMIT ID": "D30-0432-2022", "DATE OF ISSUE": "11/5/2022", "DATE OF COMPLETION": "", "STATUS": "1", "ADDRESS": "649 PIMLICO PL" }, "geometry": { "type": "Point", "coordinates": [ -76.5861944, 44.2423862 ] } },
{ "type": "Feature", "properties": { "PERMIT ID": "D30-0472-2022", "DATE OF ISSUE": "10/5/2022", "DATE OF COMPLETION": "", "STATUS": "1", "ADDRESS": "250 GLENGARRY RD" }, "geometry": { "type": "Point", "coordinates": [ -76.5233912, 44.2525659 ] } },
{ "type": "Feature", "properties": { "PERMIT ID": "D30-0443-2022", "DATE OF ISSUE": "10/5/2022", "DATE OF COMPLETION": "", "STATUS": "0", "ADDRESS": "153 MOWAT AVE" }, "geometry": { "type": "Point", "coordinates": [ -76.5199602, 44.2220557 ] } },
{ "type": "Feature", "properties": { "PERMIT ID": "D30-0661-2022", "DATE OF ISSUE": "9/5/2022", "DATE OF COMPLETION": "", "STATUS": "1", "ADDRESS": "616 FLEET ST" }, "geometry": { "type": "Point", "coordinates": [ -76.5921338, 44.2418036 ] } },
{ "type": "Feature", "properties": { "PERMIT ID": "D30-0504-2022", "DATE OF ISSUE": "5/5/2022", "DATE OF COMPLETION": "", "STATUS": "1", "ADDRESS": "1123 JOHNSON ST" }, "geometry": { "type": "Point", "coordinates": [ -76.5251319, 44.2303856 ] } },
{ "type": "Feature", "properties": { "PERMIT ID": "D30-2131-2021", "DATE OF ISSUE": "3/5/2022", "DATE OF COMPLETION": "", "STATUS": "0", "ADDRESS": "53 PORTSMOUTH AVE" }, "geometry": { "type": "Point", "coordinates": [ -76.5250027, 44.2223057 ] } },
{ "type": "Feature", "properties": { "PERMIT ID": "D30-0061-2022", "DATE OF ISSUE": "2/5/2022", "DATE OF COMPLETION": "", "STATUS": "1", "ADDRESS": "1427 TAMARAC ST" }, "geometry": { "type": "Point", "coordinates": [ -76.6190204, 44.2373973 ] } },
{ "type": "Feature", "properties": { "PERMIT ID": "D30-2240-2021", "DATE OF ISSUE": "28/4/2022", "DATE OF COMPLETION": "", "STATUS": "0", "ADDRESS": "803 RIDGE AVE" }, "geometry": { "type": "Point", "coordinates": [ -76.4251192, 44.2423189 ] } },
{ "type": "Feature", "properties": { "PERMIT ID": "D30-0452-2022", "DATE OF ISSUE": "26/4/2022", "DATE OF COMPLETION": "", "STATUS": "1", "ADDRESS": "224 BICKNELL CRES" }, "geometry": { "type": "Point", "coordinates": [ -76.5806231, 44.2233577 ] } },
{ "type": "Feature", "properties": { "PERMIT ID": "D30-0454-2022", "DATE OF ISSUE": "11/4/2022", "DATE OF COMPLETION": "", "STATUS": "1", "ADDRESS": "9 ELIZABETH AVE" }, "geometry": { "type": "Point", "coordinates": [ -76.5193696, 44.2476952 ] } },
{ "type": "Feature", "properties": { "PERMIT ID": "D30-0294-2022", "DATE OF ISSUE": "8/4/2022", "DATE OF COMPLETION": "", "STATUS": "0", "ADDRESS": "1083 WILLOWOOD DR" }, "geometry": { "type": "Point", "coordinates": [ -76.5769214, 44.2611246 ] } },
{ "type": "Feature", "properties": { "PERMIT ID": "D30-0218-2022", "DATE OF ISSUE": "7/4/2022", "DATE OF COMPLETION": "", "STATUS": "1", "ADDRESS": "47 MACDONNELL ST" }, "geometry": { "type": "Point", "coordinates": [ -76.504231, 44.2267656 ] } },
{ "type": "Feature", "properties": { "PERMIT ID": "D30-0057-2022", "DATE OF ISSUE": "6/4/2022", "DATE OF COMPLETION": "", "STATUS": "1", "ADDRESS": "1056 JOHNSON ST" }, "geometry": { "type": "Point", "coordinates": [ -76.5220172, 44.2301401 ] } },
{ "type": "Feature", "properties": { "PERMIT ID": "D30-2313-2021", "DATE OF ISSUE": "31/3/2022", "DATE OF COMPLETION": "", "STATUS": "1", "ADDRESS": "36 DAY ST" }, "geometry": { "type": "Point", "coordinates": [ -76.495997, 44.2555356 ] } },
{ "type": "Feature", "properties": { "PERMIT ID": "D30-0306-2022", "DATE OF ISSUE": "24/3/2022", "DATE OF COMPLETION": "", "STATUS": "1", "ADDRESS": "109 BRAEMAR RD" }, "geometry": { "type": "Point", "coordinates": [ -76.5767798, 44.2183224 ] } },
{ "type": "Feature", "properties": { "PERMIT ID": "D30-0366-2021", "DATE OF ISSUE": "18/3/2022", "DATE OF COMPLETION": "", "STATUS": "0", "ADDRESS": "200 SIBBIT AVE" }, "geometry": { "type": "Point", "coordinates": [ -76.4169682, 44.2444397 ] } },
{ "type": "Feature", "properties": { "PERMIT ID": "D30-0225-2022", "DATE OF ISSUE": "18/3/2022", "DATE OF COMPLETION": "", "STATUS": "1", "ADDRESS": "79 BARKER DR" }, "geometry": { "type": "Point", "coordinates": [ -76.4619457, 44.2586237 ] } },
{ "type": "Feature", "properties": { "PERMIT ID": "D30-0075-2022", "DATE OF ISSUE": "28/2/2022", "DATE OF COMPLETION": "", "STATUS": "1", "ADDRESS": "121 VIRGINIA ST" }, "geometry": { "type": "Point", "coordinates": [ -76.484134, 44.271181 ] } },
{ "type": "Feature", "properties": { "PERMIT ID": "D30-2060-2021", "DATE OF ISSUE": "9/2/2022", "DATE OF COMPLETION": "", "STATUS": "1", "ADDRESS": "744 DOWNING ST" }, "geometry": { "type": "Point", "coordinates": [ -76.5970929, 44.247386 ] } },
{ "type": "Feature", "properties": { "PERMIT ID": "D30-1101-2021", "DATE OF ISSUE": "9/2/2022", "DATE OF COMPLETION": "", "STATUS": "1", "ADDRESS": "87 CONNAUGHT ST" }, "geometry": { "type": "Point", "coordinates": [ -76.5048157, 44.2442833 ] } },
{ "type": "Feature", "properties": { "PERMIT ID": "D30-0010-2022", "DATE OF ISSUE": "9/2/2022", "DATE OF COMPLETION": "", "STATUS": "0", "ADDRESS": "15 GUY ST" }, "geometry": { "type": "Point", "coordinates": [ -76.4961108, 44.2436214 ] } },
{ "type": "Feature", "properties": { "PERMIT ID": "D30-0042-2022", "DATE OF ISSUE": "3/2/2022", "DATE OF COMPLETION": "", "STATUS": "1", "ADDRESS": "670 LAIDLAW CRES" }, "geometry": { "type": "Point", "coordinates": [ -76.5892947, 44.2453297 ] } },
{ "type": "Feature", "properties": { "PERMIT ID": "D30-0047-2022", "DATE OF ISSUE": "28/1/2022", "DATE OF COMPLETION": "", "STATUS": "1", "ADDRESS": "30 BERNADETTE CRT" }, "geometry": { "type": "Point", "coordinates": [ -76.4638228, 44.2552833 ] } },
{ "type": "Feature", "properties": { "PERMIT ID": "D30-2421-2021", "DATE OF ISSUE": "13/1/2022", "DATE OF COMPLETION": "", "STATUS": "1", "ADDRESS": "232 VAN ORDER DR" }, "geometry": { "type": "Point", "coordinates": [ -76.5242223, 44.2380763 ] } },
{ "type": "Feature", "properties": { "PERMIT ID": "D30-1029-2021", "DATE OF ISSUE": "12/1/2022", "DATE OF COMPLETION": "", "STATUS": "1", "ADDRESS": "51 CHESTNUT ST" }, "geometry": { "type": "Point", "coordinates": [ -76.4925257, 44.2384961 ] } },
{ "type": "Feature", "properties": { "PERMIT ID": "D30-0076-2021", "DATE OF ISSUE": "5/1/2022", "DATE OF COMPLETION": "", "STATUS": "0", "ADDRESS": "311 UNION ST" }, "geometry": { "type": "Point", "coordinates": [ -76.5057078, 44.225961 ] } },
{ "type": "Feature", "properties": { "PERMIT ID": "D30-1460-2021", "DATE OF ISSUE": "5/1/2022", "DATE OF COMPLETION": "", "STATUS": "1", "ADDRESS": "52 GIBSON AVE" }, "geometry": { "type": "Point", "coordinates": [ -76.5117287, 44.2299373 ] } },
{ "type": "Feature", "properties": { "PERMIT ID": "D30-0552-2021", "DATE OF ISSUE": "23/12/2021", "DATE OF COMPLETION": "", "STATUS": "1", "ADDRESS": "1251 WHEATHILL ST" }, "geometry": { "type": "Point", "coordinates": [ -76.5589428, 44.2458017 ] } },
{ "type": "Feature", "properties": { "PERMIT ID": "D30-2285-2021", "DATE OF ISSUE": "20/12/2021", "DATE OF COMPLETION": "", "STATUS": "1", "ADDRESS": "489 KINGSDALE AVE" }, "geometry": { "type": "Point", "coordinates": [ -76.5467387, 44.2448644 ] } },
{ "type": "Feature", "properties": { "PERMIT ID": "D30-2172-2021", "DATE OF ISSUE": "16/12/2021", "DATE OF COMPLETION": "", "STATUS": "1", "ADDRESS": "811 OVERLEA CRT" }, "geometry": { "type": "Point", "coordinates": [ -76.6027403, 44.2502509 ] } },
{ "type": "Feature", "properties": { "PERMIT ID": "D30-2316-2021", "DATE OF ISSUE": "14/12/2021", "DATE OF COMPLETION": "", "STATUS": "1", "ADDRESS": "98 WILSON ST" }, "geometry": { "type": "Point", "coordinates": [ -76.4865311, 44.2603442 ] } },
{ "type": "Feature", "properties": { "PERMIT ID": "D30-2257-2021", "DATE OF ISSUE": "7/12/2021", "DATE OF COMPLETION": "", "STATUS": "1", "ADDRESS": "129 SUTHERLAND DR" }, "geometry": { "type": "Point", "coordinates": [ -76.4811345, 44.2686808 ] } },
{ "type": "Feature", "properties": { "PERMIT ID": "D30-2138-2021", "DATE OF ISSUE": "3/12/2021", "DATE OF COMPLETION": "", "STATUS": "1", "ADDRESS": "1279 BIRCHWOOD DR" }, "geometry": { "type": "Point", "coordinates": [ -76.5789853, 44.2688215 ] } },
{ "type": "Feature", "properties": { "PERMIT ID": "D30-1567-2021", "DATE OF ISSUE": "1/12/2021", "DATE OF COMPLETION": "", "STATUS": "1", "ADDRESS": "233 JOHNSON ST" }, "geometry": { "type": "Point", "coordinates": [ -76.488679, 44.2308182 ] } },
{ "type": "Feature", "properties": { "PERMIT ID": "D30-2082-2021", "DATE OF ISSUE": "26/11/2021", "DATE OF COMPLETION": "", "STATUS": "1", "ADDRESS": "1508 SHIRA DR" }, "geometry": { "type": "Point", "coordinates": [ -76.5881335, 44.2678414 ] } },
{ "type": "Feature", "properties": { "PERMIT ID": "D30-1862-2021", "DATE OF ISSUE": "16/11/2021", "DATE OF COMPLETION": "", "STATUS": "1", "ADDRESS": "248 MILL POND PL" }, "geometry": { "type": "Point", "coordinates": [ -76.5352573, 44.262655 ] } },
{ "type": "Feature", "properties": { "PERMIT ID": "D30-1153-2020", "DATE OF ISSUE": "15/11/2021", "DATE OF COMPLETION": "", "STATUS": "1", "ADDRESS": "43 NEWCOURT PL" }, "geometry": { "type": "Point", "coordinates": [ -76.5283531, 44.2292507 ] } },
{ "type": "Feature", "properties": { "PERMIT ID": "D30-2032-2021", "DATE OF ISSUE": "4/11/2021", "DATE OF COMPLETION": "", "STATUS": "0", "ADDRESS": "495 BAGOT ST" }, "geometry": { "type": "Point", "coordinates": [ -76.483805, 44.237554 ] } },
{ "type": "Feature", "properties": { "PERMIT ID": "D30-1946-2021", "DATE OF ISSUE": "21/10/2021", "DATE OF COMPLETION": "", "STATUS": "1", "ADDRESS": "631 AYLMER CRES" }, "geometry": { "type": "Point", "coordinates": [ -76.6137692, 44.2427658 ] } },
{ "type": "Feature", "properties": { "PERMIT ID": "D30-1904-2021", "DATE OF ISSUE": "19/10/2021", "DATE OF COMPLETION": "", "STATUS": "1", "ADDRESS": "284 OWENS CRES" }, "geometry": { "type": "Point", "coordinates": [ -76.5444348, 44.2424863 ] } },
{ "type": "Feature", "properties": { "PERMIT ID": "D30-1945-2021", "DATE OF ISSUE": "18/10/2021", "DATE OF COMPLETION": "", "STATUS": "1", "ADDRESS": "334 KINGSCOURT AVE" }, "geometry": { "type": "Point", "coordinates": [ -76.5022744, 44.2528696 ] } },
{ "type": "Feature", "properties": { "PERMIT ID": "D30-1974-2021", "DATE OF ISSUE": "15/10/2021", "DATE OF COMPLETION": "", "STATUS": "0", "ADDRESS": "444 MCCALLUM ST" }, "geometry": { "type": "Point", "coordinates": [ -76.4489873, 44.2640383 ] } },
{ "type": "Feature", "properties": { "PERMIT ID": "D30-1371-2021", "DATE OF ISSUE": "15/10/2021", "DATE OF COMPLETION": "", "STATUS": "1", "ADDRESS": "195 ALBERT ST" }, "geometry": { "type": "Point", "coordinates": [ -76.4994072, 44.227799 ] } },
{ "type": "Feature", "properties": { "PERMIT ID": "D30-1849-2021", "DATE OF ISSUE": "14/10/2021", "DATE OF COMPLETION": "", "STATUS": "1", "ADDRESS": "1153 BASSWOOD PL" }, "geometry": { "type": "Point", "coordinates": [ -76.581672, 44.263015 ] } },
{ "type": "Feature", "properties": { "PERMIT ID": "D30-1981-2021", "DATE OF ISSUE": "14/10/2021", "DATE OF COMPLETION": "", "STATUS": "1", "ADDRESS": "177 BRICELAND ST" }, "geometry": { "type": "Point", "coordinates": [ -76.4898995, 44.258497 ] } },
{ "type": "Feature", "properties": { "PERMIT ID": "D30-1729-2021", "DATE OF ISSUE": "12/10/2021", "DATE OF COMPLETION": "", "STATUS": "1", "ADDRESS": "19 RUNNYMEDE RD" }, "geometry": { "type": "Point", "coordinates": [ -76.5320397, 44.2353214 ] } },
{ "type": "Feature", "properties": { "PERMIT ID": "D30-1708-2021", "DATE OF ISSUE": "8/10/2021", "DATE OF COMPLETION": "", "STATUS": "1", "ADDRESS": "720 PORTSMOUTH AVE" }, "geometry": { "type": "Point", "coordinates": [ -76.5296163, 44.2447562 ] } },
{ "type": "Feature", "properties": { "PERMIT ID": "D30-1942-2021", "DATE OF ISSUE": "8/10/2021", "DATE OF COMPLETION": "", "STATUS": "1", "ADDRESS": "25 BARKER DR" }, "geometry": { "type": "Point", "coordinates": [ -76.4610533, 44.2560906 ] } },
{ "type": "Feature", "properties": { "PERMIT ID": "D30-1707-2021", "DATE OF ISSUE": "28/9/2021", "DATE OF COMPLETION": "", "STATUS": "1", "ADDRESS": "1640 MARY ST" }, "geometry": { "type": "Point", "coordinates": [ -76.6119662, 44.2428113 ] } },
{ "type": "Feature", "properties": { "PERMIT ID": "D30-1373-2021", "DATE OF ISSUE": "14/9/2021", "DATE OF COMPLETION": "", "STATUS": "1", "ADDRESS": "73 WESTMORELAND RD" }, "geometry": { "type": "Point", "coordinates": [ -76.5240145, 44.2530639 ] } },
{ "type": "Feature", "properties": { "PERMIT ID": "D30-1372-2021", "DATE OF ISSUE": "10/9/2021", "DATE OF COMPLETION": "", "STATUS": "1", "ADDRESS": "130 WELLER AVE" }, "geometry": { "type": "Point", "coordinates": [ -76.4858345, 44.2620594 ] } },
{ "type": "Feature", "properties": { "PERMIT ID": "D30-1375-2021", "DATE OF ISSUE": "8/9/2021", "DATE OF COMPLETION": "", "STATUS": "1", "ADDRESS": "1344 WAVERLEY CRES" }, "geometry": { "type": "Point", "coordinates": [ -76.6133876, 44.2457718 ] } },
{ "type": "Feature", "properties": { "PERMIT ID": "D30-1706-2021", "DATE OF ISSUE": "8/9/2021", "DATE OF COMPLETION": "", "STATUS": "1", "ADDRESS": "675 AYLMER CRES" }, "geometry": { "type": "Point", "coordinates": [ -76.6182027, 44.2428697 ] } },
{ "type": "Feature", "properties": { "PERMIT ID": "D30-1374-2021", "DATE OF ISSUE": "8/9/2021", "DATE OF COMPLETION": "", "STATUS": "1", "ADDRESS": "389 MELANIE AVE" }, "geometry": { "type": "Point", "coordinates": [ -76.5484106, 44.2442918 ] } },
{ "type": "Feature", "properties": { "PERMIT ID": "D30-1357-2021", "DATE OF ISSUE": "1/9/2021", "DATE OF COMPLETION": "", "STATUS": "1", "ADDRESS": "15 WINDFIELD CRES" }, "geometry": { "type": "Point", "coordinates": [ -76.4592757, 44.2555563 ] } },
{ "type": "Feature", "properties": { "PERMIT ID": "D30-0982-2021", "DATE OF ISSUE": "27/8/2021", "DATE OF COMPLETION": "", "STATUS": "1", "ADDRESS": "1308 EDWIN ST" }, "geometry": { "type": "Point", "coordinates": [ -76.6119285, 44.247118 ] } },
{ "type": "Feature", "properties": { "PERMIT ID": "D30-1565-2021", "DATE OF ISSUE": "16/8/2021", "DATE OF COMPLETION": "", "STATUS": "1", "ADDRESS": "164 KIRKPATRICK ST" }, "geometry": { "type": "Point", "coordinates": [ -76.5028335, 44.2530062 ] } },
{ "type": "Feature", "properties": { "PERMIT ID": "D30-1494-2021", "DATE OF ISSUE": "10/8/2021", "DATE OF COMPLETION": "", "STATUS": "1", "ADDRESS": "269 CONACHER DR" }, "geometry": { "type": "Point", "coordinates": [ -76.4933195, 44.2661693 ] } },
{ "type": "Feature", "properties": { "PERMIT ID": "D30-1316-2021", "DATE OF ISSUE": "4/8/2021", "DATE OF COMPLETION": "", "STATUS": "0", "ADDRESS": "1132 ACADIA DR" }, "geometry": { "type": "Point", "coordinates": [ -76.597026, 44.2326346 ] } },
{ "type": "Feature", "properties": { "PERMIT ID": "D30-1358-2021", "DATE OF ISSUE": "29/7/2021", "DATE OF COMPLETION": "", "STATUS": "1", "ADDRESS": "1511 CLOVER ST" }, "geometry": { "type": "Point", "coordinates": [ -76.6009908, 44.2657189 ] } },
{ "type": "Feature", "properties": { "PERMIT ID": "D30-1389-2021", "DATE OF ISSUE": "27/7/2021", "DATE OF COMPLETION": "", "STATUS": "1", "ADDRESS": "591 BOURNE PL" }, "geometry": { "type": "Point", "coordinates": [ -76.5890187, 44.2416061 ] } },
{ "type": "Feature", "properties": { "PERMIT ID": "D30-1322-2021", "DATE OF ISSUE": "26/7/2021", "DATE OF COMPLETION": "", "STATUS": "1", "ADDRESS": "83 LIDDELL CRES" }, "geometry": { "type": "Point", "coordinates": [ -76.5288911, 44.2330353 ] } },
{ "type": "Feature", "properties": { "PERMIT ID": "D30-1052-2021", "DATE OF ISSUE": "7/7/2021", "DATE OF COMPLETION": "", "STATUS": "0", "ADDRESS": "125 CLIFF CRES" }, "geometry": { "type": "Point", "coordinates": [ -76.517583, 44.2319998 ] } },
{ "type": "Feature", "properties": { "PERMIT ID": "D30-0996-2021", "DATE OF ISSUE": "6/7/2021", "DATE OF COMPLETION": "", "STATUS": "1", "ADDRESS": "45 CHESTNUT ST" }, "geometry": { "type": "Point", "coordinates": [ -76.4923516, 44.2384484 ] } },
{ "type": "Feature", "properties": { "PERMIT ID": "D30-1015-2021", "DATE OF ISSUE": "18/6/2021", "DATE OF COMPLETION": "", "STATUS": "1", "ADDRESS": "592 GAVIN CRT" }, "geometry": { "type": "Point", "coordinates": [ -76.54641, 44.243771 ] } },
{ "type": "Feature", "properties": { "PERMIT ID": "D30-0954-2021", "DATE OF ISSUE": "9/6/2021", "DATE OF COMPLETION": "", "STATUS": "1", "ADDRESS": "1244 CARFA CRES" }, "geometry": { "type": "Point", "coordinates": [ -76.6023471, 44.2645953 ] } },
{ "type": "Feature", "properties": { "PERMIT ID": "D30-0850-2021", "DATE OF ISSUE": "9/6/2021", "DATE OF COMPLETION": "", "STATUS": "1", "ADDRESS": "729 FRONT RD" }, "geometry": { "type": "Point", "coordinates": [ -76.5710363, 44.2180303 ] } },
{ "type": "Feature", "properties": { "PERMIT ID": "D30-0359-2021", "DATE OF ISSUE": "2/6/2021", "DATE OF COMPLETION": "", "STATUS": "1", "ADDRESS": "575 ARBOUR CRES" }, "geometry": { "type": "Point", "coordinates": [ -76.5590651, 44.2409099 ] } },
{ "type": "Feature", "properties": { "PERMIT ID": "D30-1177-2019", "DATE OF ISSUE": "31/5/2021", "DATE OF COMPLETION": "", "STATUS": "1", "ADDRESS": "87 CHURCHILL ST" }, "geometry": { "type": "Point", "coordinates": [ -76.5244672, 44.222731 ] } },
{ "type": "Feature", "properties": { "PERMIT ID": "D30-0441-2021", "DATE OF ISSUE": "26/5/2021", "DATE OF COMPLETION": "", "STATUS": "1", "ADDRESS": "404 MONTREAL ST" }, "geometry": { "type": "Point", "coordinates": [ -76.4880588, 44.2424719 ] } },
{ "type": "Feature", "properties": { "PERMIT ID": "D30-0845-2021", "DATE OF ISSUE": "21/5/2021", "DATE OF COMPLETION": "", "STATUS": "1", "ADDRESS": "992 MAYFAIR CRES" }, "geometry": { "type": "Point", "coordinates": [ -76.587566, 44.2442958 ] } },
{ "type": "Feature", "properties": { "PERMIT ID": "D30-0239-2021", "DATE OF ISSUE": "18/5/2021", "DATE OF COMPLETION": "", "STATUS": "1", "ADDRESS": "1330 SIERRA AVE" }, "geometry": { "type": "Point", "coordinates": [ -76.5828669, 44.271771 ] } },
{ "type": "Feature", "properties": { "PERMIT ID": "D30-0556-2021", "DATE OF ISSUE": "7/5/2021", "DATE OF COMPLETION": "", "STATUS": "1", "ADDRESS": "1201 ANDERSEN DR" }, "geometry": { "type": "Point", "coordinates": [ -76.54871, 44.2625748 ] } },
{ "type": "Feature", "properties": { "PERMIT ID": "D30-0870-2020", "DATE OF ISSUE": "5/5/2021", "DATE OF COMPLETION": "", "STATUS": "1", "ADDRESS": "1125 UNITY RD" }, "geometry": { "type": "Point", "coordinates": [ -76.4795418, 44.3204596 ] } },
{ "type": "Feature", "properties": { "PERMIT ID": "D30-0149-2021", "DATE OF ISSUE": "5/5/2021", "DATE OF COMPLETION": "", "STATUS": "0", "ADDRESS": "528 DIVISION ST" }, "geometry": { "type": "Point", "coordinates": [ -76.4955682, 44.2442057 ] } },
{ "type": "Feature", "properties": { "PERMIT ID": "D30-0625-2021", "DATE OF ISSUE": "3/5/2021", "DATE OF COMPLETION": "", "STATUS": "1", "ADDRESS": "225 OLD QUARRY RD" }, "geometry": { "type": "Point", "coordinates": [ -76.5228638, 44.2574371 ] } },
{ "type": "Feature", "properties": { "PERMIT ID": "D30-0244-2021", "DATE OF ISSUE": "30/4/2021", "DATE OF COMPLETION": "", "STATUS": "1", "ADDRESS": "236 BRICELAND ST" }, "geometry": { "type": "Point", "coordinates": [ -76.4929039, 44.2591851 ] } },
{ "type": "Feature", "properties": { "PERMIT ID": "D30-0576-2021", "DATE OF ISSUE": "27/4/2021", "DATE OF COMPLETION": "", "STATUS": "1", "ADDRESS": "252 ALBERT ST" }, "geometry": { "type": "Point", "coordinates": [ -76.5002009, 44.2293256 ] } },
{ "type": "Feature", "properties": { "PERMIT ID": "D30-2335-2020", "DATE OF ISSUE": "27/4/2021", "DATE OF COMPLETION": "", "STATUS": "1", "ADDRESS": "2196 SWANFIELD ST" }, "geometry": { "type": "Point", "coordinates": [ -76.5567076, 44.2489744 ] } },
{ "type": "Feature", "properties": { "PERMIT ID": "D30-0475-2021", "DATE OF ISSUE": "26/4/2021", "DATE OF COMPLETION": "", "STATUS": "1", "ADDRESS": "2 - 370 BROCK ST" }, "geometry": { "type": "Point", "coordinates": [ -76.4940376, 44.2322745 ] } },
{ "type": "Feature", "properties": { "PERMIT ID": "D30-0012-2021", "DATE OF ISSUE": "22/4/2021", "DATE OF COMPLETION": "", "STATUS": "1", "ADDRESS": "1073 PINEWOOD PL" }, "geometry": { "type": "Point", "coordinates": [ -76.5822673, 44.2613214 ] } },
{ "type": "Feature", "properties": { "PERMIT ID": "D30-0528-2021", "DATE OF ISSUE": "22/4/2021", "DATE OF COMPLETION": "", "STATUS": "1", "ADDRESS": "126 CASTERTON AVE" }, "geometry": { "type": "Point", "coordinates": [ -76.5274906, 44.2370315 ] } },
{ "type": "Feature", "properties": { "PERMIT ID": "D30-0520-2021", "DATE OF ISSUE": "19/4/2021", "DATE OF COMPLETION": "", "STATUS": "1", "ADDRESS": "1027 MONTREAL ST" }, "geometry": { "type": "Point", "coordinates": [ -76.4810159, 44.2605973 ] } },
{ "type": "Feature", "properties": { "PERMIT ID": "D30-2356-2020", "DATE OF ISSUE": "15/4/2021", "DATE OF COMPLETION": "", "STATUS": "1", "ADDRESS": "204 MILL POND PL" }, "geometry": { "type": "Point", "coordinates": [ -76.5366361, 44.2634023 ] } },
{ "type": "Feature", "properties": { "PERMIT ID": "D30-0336-2021", "DATE OF ISSUE": "14/4/2021", "DATE OF COMPLETION": "", "STATUS": "1", "ADDRESS": "913 UXBRIDGE CRES" }, "geometry": { "type": "Point", "coordinates": [ -76.5560628, 44.2552122 ] } },
{ "type": "Feature", "properties": { "PERMIT ID": "D30-0427-2021", "DATE OF ISSUE": "12/4/2021", "DATE OF COMPLETION": "", "STATUS": "1", "ADDRESS": "1261 JUNIPER DR" }, "geometry": { "type": "Point", "coordinates": [ -76.5836581, 44.2674283 ] } },
{ "type": "Feature", "properties": { "PERMIT ID": "D30-0221-2021", "DATE OF ISSUE": "8/4/2021", "DATE OF COMPLETION": "", "STATUS": "1", "ADDRESS": "39 ELLERBECK ST" }, "geometry": { "type": "Point", "coordinates": [ -76.5069144, 44.2226661 ] } },
{ "type": "Feature", "properties": { "PERMIT ID": "D30-2349-2020", "DATE OF ISSUE": "26/3/2021", "DATE OF COMPLETION": "", "STATUS": "0", "ADDRESS": "135 HOLLAND CRES" }, "geometry": { "type": "Point", "coordinates": [ -76.526544, 44.2365291 ] } },
{ "type": "Feature", "properties": { "PERMIT ID": "D30-0206-2021", "DATE OF ISSUE": "22/3/2021", "DATE OF COMPLETION": "", "STATUS": "1", "ADDRESS": "65 GARDINER ST" }, "geometry": { "type": "Point", "coordinates": [ -76.5160145, 44.2232402 ] } },
{ "type": "Feature", "properties": { "PERMIT ID": "D30-2466-2020", "DATE OF ISSUE": "12/3/2021", "DATE OF COMPLETION": "", "STATUS": "1", "ADDRESS": "690 LAIDLAW CRES" }, "geometry": { "type": "Point", "coordinates": [ -76.5893278, 44.246468 ] } },
{ "type": "Feature", "properties": { "PERMIT ID": "D30-0211-2021", "DATE OF ISSUE": "11/3/2021", "DATE OF COMPLETION": "", "STATUS": "1", "ADDRESS": "40 TERRACEVIEW RD" }, "geometry": { "type": "Point", "coordinates": [ -76.4829419, 44.2705221 ] } },
{ "type": "Feature", "properties": { "PERMIT ID": "D30-0246-2021", "DATE OF ISSUE": "5/3/2021", "DATE OF COMPLETION": "", "STATUS": "1", "ADDRESS": "206 GORE RD" }, "geometry": { "type": "Point", "coordinates": [ -76.458286, 44.2596893 ] } },
{ "type": "Feature", "properties": { "PERMIT ID": "D30-0082-2021", "DATE OF ISSUE": "1/3/2021", "DATE OF COMPLETION": "", "STATUS": "0", "ADDRESS": "272 MOWAT AVE" }, "geometry": { "type": "Point", "coordinates": [ -76.5210965, 44.2261103 ] } },
{ "type": "Feature", "properties": { "PERMIT ID": "D30-0100-2021", "DATE OF ISSUE": "25/2/2021", "DATE OF COMPLETION": "", "STATUS": "1", "ADDRESS": "637 GWEN AVE" }, "geometry": { "type": "Point", "coordinates": [ -76.5911448, 44.2648917 ] } },
{ "type": "Feature", "properties": { "PERMIT ID": "D30-2369-2020", "DATE OF ISSUE": "25/2/2021", "DATE OF COMPLETION": "", "STATUS": "1", "ADDRESS": "735 RIDLEY DR" }, "geometry": { "type": "Point", "coordinates": [ -76.5762316, 44.2553179 ] } },
{ "type": "Feature", "properties": { "PERMIT ID": "D30-0091-2021", "DATE OF ISSUE": "24/2/2021", "DATE OF COMPLETION": "", "STATUS": "1", "ADDRESS": "446 MCCALLUM ST" }, "geometry": { "type": "Point", "coordinates": [ -76.4488515, 44.2640522 ] } },
{ "type": "Feature", "properties": { "PERMIT ID": "D30-1526-2020", "DATE OF ISSUE": "2/2/2021", "DATE OF COMPLETION": "", "STATUS": "1", "ADDRESS": "621 AYLMER CRES" }, "geometry": { "type": "Point", "coordinates": [ -76.6129173, 44.2432151 ] } },
{ "type": "Feature", "properties": { "PERMIT ID": "D30-2330-2020", "DATE OF ISSUE": "1/2/2021", "DATE OF COMPLETION": "", "STATUS": "1", "ADDRESS": "1156 BASSWOOD PL" }, "geometry": { "type": "Point", "coordinates": [ -76.5824667, 44.2635116 ] } },
{ "type": "Feature", "properties": { "PERMIT ID": "D30-0009-2021", "DATE OF ISSUE": "1/2/2021", "DATE OF COMPLETION": "", "STATUS": "1", "ADDRESS": "695 MONTREAL ST" }, "geometry": { "type": "Point", "coordinates": [ -76.4854578, 44.2504752 ] } },
{ "type": "Feature", "properties": { "PERMIT ID": "D30-2450-2020", "DATE OF ISSUE": "28/1/2021", "DATE OF COMPLETION": "", "STATUS": "1", "ADDRESS": "9 SUNNY ACRES RD" }, "geometry": { "type": "Point", "coordinates": [ -76.5645903, 44.2178016 ] } },
{ "type": "Feature", "properties": { "PERMIT ID": "D30-2312-2020", "DATE OF ISSUE": "27/1/2021", "DATE OF COMPLETION": "", "STATUS": "1", "ADDRESS": "401 SOUTHWOOD DR" }, "geometry": { "type": "Point", "coordinates": [ -76.6289608, 44.2297752 ] } },
{ "type": "Feature", "properties": { "PERMIT ID": "D30-2236-2020", "DATE OF ISSUE": "13/1/2021", "DATE OF COMPLETION": "", "STATUS": "1", "ADDRESS": "699 PORTSMOUTH AVE" }, "geometry": { "type": "Point", "coordinates": [ -76.5289471, 44.2441431 ] } },
{ "type": "Feature", "properties": { "PERMIT ID": "D30-2460-2020", "DATE OF ISSUE": "13/1/2021", "DATE OF COMPLETION": "", "STATUS": "1", "ADDRESS": "59 HATTER ST" }, "geometry": { "type": "Point", "coordinates": [ -76.5189614, 44.2255004 ] } },
{ "type": "Feature", "properties": { "PERMIT ID": "D30-2464-2020", "DATE OF ISSUE": "12/1/2021", "DATE OF COMPLETION": "", "STATUS": "1", "ADDRESS": "892 VICTORIA ST" }, "geometry": { "type": "Point", "coordinates": [ -76.5043681, 44.2478544 ] } },
{ "type": "Feature", "properties": { "PERMIT ID": "D30-2446-2020", "DATE OF ISSUE": "11/1/2021", "DATE OF COMPLETION": "", "STATUS": "1", "ADDRESS": "10 WATTS CRES" }, "geometry": { "type": "Point", "coordinates": [ -76.5230941, 44.230852 ] } },
{ "type": "Feature", "properties": { "PERMIT ID": "D30-0992-2020", "DATE OF ISSUE": "4/1/2021", "DATE OF COMPLETION": "", "STATUS": "0", "ADDRESS": "64 WATTS CRES" }, "geometry": { "type": "Point", "coordinates": [ -76.5250564, 44.2315203 ] } },
{ "type": "Feature", "properties": { "PERMIT ID": "D30-1793-2020", "DATE OF ISSUE": "22/12/2020", "DATE OF COMPLETION": "", "STATUS": "0", "ADDRESS": "1033 SYDENHAM RD" }, "geometry": { "type": "Point", "coordinates": [ -76.5445103, 44.2668015 ] } },
{ "type": "Feature", "properties": { "PERMIT ID": "D30-2233-2020", "DATE OF ISSUE": "16/12/2020", "DATE OF COMPLETION": "", "STATUS": "1", "ADDRESS": "994 WATERBURY CRES" }, "geometry": { "type": "Point", "coordinates": [ -76.5893546, 44.2309582 ] } },
{ "type": "Feature", "properties": { "PERMIT ID": "D30-2345-2020", "DATE OF ISSUE": "16/12/2020", "DATE OF COMPLETION": "", "STATUS": "1", "ADDRESS": "725 TACOMA CRES" }, "geometry": { "type": "Point", "coordinates": [ -76.6004285, 44.2460595 ] } },
{ "type": "Feature", "properties": { "PERMIT ID": "D30-1547-2020", "DATE OF ISSUE": "10/12/2020", "DATE OF COMPLETION": "", "STATUS": "1", "ADDRESS": "783 PORTSMOUTH AVE" }, "geometry": { "type": "Point", "coordinates": [ -76.5292054, 44.2469731 ] } },
{ "type": "Feature", "properties": { "PERMIT ID": "D30-2264-2020", "DATE OF ISSUE": "9/12/2020", "DATE OF COMPLETION": "", "STATUS": "1", "ADDRESS": "765 RIDLEY DR" }, "geometry": { "type": "Point", "coordinates": [ -76.576718, 44.2565031 ] } },
{ "type": "Feature", "properties": { "PERMIT ID": "D30-2211-2020", "DATE OF ISSUE": "3/12/2020", "DATE OF COMPLETION": "", "STATUS": "1", "ADDRESS": "225 MCLELLAN CRT" }, "geometry": { "type": "Point", "coordinates": [ -76.5432237, 44.2430619 ] } },
{ "type": "Feature", "properties": { "PERMIT ID": "D30-2177-2020", "DATE OF ISSUE": "2/12/2020", "DATE OF COMPLETION": "", "STATUS": "1", "ADDRESS": "6 ROSS ST" }, "geometry": { "type": "Point", "coordinates": [ -76.5281006, 44.2336848 ] } },
{ "type": "Feature", "properties": { "PERMIT ID": "D30-2021-2020", "DATE OF ISSUE": "18/11/2020", "DATE OF COMPLETION": "", "STATUS": "1", "ADDRESS": "142 GREENLEES DR" }, "geometry": { "type": "Point", "coordinates": [ -76.4535636, 44.2661018 ] } },
{ "type": "Feature", "properties": { "PERMIT ID": "D30-2128-2020", "DATE OF ISSUE": "17/11/2020", "DATE OF COMPLETION": "", "STATUS": "0", "ADDRESS": "1301 WAVERLEY CRES" }, "geometry": { "type": "Point", "coordinates": [ -76.6109685, 44.2477916 ] } },
{ "type": "Feature", "properties": { "PERMIT ID": "D30-1886-2020", "DATE OF ISSUE": "4/11/2020", "DATE OF COMPLETION": "", "STATUS": "1", "ADDRESS": "331 KINGSDALE AVE" }, "geometry": { "type": "Point", "coordinates": [ -76.5435251, 44.2422307 ] } },
{ "type": "Feature", "properties": { "PERMIT ID": "D30-1889-2020", "DATE OF ISSUE": "2/11/2020", "DATE OF COMPLETION": "", "STATUS": "1", "ADDRESS": "244 MCLELLAN CRT" }, "geometry": { "type": "Point", "coordinates": [ -76.5439689, 44.2430311 ] } },
{ "type": "Feature", "properties": { "PERMIT ID": "D30-2022-2020", "DATE OF ISSUE": "28/10/2020", "DATE OF COMPLETION": "", "STATUS": "0", "ADDRESS": "444 VICTORIA ST" }, "geometry": { "type": "Point", "coordinates": [ -76.5031528, 44.2343456 ] } },
{ "type": "Feature", "properties": { "PERMIT ID": "D30-1433-2020", "DATE OF ISSUE": "26/10/2020", "DATE OF COMPLETION": "", "STATUS": "1", "ADDRESS": "1300 FISHER CRES" }, "geometry": { "type": "Point", "coordinates": [ -76.5951942, 44.2335067 ] } },
{ "type": "Feature", "properties": { "PERMIT ID": "D30-0786-2020", "DATE OF ISSUE": "23/10/2020", "DATE OF COMPLETION": "", "STATUS": "1", "ADDRESS": "52 KINGSCOURT AVE" }, "geometry": { "type": "Point", "coordinates": [ -76.5015542, 44.2431042 ] } },
{ "type": "Feature", "properties": { "PERMIT ID": "D30-0787-2020", "DATE OF ISSUE": "23/10/2020", "DATE OF COMPLETION": "", "STATUS": "1", "ADDRESS": "54 KINGSCOURT AVE" }, "geometry": { "type": "Point", "coordinates": [ -76.5015667, 44.2432059 ] } },
{ "type": "Feature", "properties": { "PERMIT ID": "D30-1356-2020", "DATE OF ISSUE": "19/10/2020", "DATE OF COMPLETION": "", "STATUS": "1", "ADDRESS": "62 KINGSCOURT AVE" }, "geometry": { "type": "Point", "coordinates": [ -76.5016033, 44.2434635 ] } },
{ "type": "Feature", "properties": { "PERMIT ID": "D30-1357-2020", "DATE OF ISSUE": "19/10/2020", "DATE OF COMPLETION": "", "STATUS": "1", "ADDRESS": "60 KINGSCOURT AVE" }, "geometry": { "type": "Point", "coordinates": [ -76.5016058, 44.2433845 ] } },
{ "type": "Feature", "properties": { "PERMIT ID": "D30-1359-2020", "DATE OF ISSUE": "19/10/2020", "DATE OF COMPLETION": "", "STATUS": "1", "ADDRESS": "56 KINGSCOURT AVE" }, "geometry": { "type": "Point", "coordinates": [ -76.5016132, 44.2432852 ] } },
{ "type": "Feature", "properties": { "PERMIT ID": "D30-1463-2020", "DATE OF ISSUE": "15/10/2020", "DATE OF COMPLETION": "", "STATUS": "1", "ADDRESS": "662 SUSSEX BLVD" }, "geometry": { "type": "Point", "coordinates": [ -76.5942082, 44.2438266 ] } },
{ "type": "Feature", "properties": { "PERMIT ID": "D30-1352-2020", "DATE OF ISSUE": "14/10/2020", "DATE OF COMPLETION": "", "STATUS": "1", "ADDRESS": "66 KINGSCOURT AVE" }, "geometry": { "type": "Point", "coordinates": [ -76.5016387, 44.2436415 ] } },
{ "type": "Feature", "properties": { "PERMIT ID": "D30-1355-2020", "DATE OF ISSUE": "14/10/2020", "DATE OF COMPLETION": "", "STATUS": "1", "ADDRESS": "64 KINGSCOURT AVE" }, "geometry": { "type": "Point", "coordinates": [ -76.501614, 44.2435658 ] } },
{ "type": "Feature", "properties": { "PERMIT ID": "D30-1794-2020", "DATE OF ISSUE": "13/10/2020", "DATE OF COMPLETION": "", "STATUS": "1", "ADDRESS": "46 ROBERT WALLACE DR" }, "geometry": { "type": "Point", "coordinates": [ -76.5283913, 44.2317599 ] } },
{ "type": "Feature", "properties": { "PERMIT ID": "D30-1753-2020", "DATE OF ISSUE": "7/10/2020", "DATE OF COMPLETION": "", "STATUS": "1", "ADDRESS": "731 DOWNING ST" }, "geometry": { "type": "Point", "coordinates": [ -76.5973301, 44.2465811 ] } },
{ "type": "Feature", "properties": { "PERMIT ID": "D30-0438-2019", "DATE OF ISSUE": "5/10/2020", "DATE OF COMPLETION": "", "STATUS": "1", "ADDRESS": "211 PARK ST" }, "geometry": { "type": "Point", "coordinates": [ -76.5103546, 44.2385736 ] } },
{ "type": "Feature", "properties": { "PERMIT ID": "D30-1752-2020", "DATE OF ISSUE": "1/10/2020", "DATE OF COMPLETION": "", "STATUS": "1", "ADDRESS": "780 MONA DR" }, "geometry": { "type": "Point", "coordinates": [ -76.6024582, 44.2490315 ] } },
{ "type": "Feature", "properties": { "PERMIT ID": "D30-1721-2020", "DATE OF ISSUE": "29/9/2020", "DATE OF COMPLETION": "", "STATUS": "1", "ADDRESS": "43 RUSKIN ST" }, "geometry": { "type": "Point", "coordinates": [ -76.5041362, 44.2525203 ] } },
{ "type": "Feature", "properties": { "PERMIT ID": "D30-0351-2020", "DATE OF ISSUE": "21/9/2020", "DATE OF COMPLETION": "", "STATUS": "0", "ADDRESS": "1137 WHEATHILL ST" }, "geometry": { "type": "Point", "coordinates": [ -76.5523893, 44.2491833 ] } },
{ "type": "Feature", "properties": { "PERMIT ID": "D30-1351-2020", "DATE OF ISSUE": "18/9/2020", "DATE OF COMPLETION": "", "STATUS": "1", "ADDRESS": "70 KINGSCOURT AVE" }, "geometry": { "type": "Point", "coordinates": [ -76.5016367, 44.243744 ] } },
{ "type": "Feature", "properties": { "PERMIT ID": "D30-1606-2020", "DATE OF ISSUE": "11/9/2020", "DATE OF COMPLETION": "", "STATUS": "1", "ADDRESS": "60 GIBSON AVE" }, "geometry": { "type": "Point", "coordinates": [ -76.5118452, 44.2302143 ] } },
{ "type": "Feature", "properties": { "PERMIT ID": "D30-1622-2020", "DATE OF ISSUE": "11/9/2020", "DATE OF COMPLETION": "", "STATUS": "0", "ADDRESS": "1313 THORNWOOD CRES" }, "geometry": { "type": "Point", "coordinates": [ -76.5798563, 44.2699232 ] } },
{ "type": "Feature", "properties": { "PERMIT ID": "D30-1499-2020", "DATE OF ISSUE": "8/9/2020", "DATE OF COMPLETION": "", "STATUS": "1", "ADDRESS": "240 MILL POND PL" }, "geometry": { "type": "Point", "coordinates": [ -76.5352777, 44.2629008 ] } },
{ "type": "Feature", "properties": { "PERMIT ID": "D30-1528-2020", "DATE OF ISSUE": "4/9/2020", "DATE OF COMPLETION": "", "STATUS": "1", "ADDRESS": "941 AMBLESIDE CRES" }, "geometry": { "type": "Point", "coordinates": [ -76.5822862, 44.255529 ] } },
{ "type": "Feature", "properties": { "PERMIT ID": "D30-1535-2020", "DATE OF ISSUE": "3/9/2020", "DATE OF COMPLETION": "", "STATUS": "1", "ADDRESS": "39 MORENZ CRES" }, "geometry": { "type": "Point", "coordinates": [ -76.4847885, 44.2680286 ] } },
{ "type": "Feature", "properties": { "PERMIT ID": "D30-1468-2020", "DATE OF ISSUE": "31/8/2020", "DATE OF COMPLETION": "", "STATUS": "1", "ADDRESS": "216 MILL POND PL" }, "geometry": { "type": "Point", "coordinates": [ -76.5361827, 44.2633029 ] } },
{ "type": "Feature", "properties": { "PERMIT ID": "D30-1085-2020", "DATE OF ISSUE": "28/8/2020", "DATE OF COMPLETION": "", "STATUS": "1", "ADDRESS": "661 MILFORD DR" }, "geometry": { "type": "Point", "coordinates": [ -76.5835488, 44.2454965 ] } },
{ "type": "Feature", "properties": { "PERMIT ID": "D30-1488-2020", "DATE OF ISSUE": "25/8/2020", "DATE OF COMPLETION": "", "STATUS": "1", "ADDRESS": "212 MILL POND PL" }, "geometry": { "type": "Point", "coordinates": [ -76.5363408, 44.263336 ] } },
{ "type": "Feature", "properties": { "PERMIT ID": "D30-1346-2020", "DATE OF ISSUE": "20/8/2020", "DATE OF COMPLETION": "", "STATUS": "1", "ADDRESS": "72 KINGSCOURT AVE" }, "geometry": { "type": "Point", "coordinates": [ -76.5016332, 44.2438201 ] } },
{ "type": "Feature", "properties": { "PERMIT ID": "D30-1232-2020", "DATE OF ISSUE": "7/8/2020", "DATE OF COMPLETION": "", "STATUS": "1", "ADDRESS": "798 WHITEOAK CRES" }, "geometry": { "type": "Point", "coordinates": [ -76.580163, 44.2629251 ] } },
{ "type": "Feature", "properties": { "PERMIT ID": "D30-1329-2020", "DATE OF ISSUE": "30/7/2020", "DATE OF COMPLETION": "", "STATUS": "1", "ADDRESS": "933 BLUFFWOOD AVE" }, "geometry": { "type": "Point", "coordinates": [ -76.441756, 44.2692832 ] } },
{ "type": "Feature", "properties": { "PERMIT ID": "D30-1175-2020", "DATE OF ISSUE": "29/7/2020", "DATE OF COMPLETION": "", "STATUS": "1", "ADDRESS": "104 WILSON ST" }, "geometry": { "type": "Point", "coordinates": [ -76.4865386, 44.2605665 ] } },
{ "type": "Feature", "properties": { "PERMIT ID": "D30-1294-2020", "DATE OF ISSUE": "29/7/2020", "DATE OF COMPLETION": "", "STATUS": "1", "ADDRESS": "80 KINGSCOURT AVE" }, "geometry": { "type": "Point", "coordinates": [ -76.5016512, 44.2440972 ] } },
{ "type": "Feature", "properties": { "PERMIT ID": "D30-1297-2020", "DATE OF ISSUE": "29/7/2020", "DATE OF COMPLETION": "", "STATUS": "1", "ADDRESS": "76 KINGSCOURT AVE" }, "geometry": { "type": "Point", "coordinates": [ -76.5016587, 44.2440012 ] } },
{ "type": "Feature", "properties": { "PERMIT ID": "D30-1298-2020", "DATE OF ISSUE": "29/7/2020", "DATE OF COMPLETION": "", "STATUS": "1", "ADDRESS": "74 KINGSCOURT AVE" }, "geometry": { "type": "Point", "coordinates": [ -76.5016404, 44.2439224 ] } },
{ "type": "Feature", "properties": { "PERMIT ID": "D30-0299-2019", "DATE OF ISSUE": "23/7/2020", "DATE OF COMPLETION": "", "STATUS": "1", "ADDRESS": "29 RIDEAU ST" }, "geometry": { "type": "Point", "coordinates": [ -76.4823492, 44.2343057 ] } },
{ "type": "Feature", "properties": { "PERMIT ID": "D30-0300-2019", "DATE OF ISSUE": "23/7/2020", "DATE OF COMPLETION": "", "STATUS": "1", "ADDRESS": "31 RIDEAU ST" }, "geometry": { "type": "Point", "coordinates": [ -76.482353, 44.2343523 ] } },
{ "type": "Feature", "properties": { "PERMIT ID": "D30-1032-2020", "DATE OF ISSUE": "22/7/2020", "DATE OF COMPLETION": "", "STATUS": "1", "ADDRESS": "400 BETH CRES" }, "geometry": { "type": "Point", "coordinates": [ -76.5900399, 44.2633555 ] } },
{ "type": "Feature", "properties": { "PERMIT ID": "D30-1127-2020", "DATE OF ISSUE": "22/7/2020", "DATE OF COMPLETION": "", "STATUS": "1", "ADDRESS": "730 VICTORIA ST" }, "geometry": { "type": "Point", "coordinates": [ -76.504069, 44.2423272 ] } },
{ "type": "Feature", "properties": { "PERMIT ID": "D30-0864-2020", "DATE OF ISSUE": "14/7/2020", "DATE OF COMPLETION": "", "STATUS": "1", "ADDRESS": "22 RUSKIN ST" }, "geometry": { "type": "Point", "coordinates": [ -76.5031368, 44.2521662 ] } },
{ "type": "Feature", "properties": { "PERMIT ID": "D30-0868-2020", "DATE OF ISSUE": "14/7/2020", "DATE OF COMPLETION": "", "STATUS": "0", "ADDRESS": "38 RUSKIN ST" }, "geometry": { "type": "Point", "coordinates": [ -76.503914, 44.2521222 ] } },
{ "type": "Feature", "properties": { "PERMIT ID": "D30-0867-2020", "DATE OF ISSUE": "14/7/2020", "DATE OF COMPLETION": "", "STATUS": "0", "ADDRESS": "34 RUSKIN ST" }, "geometry": { "type": "Point", "coordinates": [ -76.5037189, 44.2521338 ] } },
{ "type": "Feature", "properties": { "PERMIT ID": "D30-0887-2020", "DATE OF ISSUE": "10/7/2020", "DATE OF COMPLETION": "", "STATUS": "1", "ADDRESS": "1471 EVERGREEN DR" }, "geometry": { "type": "Point", "coordinates": [ -76.6023454, 44.2649466 ] } },
{ "type": "Feature", "properties": { "PERMIT ID": "D30-1111-2020", "DATE OF ISSUE": "9/7/2020", "DATE OF COMPLETION": "", "STATUS": "1", "ADDRESS": "252 WATERLOO DR" }, "geometry": { "type": "Point", "coordinates": [ -76.5475867, 44.2526159 ] } },
{ "type": "Feature", "properties": { "PERMIT ID": "D30-0353-2020", "DATE OF ISSUE": "6/7/2020", "DATE OF COMPLETION": "", "STATUS": "1", "ADDRESS": "306 SUTHERLAND DR" }, "geometry": { "type": "Point", "coordinates": [ -76.4886791, 44.2675618 ] } },
{ "type": "Feature", "properties": { "PERMIT ID": "D30-1013-2020", "DATE OF ISSUE": "30/6/2020", "DATE OF COMPLETION": "", "STATUS": "1", "ADDRESS": "928 UXBRIDGE CRES" }, "geometry": { "type": "Point", "coordinates": [ -76.5570036, 44.2557066 ] } },
{ "type": "Feature", "properties": { "PERMIT ID": "D30-0820-2020", "DATE OF ISSUE": "26/6/2020", "DATE OF COMPLETION": "", "STATUS": "1", "ADDRESS": "847 LA SALLE BLVD" }, "geometry": { "type": "Point", "coordinates": [ -76.4234238, 44.2394402 ] } },
{ "type": "Feature", "properties": { "PERMIT ID": "D30-0656-2020", "DATE OF ISSUE": "23/6/2020", "DATE OF COMPLETION": "", "STATUS": "1", "ADDRESS": "680 COLLINS BAY RD" }, "geometry": { "type": "Point", "coordinates": [ -76.6098898, 44.243841 ] } },
{ "type": "Feature", "properties": { "PERMIT ID": "D30-0865-2020", "DATE OF ISSUE": "22/6/2020", "DATE OF COMPLETION": "", "STATUS": "1", "ADDRESS": "26 RUSKIN ST" }, "geometry": { "type": "Point", "coordinates": [ -76.503329, 44.2521561 ] } },
{ "type": "Feature", "properties": { "PERMIT ID": "D30-0481-2020", "DATE OF ISSUE": "22/6/2020", "DATE OF COMPLETION": "", "STATUS": "0", "ADDRESS": "258 KINGSCOURT AVE" }, "geometry": { "type": "Point", "coordinates": [ -76.5021817, 44.2502451 ] } },
{ "type": "Feature", "properties": { "PERMIT ID": "D30-0866-2020", "DATE OF ISSUE": "22/6/2020", "DATE OF COMPLETION": "", "STATUS": "1", "ADDRESS": "30 RUSKIN ST" }, "geometry": { "type": "Point", "coordinates": [ -76.5035267, 44.2521425 ] } },
{ "type": "Feature", "properties": { "PERMIT ID": "D30-0710-2020", "DATE OF ISSUE": "19/6/2020", "DATE OF COMPLETION": "", "STATUS": "1", "ADDRESS": "281 MONTREAL ST" }, "geometry": { "type": "Point", "coordinates": [ -76.4858487, 44.2395232 ] } },
{ "type": "Feature", "properties": { "PERMIT ID": "D30-0952-2020", "DATE OF ISSUE": "17/6/2020", "DATE OF COMPLETION": "", "STATUS": "1", "ADDRESS": "277 PHILLIPS ST" }, "geometry": { "type": "Point", "coordinates": [ -76.5303779, 44.242798 ] } },
{ "type": "Feature", "properties": { "PERMIT ID": "D30-0689-2020", "DATE OF ISSUE": "16/6/2020", "DATE OF COMPLETION": "", "STATUS": "1", "ADDRESS": "74 LOWER UNION ST" }, "geometry": { "type": "Point", "coordinates": [ -76.4860407, 44.2259831 ] } },
{ "type": "Feature", "properties": { "PERMIT ID": "D30-0686-2020", "DATE OF ISSUE": "4/6/2020", "DATE OF COMPLETION": "", "STATUS": "1", "ADDRESS": "911 KENSHAW ST" }, "geometry": { "type": "Point", "coordinates": [ -76.5867849, 44.2563695 ] } },
{ "type": "Feature", "properties": { "PERMIT ID": "D30-0647-2020", "DATE OF ISSUE": "1/6/2020", "DATE OF COMPLETION": "", "STATUS": "0", "ADDRESS": "872 BEACONHILL CRT" }, "geometry": { "type": "Point", "coordinates": [ -76.5780893, 44.2571514 ] } },
{ "type": "Feature", "properties": { "PERMIT ID": "D30-0749-2020", "DATE OF ISSUE": "1/6/2020", "DATE OF COMPLETION": "", "STATUS": "1", "ADDRESS": "1246 CARFA CRES" }, "geometry": { "type": "Point", "coordinates": [ -76.6023467, 44.2647282 ] } },
{ "type": "Feature", "properties": { "PERMIT ID": "D30-0664-2020", "DATE OF ISSUE": "29/5/2020", "DATE OF COMPLETION": "", "STATUS": "1", "ADDRESS": "167 MACDONNELL ST" }, "geometry": { "type": "Point", "coordinates": [ -76.5047013, 44.2308237 ] } },
{ "type": "Feature", "properties": { "PERMIT ID": "D30-0599-2020", "DATE OF ISSUE": "22/5/2020", "DATE OF COMPLETION": "", "STATUS": "1", "ADDRESS": "1237 JOHNSON ST" }, "geometry": { "type": "Point", "coordinates": [ -76.5304743, 44.229989 ] } },
{ "type": "Feature", "properties": { "PERMIT ID": "D30-0551-2020", "DATE OF ISSUE": "4/5/2020", "DATE OF COMPLETION": "", "STATUS": "0", "ADDRESS": "1202 MONTREAL ST" }, "geometry": { "type": "Point", "coordinates": [ -76.4789235, 44.2660471 ] } },
{ "type": "Feature", "properties": { "PERMIT ID": "D30-0091-2020", "DATE OF ISSUE": "1/5/2020", "DATE OF COMPLETION": "", "STATUS": "1", "ADDRESS": "733 TRUMAN DR" }, "geometry": { "type": "Point", "coordinates": [ -76.5989079, 44.2466258 ] } },
{ "type": "Feature", "properties": { "PERMIT ID": "D30-0536-2020", "DATE OF ISSUE": "21/4/2020", "DATE OF COMPLETION": "", "STATUS": "1", "ADDRESS": "937 BLUFFWOOD AVE" }, "geometry": { "type": "Point", "coordinates": [ -76.4418051, 44.2695819 ] } },
{ "type": "Feature", "properties": { "PERMIT ID": "D30-0560-2020", "DATE OF ISSUE": "21/4/2020", "DATE OF COMPLETION": "", "STATUS": "1", "ADDRESS": "68 JOYCE ST" }, "geometry": { "type": "Point", "coordinates": [ -76.4779993, 44.2736296 ] } },
{ "type": "Feature", "properties": { "PERMIT ID": "D30-0490-2020", "DATE OF ISSUE": "9/4/2020", "DATE OF COMPLETION": "", "STATUS": "0", "ADDRESS": "380 BERNICE DR" }, "geometry": { "type": "Point", "coordinates": [ -76.5814826, 44.2313347 ] } },
{ "type": "Feature", "properties": { "PERMIT ID": "D30-0294-2020", "DATE OF ISSUE": "3/4/2020", "DATE OF COMPLETION": "", "STATUS": "1", "ADDRESS": "421 NELSON ST" }, "geometry": { "type": "Point", "coordinates": [ -76.5023434, 44.2436992 ] } },
{ "type": "Feature", "properties": { "PERMIT ID": "D30-0296-2020", "DATE OF ISSUE": "3/4/2020", "DATE OF COMPLETION": "", "STATUS": "1", "ADDRESS": "417 NELSON ST" }, "geometry": { "type": "Point", "coordinates": [ -76.5023141, 44.2435175 ] } },
{ "type": "Feature", "properties": { "PERMIT ID": "D30-0300-2020", "DATE OF ISSUE": "3/4/2020", "DATE OF COMPLETION": "", "STATUS": "1", "ADDRESS": "405 NELSON ST" }, "geometry": { "type": "Point", "coordinates": [ -76.502295, 44.2431605 ] } },
{ "type": "Feature", "properties": { "PERMIT ID": "D30-0301-2020", "DATE OF ISSUE": "3/4/2020", "DATE OF COMPLETION": "", "STATUS": "1", "ADDRESS": "403 NELSON ST" }, "geometry": { "type": "Point", "coordinates": [ -76.5022941, 44.2430704 ] } },
{ "type": "Feature", "properties": { "PERMIT ID": "D30-0333-2020", "DATE OF ISSUE": "3/4/2020", "DATE OF COMPLETION": "", "STATUS": "1", "ADDRESS": "344 WELLER AVE" }, "geometry": { "type": "Point", "coordinates": [ -76.4960525, 44.2612594 ] } },
{ "type": "Feature", "properties": { "PERMIT ID": "D30-0295-2020", "DATE OF ISSUE": "3/4/2020", "DATE OF COMPLETION": "", "STATUS": "1", "ADDRESS": "419 NELSON ST" }, "geometry": { "type": "Point", "coordinates": [ -76.5023244, 44.2436103 ] } },
{ "type": "Feature", "properties": { "PERMIT ID": "D30-0299-2020", "DATE OF ISSUE": "3/4/2020", "DATE OF COMPLETION": "", "STATUS": "1", "ADDRESS": "407 NELSON ST" }, "geometry": { "type": "Point", "coordinates": [ -76.5023153, 44.2432531 ] } },
{ "type": "Feature", "properties": { "PERMIT ID": "D30-0297-2020", "DATE OF ISSUE": "3/4/2020", "DATE OF COMPLETION": "", "STATUS": "1", "ADDRESS": "2 - 411 NELSON ST" }, "geometry": { "type": "Point", "coordinates": [ -76.5023258, 44.243433 ] } },
{ "type": "Feature", "properties": { "PERMIT ID": "D30-0298-2020", "DATE OF ISSUE": "3/4/2020", "DATE OF COMPLETION": "", "STATUS": "1", "ADDRESS": "2 - 409 NELSON ST" }, "geometry": { "type": "Point", "coordinates": [ -76.5023175, 44.2433388 ] } },
{ "type": "Feature", "properties": { "PERMIT ID": "D30-0547-2020", "DATE OF ISSUE": "1/4/2020", "DATE OF COMPLETION": "", "STATUS": "1", "ADDRESS": "115 DALGLEISH AVE" }, "geometry": { "type": "Point", "coordinates": [ -76.4481784, 44.2613606 ] } },
{ "type": "Feature", "properties": { "PERMIT ID": "D30-0354-2020", "DATE OF ISSUE": "31/3/2020", "DATE OF COMPLETION": "", "STATUS": "1", "ADDRESS": "160 AVENUE RD" }, "geometry": { "type": "Point", "coordinates": [ -76.519146, 44.245915 ] } },
{ "type": "Feature", "properties": { "PERMIT ID": "D30-0252-2020", "DATE OF ISSUE": "30/3/2020", "DATE OF COMPLETION": "", "STATUS": "0", "ADDRESS": "888 UXBRIDGE CRES" }, "geometry": { "type": "Point", "coordinates": [ -76.5547089, 44.2555446 ] } },
{ "type": "Feature", "properties": { "PERMIT ID": "D30-0241-2020", "DATE OF ISSUE": "18/3/2020", "DATE OF COMPLETION": "", "STATUS": "0", "ADDRESS": "888 BEACONHILL CRT" }, "geometry": { "type": "Point", "coordinates": [ -76.5789385, 44.2569247 ] } },
{ "type": "Feature", "properties": { "PERMIT ID": "D30-1260-2019", "DATE OF ISSUE": "18/3/2020", "DATE OF COMPLETION": "", "STATUS": "1", "ADDRESS": "460 BETH CRES" }, "geometry": { "type": "Point", "coordinates": [ -76.5917919, 44.2634216 ] } },
{ "type": "Feature", "properties": { "PERMIT ID": "D30-0441-2019", "DATE OF ISSUE": "13/3/2020", "DATE OF COMPLETION": "", "STATUS": "0", "ADDRESS": "8 LAKEVIEW AVE" }, "geometry": { "type": "Point", "coordinates": [ -76.5708695, 44.2138385 ] } },
{ "type": "Feature", "properties": { "PERMIT ID": "D30-0943-2019", "DATE OF ISSUE": "10/3/2020", "DATE OF COMPLETION": "", "STATUS": "1", "ADDRESS": "1085 JOHNSON ST" }, "geometry": { "type": "Point", "coordinates": [ -76.5233388, 44.2305197 ] } },
{ "type": "Feature", "properties": { "PERMIT ID": "D30-0222-2020", "DATE OF ISSUE": "9/3/2020", "DATE OF COMPLETION": "", "STATUS": "1", "ADDRESS": "343 ALBERT ST" }, "geometry": { "type": "Point", "coordinates": [ -76.4999711, 44.2321219 ] } },
{ "type": "Feature", "properties": { "PERMIT ID": "D30-1447-2019", "DATE OF ISSUE": "25/2/2020", "DATE OF COMPLETION": "", "STATUS": "0", "ADDRESS": "406 NELSON ST" }, "geometry": { "type": "Point", "coordinates": [ -76.5028391, 44.2431253 ] } },
{ "type": "Feature", "properties": { "PERMIT ID": "D30-0120-2020", "DATE OF ISSUE": "19/2/2020", "DATE OF COMPLETION": "", "STATUS": "1", "ADDRESS": "855 PEMBRIDGE CRES" }, "geometry": { "type": "Point", "coordinates": [ -76.5820194, 44.243576 ] } },
{ "type": "Feature", "properties": { "PERMIT ID": "D30-1450-2019", "DATE OF ISSUE": "18/2/2020", "DATE OF COMPLETION": "", "STATUS": "1", "ADDRESS": "595 BROCK ST" }, "geometry": { "type": "Point", "coordinates": [ -76.504627, 44.2328774 ] } },
{ "type": "Feature", "properties": { "PERMIT ID": "D30-1204-2019", "DATE OF ISSUE": "14/2/2020", "DATE OF COMPLETION": "", "STATUS": "1", "ADDRESS": "827 WOODBINE RD" }, "geometry": { "type": "Point", "coordinates": [ -76.5810601, 44.2586544 ] } },
{ "type": "Feature", "properties": { "PERMIT ID": "D30-0128-2020", "DATE OF ISSUE": "13/2/2020", "DATE OF COMPLETION": "", "STATUS": "1", "ADDRESS": "3215 PRINCESS ST" }, "geometry": { "type": "Point", "coordinates": [ -76.6034178, 44.26247 ] } },
{ "type": "Feature", "properties": { "PERMIT ID": "D30-0005-2020", "DATE OF ISSUE": "5/2/2020", "DATE OF COMPLETION": "", "STATUS": "1", "ADDRESS": "5 ROSS ST" }, "geometry": { "type": "Point", "coordinates": [ -76.5279392, 44.23331 ] } },
{ "type": "Feature", "properties": { "PERMIT ID": "D30-1138-2019", "DATE OF ISSUE": "17/1/2020", "DATE OF COMPLETION": "", "STATUS": "1", "ADDRESS": "54 EDGEHILL ST" }, "geometry": { "type": "Point", "coordinates": [ -76.5044927, 44.2236451 ] } },
{ "type": "Feature", "properties": { "PERMIT ID": "D30-0007-2020", "DATE OF ISSUE": "15/1/2020", "DATE OF COMPLETION": "", "STATUS": "0", "ADDRESS": "440 MCCALLUM ST" }, "geometry": { "type": "Point", "coordinates": [ -76.4492746, 44.2640185 ] } },
{ "type": "Feature", "properties": { "PERMIT ID": "D30-1327-2019", "DATE OF ISSUE": "13/1/2020", "DATE OF COMPLETION": "", "STATUS": "1", "ADDRESS": "137 WILEY ST" }, "geometry": { "type": "Point", "coordinates": [ -76.48903, 44.2615618 ] } },
{ "type": "Feature", "properties": { "PERMIT ID": "D30-1292-2019", "DATE OF ISSUE": "10/1/2020", "DATE OF COMPLETION": "", "STATUS": "1", "ADDRESS": "10 ABBEY DALE CRT" }, "geometry": { "type": "Point", "coordinates": [ -76.4812492, 44.2666938 ] } },
{ "type": "Feature", "properties": { "PERMIT ID": "D30-1122-2019", "DATE OF ISSUE": "3/1/2020", "DATE OF COMPLETION": "", "STATUS": "1", "ADDRESS": "38 GREER ST" }, "geometry": { "type": "Point", "coordinates": [ -76.477941, 44.2661055 ] } },
{ "type": "Feature", "properties": { "PERMIT ID": "D30-1135-2019", "DATE OF ISSUE": "2/1/2020", "DATE OF COMPLETION": "", "STATUS": "1", "ADDRESS": "918 LOMBARDY ST" }, "geometry": { "type": "Point", "coordinates": [ -76.5862552, 44.2395036 ] } },
{ "type": "Feature", "properties": { "PERMIT ID": "D30-1178-2019", "DATE OF ISSUE": "9/12/2019", "DATE OF COMPLETION": "", "STATUS": "0", "ADDRESS": "124 DALGLEISH AVE" }, "geometry": { "type": "Point", "coordinates": [ -76.4477158, 44.2618386 ] } },
{ "type": "Feature", "properties": { "PERMIT ID": "D30-0474-2019", "DATE OF ISSUE": "19/11/2019", "DATE OF COMPLETION": "", "STATUS": "1", "ADDRESS": "246 MCLELLAN CRT" }, "geometry": { "type": "Point", "coordinates": [ -76.5439677, 44.2429198 ] } },
{ "type": "Feature", "properties": { "PERMIT ID": "D30-1023-2019", "DATE OF ISSUE": "19/11/2019", "DATE OF COMPLETION": "", "STATUS": "1", "ADDRESS": "104 PARK ST" }, "geometry": { "type": "Point", "coordinates": [ -76.5066617, 44.2370367 ] } },
{ "type": "Feature", "properties": { "PERMIT ID": "D30-1024-2019", "DATE OF ISSUE": "18/11/2019", "DATE OF COMPLETION": "", "STATUS": "1", "ADDRESS": "102 PARK ST" }, "geometry": { "type": "Point", "coordinates": [ -76.5065105, 44.2369865 ] } },
{ "type": "Feature", "properties": { "PERMIT ID": "D30-1000-2019", "DATE OF ISSUE": "15/11/2019", "DATE OF COMPLETION": "", "STATUS": "1", "ADDRESS": "7 DALY ST" }, "geometry": { "type": "Point", "coordinates": [ -76.4817194, 44.2615142 ] } },
{ "type": "Feature", "properties": { "PERMIT ID": "D30-1163-2019", "DATE OF ISSUE": "15/11/2019", "DATE OF COMPLETION": "", "STATUS": "1", "ADDRESS": "1472 EVERGREEN DR" }, "geometry": { "type": "Point", "coordinates": [ -76.6022205, 44.2654163 ] } },
{ "type": "Feature", "properties": { "PERMIT ID": "PRBD20191058", "DATE OF ISSUE": "12/11/2019", "DATE OF COMPLETION": "", "STATUS": "1", "ADDRESS": "6 SCOTT ST" }, "geometry": { "type": "Point", "coordinates": [ -76.5059676, 44.2358857 ] } },
{ "type": "Feature", "properties": { "PERMIT ID": "D30-0917-2019", "DATE OF ISSUE": "7/11/2019", "DATE OF COMPLETION": "", "STATUS": "0", "ADDRESS": "216 FRONTENAC ST" }, "geometry": { "type": "Point", "coordinates": [ -76.4986116, 44.2286451 ] } },
{ "type": "Feature", "properties": { "PERMIT ID": "D30-1001-2019", "DATE OF ISSUE": "4/11/2019", "DATE OF COMPLETION": "", "STATUS": "1", "ADDRESS": "34 GREER ST" }, "geometry": { "type": "Point", "coordinates": [ -76.4777494, 44.2661241 ] } },
{ "type": "Feature", "properties": { "PERMIT ID": "D30-0775-2019", "DATE OF ISSUE": "11/10/2019", "DATE OF COMPLETION": "", "STATUS": "1", "ADDRESS": "120 HILLENDALE AVE" }, "geometry": { "type": "Point", "coordinates": [ -76.5278085, 44.2452027 ] } },
{ "type": "Feature", "properties": { "PERMIT ID": "D30-0812-2019", "DATE OF ISSUE": "8/10/2019", "DATE OF COMPLETION": "", "STATUS": "1", "ADDRESS": "344 NELSON ST" }, "geometry": { "type": "Point", "coordinates": [ -76.5025086, 44.2409513 ] } },
{ "type": "Feature", "properties": { "PERMIT ID": "D30-0794-2019", "DATE OF ISSUE": "3/10/2019", "DATE OF COMPLETION": "", "STATUS": "1", "ADDRESS": "452 FIELDSTONE DR" }, "geometry": { "type": "Point", "coordinates": [ -76.4487811, 44.2609627 ] } },
{ "type": "Feature", "properties": { "PERMIT ID": "D30-0557-2019", "DATE OF ISSUE": "3/10/2019", "DATE OF COMPLETION": "", "STATUS": "0", "ADDRESS": "285 VAN ORDER DR" }, "geometry": { "type": "Point", "coordinates": [ -76.5267629, 44.2380691 ] } },
{ "type": "Feature", "properties": { "PERMIT ID": "D30-0740-2019", "DATE OF ISSUE": "23/9/2019", "DATE OF COMPLETION": "", "STATUS": "1", "ADDRESS": "2084 SWANFIELD ST" }, "geometry": { "type": "Point", "coordinates": [ -76.5576449, 44.2492845 ] } },
{ "type": "Feature", "properties": { "PERMIT ID": "D30-0469-2019", "DATE OF ISSUE": "18/9/2019", "DATE OF COMPLETION": "", "STATUS": "1", "ADDRESS": "1008 JOHNSON ST" }, "geometry": { "type": "Point", "coordinates": [ -76.5197119, 44.2303878 ] } },
{ "type": "Feature", "properties": { "PERMIT ID": "D30-0427-2019", "DATE OF ISSUE": "9/9/2019", "DATE OF COMPLETION": "", "STATUS": "1", "ADDRESS": "1283 PRINCESS ST" }, "geometry": { "type": "Point", "coordinates": [ -76.5254299, 44.247937 ] } },
{ "type": "Feature", "properties": { "PERMIT ID": "D30-0620-2019", "DATE OF ISSUE": "4/9/2019", "DATE OF COMPLETION": "", "STATUS": "1", "ADDRESS": "1470 EVERGREEN DR" }, "geometry": { "type": "Point", "coordinates": [ -76.6020602, 44.2654183 ] } },
{ "type": "Feature", "properties": { "PERMIT ID": "D30-0504-2019", "DATE OF ISSUE": "29/8/2019", "DATE OF COMPLETION": "", "STATUS": "1", "ADDRESS": "825 RINGSTEAD ST" },