{
"type": "FeatureCollection",
"name": "Kitchener_ds",
"crs": { "type": "name", "properties": { "name": "urn:ogc:def:crs:OGC:1.3:CRS84" } },
"features": [
{ "type": "Feature", "properties": { "PERMIT ID": "24111323", "DATE OF ISSUE": "17/6/2024", "DATE OF COMPLETION": "", "STATUS": "0", "ADDRESS": "260 OLD HURON RD" }, "geometry": { "type": "Point", "coordinates": [ -80.46052221, 43.39550419 ] } },
{ "type": "Feature", "properties": { "PERMIT ID": "24107100", "DATE OF ISSUE": "23/4/2024", "DATE OF COMPLETION": "", "STATUS": "0", "ADDRESS": "50 MOUNTAIN MINT CRES" }, "geometry": { "type": "Point", "coordinates": [ -80.51057231, 43.4117236 ] } },
{ "type": "Feature", "properties": { "PERMIT ID": "24101704", "DATE OF ISSUE": "22/4/2024", "DATE OF COMPLETION": "", "STATUS": "0", "ADDRESS": "72 SANDRA AVE" }, "geometry": { "type": "Point", "coordinates": [ -80.50975971, 43.44227492 ] } },
{ "type": "Feature", "properties": { "PERMIT ID": "24102947", "DATE OF ISSUE": "5/4/2024", "DATE OF COMPLETION": "", "STATUS": "0", "ADDRESS": "186 LYNDHURST DR" }, "geometry": { "type": "Point", "coordinates": [ -80.45826467, 43.45280252 ] } },
{ "type": "Feature", "properties": { "PERMIT ID": "24102840", "DATE OF ISSUE": "3/4/2024", "DATE OF COMPLETION": "", "STATUS": "0", "ADDRESS": "24 CHERRY ST" }, "geometry": { "type": "Point", "coordinates": [ -80.50585507, 43.44925581 ] } },
{ "type": "Feature", "properties": { "PERMIT ID": "24102700", "DATE OF ISSUE": "27/2/2024", "DATE OF COMPLETION": "", "STATUS": "0", "ADDRESS": "21 CONWAY DR" }, "geometry": { "type": "Point", "coordinates": [ -80.44074075, 43.44779251 ] } },
{ "type": "Feature", "properties": { "PERMIT ID": "23113793", "DATE OF ISSUE": "20/2/2024", "DATE OF COMPLETION": "", "STATUS": "0", "ADDRESS": "9 SIEBERT AVE" }, "geometry": { "type": "Point", "coordinates": [ -80.45815389, 43.4249429 ] } },
{ "type": "Feature", "properties": { "PERMIT ID": "23121535", "DATE OF ISSUE": "31/1/2024", "DATE OF COMPLETION": "", "STATUS": "0", "ADDRESS": "133 MASSEY AVE" }, "geometry": { "type": "Point", "coordinates": [ -80.46039771, 43.42664182 ] } },
{ "type": "Feature", "properties": { "PERMIT ID": "23127822", "DATE OF ISSUE": "29/1/2024", "DATE OF COMPLETION": "", "STATUS": "0", "ADDRESS": "140 BYRON AVE" }, "geometry": { "type": "Point", "coordinates": [ -80.45018711, 43.4246493 ] } },
{ "type": "Feature", "properties": { "PERMIT ID": "23127124", "DATE OF ISSUE": "25/1/2024", "DATE OF COMPLETION": "", "STATUS": "0", "ADDRESS": "35 CORAL CRES" }, "geometry": { "type": "Point", "coordinates": [ -80.49772838, 43.43513934 ] } },
{ "type": "Feature", "properties": { "PERMIT ID": "23124956", "DATE OF ISSUE": "15/11/2023", "DATE OF COMPLETION": "23/3/2024", "STATUS": "1", "ADDRESS": "74 BOEHMER ST" }, "geometry": { "type": "Point", "coordinates": [ -80.48929963, 43.46829589 ] } },
{ "type": "Feature", "properties": { "PERMIT ID": "22129243", "DATE OF ISSUE": "14/11/2023", "DATE OF COMPLETION": "", "STATUS": "0", "ADDRESS": "181 NINTH AVE" }, "geometry": { "type": "Point", "coordinates": [ -80.4493068, 43.42766838 ] } },
{ "type": "Feature", "properties": { "PERMIT ID": "23122713", "DATE OF ISSUE": "6/11/2023", "DATE OF COMPLETION": "", "STATUS": "0", "ADDRESS": "477 HIGHLAND RD E" }, "geometry": { "type": "Point", "coordinates": [ -80.48800099, 43.43073393 ] } },
{ "type": "Feature", "properties": { "PERMIT ID": "23116199", "DATE OF ISSUE": "11/10/2023", "DATE OF COMPLETION": "", "STATUS": "0", "ADDRESS": "82 SOUTH DR" }, "geometry": { "type": "Point", "coordinates": [ -80.50016814, 43.4353736 ] } },
{ "type": "Feature", "properties": { "PERMIT ID": "22125605", "DATE OF ISSUE": "3/10/2023", "DATE OF COMPLETION": "", "STATUS": "0", "ADDRESS": "467 STIRLING AVE S" }, "geometry": { "type": "Point", "coordinates": [ -80.49135392, 43.43591138 ] } },
{ "type": "Feature", "properties": { "PERMIT ID": "23100272", "DATE OF ISSUE": "11/8/2023", "DATE OF COMPLETION": "23/3/2024", "STATUS": "1", "ADDRESS": "213 MILL ST" }, "geometry": { "type": "Point", "coordinates": [ -80.48838669, 43.43783545 ] } },
{ "type": "Feature", "properties": { "PERMIT ID": "23100535", "DATE OF ISSUE": "10/8/2023", "DATE OF COMPLETION": "", "STATUS": "0", "ADDRESS": "438 HIGHLAND RD E" }, "geometry": { "type": "Point", "coordinates": [ -80.48797273, 43.43203363 ] } },
{ "type": "Feature", "properties": { "PERMIT ID": "23114565", "DATE OF ISSUE": "2/8/2023", "DATE OF COMPLETION": "", "STATUS": "0", "ADDRESS": "22 SHERWOOD AVE" }, "geometry": { "type": "Point", "coordinates": [ -80.46564366, 43.45429123 ] } },
{ "type": "Feature", "properties": { "PERMIT ID": "23112126", "DATE OF ISSUE": "27/7/2023", "DATE OF COMPLETION": "", "STATUS": "0", "ADDRESS": "202 COURTLAND AVE E" }, "geometry": { "type": "Point", "coordinates": [ -80.48501304, 43.44206035 ] } },
{ "type": "Feature", "properties": { "PERMIT ID": "23109075", "DATE OF ISSUE": "20/7/2023", "DATE OF COMPLETION": "", "STATUS": "0", "ADDRESS": "168 ERINBROOK DR" }, "geometry": { "type": "Point", "coordinates": [ -80.48934408, 43.40466522 ] } },
{ "type": "Feature", "properties": { "PERMIT ID": "23105608", "DATE OF ISSUE": "12/7/2023", "DATE OF COMPLETION": "", "STATUS": "0", "ADDRESS": "91 SHANLEY ST" }, "geometry": { "type": "Point", "coordinates": [ -80.50114884, 43.45666464 ] } },
{ "type": "Feature", "properties": { "PERMIT ID": "23110295", "DATE OF ISSUE": "4/7/2023", "DATE OF COMPLETION": "24/4/2024", "STATUS": "1", "ADDRESS": "196 FRANKLIN ST N" }, "geometry": { "type": "Point", "coordinates": [ -80.44616752, 43.43855615 ] } },
{ "type": "Feature", "properties": { "PERMIT ID": "23111068", "DATE OF ISSUE": "4/7/2023", "DATE OF COMPLETION": "", "STATUS": "0", "ADDRESS": "11 BLACKHORNE CRES" }, "geometry": { "type": "Point", "coordinates": [ -80.48257313, 43.41537335 ] } },
{ "type": "Feature", "properties": { "PERMIT ID": "23110448", "DATE OF ISSUE": "29/6/2023", "DATE OF COMPLETION": "17/1/2024", "STATUS": "1", "ADDRESS": "520 FOREST HILL DR" }, "geometry": { "type": "Point", "coordinates": [ -80.51838204, 43.42668678 ] } },
{ "type": "Feature", "properties": { "PERMIT ID": "23101803", "DATE OF ISSUE": "7/6/2023", "DATE OF COMPLETION": "", "STATUS": "0", "ADDRESS": "446 EPHRAIM ST" }, "geometry": { "type": "Point", "coordinates": [ -80.46816903, 43.4613161 ] } },
{ "type": "Feature", "properties": { "PERMIT ID": "23104572", "DATE OF ISSUE": "2/5/2023", "DATE OF COMPLETION": "13/5/2023", "STATUS": "1", "ADDRESS": "57 BARBARA CRES" }, "geometry": { "type": "Point", "coordinates": [ -80.49726629, 43.42588265 ] } },
{ "type": "Feature", "properties": { "PERMIT ID": "23104573", "DATE OF ISSUE": "2/5/2023", "DATE OF COMPLETION": "13/5/2023", "STATUS": "1", "ADDRESS": "59 BARBARA CRES" }, "geometry": { "type": "Point", "coordinates": [ -80.49737213, 43.42584699 ] } },
{ "type": "Feature", "properties": { "PERMIT ID": "23101424", "DATE OF ISSUE": "14/3/2023", "DATE OF COMPLETION": "", "STATUS": "0", "ADDRESS": "232 KIPLING AVE" }, "geometry": { "type": "Point", "coordinates": [ -80.46193786, 43.42554725 ] } },
{ "type": "Feature", "properties": { "PERMIT ID": "22122326", "DATE OF ISSUE": "13/3/2023", "DATE OF COMPLETION": "", "STATUS": "0", "ADDRESS": "18 ETON DR" }, "geometry": { "type": "Point", "coordinates": [ -80.4650564, 43.45939305 ] } },
{ "type": "Feature", "properties": { "PERMIT ID": "22114680", "DATE OF ISSUE": "12/1/2023", "DATE OF COMPLETION": "", "STATUS": "0", "ADDRESS": "28 BISMARK AVE" }, "geometry": { "type": "Point", "coordinates": [ -80.50080926, 43.45961671 ] } },
{ "type": "Feature", "properties": { "PERMIT ID": "22125803", "DATE OF ISSUE": "23/11/2022", "DATE OF COMPLETION": "1/2/2024", "STATUS": "1", "ADDRESS": "240 CHAPEL ST" }, "geometry": { "type": "Point", "coordinates": [ -80.47203979, 43.45577131 ] } },
{ "type": "Feature", "properties": { "PERMIT ID": "22117781", "DATE OF ISSUE": "6/10/2022", "DATE OF COMPLETION": "", "STATUS": "0", "ADDRESS": "558 BRITTANIA CRES" }, "geometry": { "type": "Point", "coordinates": [ -80.47640737, 43.39131303 ] } },
{ "type": "Feature", "properties": { "PERMIT ID": "22118873", "DATE OF ISSUE": "13/9/2022", "DATE OF COMPLETION": "1/4/2023", "STATUS": "1", "ADDRESS": "58 BRUBACHER ST" }, "geometry": { "type": "Point", "coordinates": [ -80.47889818, 43.45153443 ] } },
{ "type": "Feature", "properties": { "PERMIT ID": "22115002", "DATE OF ISSUE": "8/8/2022", "DATE OF COMPLETION": "15/3/2023", "STATUS": "1", "ADDRESS": "80 WEST ACRES CRES" }, "geometry": { "type": "Point", "coordinates": [ -80.54064607, 43.42424988 ] } },
{ "type": "Feature", "properties": { "PERMIT ID": "22101331", "DATE OF ISSUE": "5/8/2022", "DATE OF COMPLETION": "", "STATUS": "0", "ADDRESS": "196 MORGAN AVE" }, "geometry": { "type": "Point", "coordinates": [ -80.42763099, 43.42841026 ] } },
{ "type": "Feature", "properties": { "PERMIT ID": "21135193", "DATE OF ISSUE": "18/7/2022", "DATE OF COMPLETION": "", "STATUS": "0", "ADDRESS": "100 FAIRWAY RD N" }, "geometry": { "type": "Point", "coordinates": [ -80.43172299, 43.43084313 ] } },
{ "type": "Feature", "properties": { "PERMIT ID": "22105801", "DATE OF ISSUE": "15/6/2022", "DATE OF COMPLETION": "20/11/2023", "STATUS": "1", "ADDRESS": "27 MANSION ST" }, "geometry": { "type": "Point", "coordinates": [ -80.48254675, 43.4552601 ] } },
{ "type": "Feature", "properties": { "PERMIT ID": "22103635", "DATE OF ISSUE": "7/6/2022", "DATE OF COMPLETION": "18/2/2023", "STATUS": "1", "ADDRESS": "26 MONTEAGLE CRES" }, "geometry": { "type": "Point", "coordinates": [ -80.5328118, 43.42866392 ] } },
{ "type": "Feature", "properties": { "PERMIT ID": "21130971", "DATE OF ISSUE": "20/5/2022", "DATE OF COMPLETION": "", "STATUS": "0", "ADDRESS": "128 MONTCALM DR" }, "geometry": { "type": "Point", "coordinates": [ -80.44145495, 43.45504016 ] } },
{ "type": "Feature", "properties": { "PERMIT ID": "22103317", "DATE OF ISSUE": "25/3/2022", "DATE OF COMPLETION": "4/11/2022", "STATUS": "1", "ADDRESS": "111 HARBER AVE" }, "geometry": { "type": "Point", "coordinates": [ -80.45672661, 43.42503728 ] } },
{ "type": "Feature", "properties": { "PERMIT ID": "21133443", "DATE OF ISSUE": "31/1/2022", "DATE OF COMPLETION": "22/1/2024", "STATUS": "1", "ADDRESS": "64 SOUTHDALE AVE" }, "geometry": { "type": "Point", "coordinates": [ -80.48641381, 43.43138196 ] } },
{ "type": "Feature", "properties": { "PERMIT ID": "21132610", "DATE OF ISSUE": "18/1/2022", "DATE OF COMPLETION": "", "STATUS": "0", "ADDRESS": "508 DUKE ST W" }, "geometry": { "type": "Point", "coordinates": [ -80.50105635, 43.46012683 ] } },
{ "type": "Feature", "properties": { "PERMIT ID": "21127485", "DATE OF ISSUE": "14/12/2021", "DATE OF COMPLETION": "27/12/2023", "STATUS": "1", "ADDRESS": "177 JANSEN AVE" }, "geometry": { "type": "Point", "coordinates": [ -80.43184895, 43.43170467 ] } },
{ "type": "Feature", "properties": { "PERMIT ID": "21112187", "DATE OF ISSUE": "17/8/2021", "DATE OF COMPLETION": "19/9/2023", "STATUS": "1", "ADDRESS": "390 MARGARET AVE" }, "geometry": { "type": "Point", "coordinates": [ -80.49770636, 43.46620489 ] } },
{ "type": "Feature", "properties": { "PERMIT ID": "21124465", "DATE OF ISSUE": "13/8/2021", "DATE OF COMPLETION": "17/1/2022", "STATUS": "1", "ADDRESS": "48 HARBER AVE" }, "geometry": { "type": "Point", "coordinates": [ -80.45431529, 43.42688852 ] } },
{ "type": "Feature", "properties": { "PERMIT ID": "05011656", "DATE OF ISSUE": "10/8/2005", "DATE OF COMPLETION": "11/10/2006", "STATUS": "1", "ADDRESS": "107 NORTH HILL PL" }, "geometry": { "type": "Point", "coordinates": [ -80.42360678, 43.43449016 ] } }
]
}
