{
"type": "FeatureCollection",
"name": "Winnipeg_ds",
"crs": { "type": "name", "properties": { "name": "urn:ogc:def:crs:OGC:1.3:CRS84" } },
"features": [
{ "type": "Feature", "properties": { "PERMIT ID": "20-165581 AS", "DATE OF ISSUE": "26/1/2021", "DATE OF COMPLETION": "29/6/2022", "STATUS": 1, "ADDRESS": "934 Grosvenor AVE " }, "geometry": { "type": "Point", "coordinates": [ -97.16347817, 49.8700634 ] } },
{ "type": "Feature", "properties": { "PERMIT ID": "14-150344 HO", "DATE OF ISSUE": "19/6/2015", "DATE OF COMPLETION": null, "STATUS": 0, "ADDRESS": "454 Dubuc ST " }, "geometry": { "type": "Point", "coordinates": [ -97.10521123, 49.87743406 ] } },
{ "type": "Feature", "properties": { "PERMIT ID": "14-150769 HO", "DATE OF ISSUE": "7/1/2015", "DATE OF COMPLETION": "2/11/2015", "STATUS": 1, "ADDRESS": "361 Avalon RD " }, "geometry": { "type": "Point", "coordinates": [ -97.13288551, 49.82363186 ] } },
{ "type": "Feature", "properties": { "PERMIT ID": "15-156436 HO", "DATE OF ISSUE": "29/3/2016", "DATE OF COMPLETION": "22/6/2018", "STATUS": 1, "ADDRESS": "456 Dubuc ST " }, "geometry": { "type": "Point", "coordinates": [ -97.10510789, 49.87744078 ] } },
{ "type": "Feature", "properties": { "PERMIT ID": "15-164539 HO", "DATE OF ISSUE": "22/3/2016", "DATE OF COMPLETION": "13/9/2016", "STATUS": 1, "ADDRESS": "590 Montrose ST " }, "geometry": { "type": "Point", "coordinates": [ -97.17896231, 49.86011257 ] } },
{ "type": "Feature", "properties": { "PERMIT ID": "15-175735 HO", "DATE OF ISSUE": "27/4/2016", "DATE OF COMPLETION": "10/2/2017", "STATUS": 1, "ADDRESS": "56 Springside DR " }, "geometry": { "type": "Point", "coordinates": [ -97.11522245, 49.85484901 ] } },
{ "type": "Feature", "properties": { "PERMIT ID": "17-129285 HO", "DATE OF ISSUE": "12/10/2017", "DATE OF COMPLETION": "28/12/2018", "STATUS": 1, "ADDRESS": "242 Thurso ST " }, "geometry": { "type": "Point", "coordinates": [ -97.17207611, 49.86316952 ] } },
{ "type": "Feature", "properties": { "PERMIT ID": "17-140564 HO", "DATE OF ISSUE": "5/7/2018", "DATE OF COMPLETION": "31/1/2020", "STATUS": 1, "ADDRESS": "253 Lindsay ST " }, "geometry": { "type": "Point", "coordinates": [ -97.1937837, 49.87145744 ] } },
{ "type": "Feature", "properties": { "PERMIT ID": "17-141199 HO", "DATE OF ISSUE": "12/9/2017", "DATE OF COMPLETION": "22/1/2018", "STATUS": 1, "ADDRESS": "87 Keats WAY " }, "geometry": { "type": "Point", "coordinates": [ -97.30804245, 49.87692966 ] } },
{ "type": "Feature", "properties": { "PERMIT ID": "18-115279 HO", "DATE OF ISSUE": "29/5/2018", "DATE OF COMPLETION": "3/1/2019", "STATUS": 1, "ADDRESS": "299 Rosedale AVE " }, "geometry": { "type": "Point", "coordinates": [ -97.1320611, 49.86055816 ] } },
{ "type": "Feature", "properties": { "PERMIT ID": "18-122264 HO", "DATE OF ISSUE": "12/6/2018", "DATE OF COMPLETION": null, "STATUS": 0, "ADDRESS": "152 Hebert ST " }, "geometry": { "type": "Point", "coordinates": [ -97.12719075, 49.89736462 ] } },
{ "type": "Feature", "properties": { "PERMIT ID": "18-122314 HO", "DATE OF ISSUE": "7/8/2018", "DATE OF COMPLETION": "27/11/2018", "STATUS": 1, "ADDRESS": "133 Claremont AVE " }, "geometry": { "type": "Point", "coordinates": [ -97.12642085, 49.87580859 ] } },
{ "type": "Feature", "properties": { "PERMIT ID": "18-140807 HO", "DATE OF ISSUE": "9/8/2018", "DATE OF COMPLETION": "9/11/2022", "STATUS": 1, "ADDRESS": "153 Eugenie ST " }, "geometry": { "type": "Point", "coordinates": [ -97.1216146, 49.87999973 ] } },
{ "type": "Feature", "properties": { "PERMIT ID": "18-152336 HO", "DATE OF ISSUE": "18/9/2018", "DATE OF COMPLETION": "5/11/2019", "STATUS": 1, "ADDRESS": "638 Elm ST " }, "geometry": { "type": "Point", "coordinates": [ -97.1803347, 49.86035691 ] } },
{ "type": "Feature", "properties": { "PERMIT ID": "19-110603 HO", "DATE OF ISSUE": "16/5/2019", "DATE OF COMPLETION": "14/9/2021", "STATUS": 1, "ADDRESS": "742 Kildonan DR " }, "geometry": { "type": "Point", "coordinates": [ -97.10875953, 49.93016028 ] } },
{ "type": "Feature", "properties": { "PERMIT ID": "19-181571 HO", "DATE OF ISSUE": "1/10/2019", "DATE OF COMPLETION": "23/3/2020", "STATUS": 1, "ADDRESS": "71 Crawford AVE " }, "geometry": { "type": "Point", "coordinates": [ -97.12243163, 49.87354694 ] } },
{ "type": "Feature", "properties": { "PERMIT ID": "20-221502 AS", "DATE OF ISSUE": "6/1/2021", "DATE OF COMPLETION": "7/2/2022", "STATUS": 1, "ADDRESS": "933 Somerset AVE " }, "geometry": { "type": "Point", "coordinates": [ -97.15162296, 49.84717451 ] } },
{ "type": "Feature", "properties": { "PERMIT ID": "21-169714 AS", "DATE OF ISSUE": "14/1/2022", "DATE OF COMPLETION": null, "STATUS": 0, "ADDRESS": "832 Lyon ST " }, "geometry": { "type": "Point", "coordinates": [ -97.14108706, 49.84398259 ] } },
{ "type": "Feature", "properties": { "PERMIT ID": "21-231353 AS", "DATE OF ISSUE": "18/1/2022", "DATE OF COMPLETION": null, "STATUS": 0, "ADDRESS": "268 Elmhurst RD " }, "geometry": { "type": "Point", "coordinates": [ -97.2563092, 49.86601311 ] } },
{ "type": "Feature", "properties": { "PERMIT ID": "22-118660 AS", "DATE OF ISSUE": "15/12/2022", "DATE OF COMPLETION": null, "STATUS": 0, "ADDRESS": "511 Jessie AVE " }, "geometry": { "type": "Point", "coordinates": [ -97.14392125, 49.87322354 ] } },
{ "type": "Feature", "properties": { "PERMIT ID": "22-127654 AS", "DATE OF ISSUE": "27/4/2022", "DATE OF COMPLETION": "12/4/2023", "STATUS": 1, "ADDRESS": "222 Renfrew ST " }, "geometry": { "type": "Point", "coordinates": [ -97.19552883, 49.87044831 ] } },
{ "type": "Feature", "properties": { "PERMIT ID": "22-224498 AS", "DATE OF ISSUE": "14/12/2022", "DATE OF COMPLETION": null, "STATUS": 0, "ADDRESS": "548 Ritchot ST " }, "geometry": { "type": "Point", "coordinates": [ -97.11571401, 49.89009385 ] } },
{ "type": "Feature", "properties": { "PERMIT ID": "23-168905 AS", "DATE OF ISSUE": "14/7/2023", "DATE OF COMPLETION": "14/5/2024", "STATUS": 1, "ADDRESS": "162 Danbury BAY " }, "geometry": { "type": "Point", "coordinates": [ -97.29796018, 49.88806646 ] } },
{ "type": "Feature", "properties": { "PERMIT ID": "24-140384 AS", "DATE OF ISSUE": "11/4/2024", "DATE OF COMPLETION": null, "STATUS": 0, "ADDRESS": "29 Deer Lodge PL " }, "geometry": { "type": "Point", "coordinates": [ -97.22696494, 49.87620482 ] } },
{ "type": "Feature", "properties": { "PERMIT ID": "24-122581 AS", "DATE OF ISSUE": "9/5/2024", "DATE OF COMPLETION": null, "STATUS": 0, "ADDRESS": "29 Deer Lodge PL " }, "geometry": { "type": "Point", "coordinates": [ -97.22696494, 49.87620482 ] } }
]
}
