{
"type": "FeatureCollection",
"name": "Regina_ss",
"crs": { "type": "name", "properties": { "name": "urn:ogc:def:crs:OGC:1.3:CRS84" } },
"features": [
{ "type": "Feature", "properties": { "PERMIT ID": "PRSS202302961", "DATE OF ISSUE": "3/1/2024", "DATE OF COMPLETION": "", "STATUS": "", "ADDRESS": "4212 E KELLER AVENUE" }, "geometry": { "type": "Point", "coordinates": [ -104.522643, 50.42794463 ] } },
{ "type": "Feature", "properties": { "PERMIT ID": "PRSS202302988", "DATE OF ISSUE": "19/1/2024", "DATE OF COMPLETION": "", "STATUS": "", "ADDRESS": "3043 TROMBLEY STREET" }, "geometry": { "type": "Point", "coordinates": [ -104.51342734, 50.43026126 ] } },
{ "type": "Feature", "properties": { "PERMIT ID": "PRSS202400056", "DATE OF ISSUE": "23/1/2024", "DATE OF COMPLETION": "", "STATUS": "", "ADDRESS": "2906 ELGAARD DRIVE" }, "geometry": { "type": "Point", "coordinates": [ -104.62302403, 50.4953133 ] } },
{ "type": "Feature", "properties": { "PERMIT ID": "PRSS202400093", "DATE OF ISSUE": "24/1/2024", "DATE OF COMPLETION": "", "STATUS": "", "ADDRESS": "5126 E KAUFMAN AVENUE" }, "geometry": { "type": "Point", "coordinates": [ -104.50986124, 50.43114942 ] } },
{ "type": "Feature", "properties": { "PERMIT ID": "PRSS202400058", "DATE OF ISSUE": "31/1/2024", "DATE OF COMPLETION": "", "STATUS": "", "ADDRESS": "3298 FAVEL DRIVE" }, "geometry": { "type": "Point", "coordinates": [ -104.50680245, 50.42659929 ] } },
{ "type": "Feature", "properties": { "PERMIT ID": "PRSS202400138", "DATE OF ISSUE": "31/1/2024", "DATE OF COMPLETION": "", "STATUS": "", "ADDRESS": "4031 WATERER STREET" }, "geometry": { "type": "Point", "coordinates": [ -104.66161016, 50.41377449 ] } },
{ "type": "Feature", "properties": { "PERMIT ID": "PRSS202400140", "DATE OF ISSUE": "1/2/2024", "DATE OF COMPLETION": "", "STATUS": "", "ADDRESS": "4620 E MUTRIE CRESCENT" }, "geometry": { "type": "Point", "coordinates": [ -104.51741912, 50.43079474 ] } },
{ "type": "Feature", "properties": { "PERMIT ID": "PRSS202400145", "DATE OF ISSUE": "5/2/2024", "DATE OF COMPLETION": "", "STATUS": "", "ADDRESS": "3075 TROMBLEY STREET" }, "geometry": { "type": "Point", "coordinates": [ -104.51342814, 50.42983639 ] } },
{ "type": "Feature", "properties": { "PERMIT ID": "PRSS202400203", "DATE OF ISSUE": "27/2/2024", "DATE OF COMPLETION": "", "STATUS": "", "ADDRESS": "4624 E MUTRIE CRESCENT" }, "geometry": { "type": "Point", "coordinates": [ -104.51741939, 50.43072503 ] } },
{ "type": "Feature", "properties": { "PERMIT ID": "PRSS202400372", "DATE OF ISSUE": "12/3/2024", "DATE OF COMPLETION": "", "STATUS": "", "ADDRESS": "4625 E MUTRIE CRESCENT" }, "geometry": { "type": "Point", "coordinates": [ -104.51818614, 50.43075028 ] } },
{ "type": "Feature", "properties": { "PERMIT ID": "PRSS202400231", "DATE OF ISSUE": "14/3/2024", "DATE OF COMPLETION": "", "STATUS": "", "ADDRESS": "4617 E MUTRIE CRESCENT" }, "geometry": { "type": "Point", "coordinates": [ -104.51818553, 50.43090344 ] } },
{ "type": "Feature", "properties": { "PERMIT ID": "PRSS202400308", "DATE OF ISSUE": "19/3/2024", "DATE OF COMPLETION": "", "STATUS": "", "ADDRESS": "1453 SHANNON ROAD" }, "geometry": { "type": "Point", "coordinates": [ -104.5976765, 50.40557284 ] } },
{ "type": "Feature", "properties": { "PERMIT ID": "PRSS202400358", "DATE OF ISSUE": "19/3/2024", "DATE OF COMPLETION": "", "STATUS": "", "ADDRESS": "4741 E KELLER AVENUE" }, "geometry": { "type": "Point", "coordinates": [ -104.51515432, 50.42747017 ] } },
{ "type": "Feature", "properties": { "PERMIT ID": "PRSS202400427", "DATE OF ISSUE": "19/3/2024", "DATE OF COMPLETION": "", "STATUS": "", "ADDRESS": "4621 E MUTRIE CRESCENT" }, "geometry": { "type": "Point", "coordinates": [ -104.51818584, 50.43082686 ] } },
{ "type": "Feature", "properties": { "PERMIT ID": "PRSS202400433", "DATE OF ISSUE": "20/3/2024", "DATE OF COMPLETION": "", "STATUS": "", "ADDRESS": "4144 DELHAYE WAY" }, "geometry": { "type": "Point", "coordinates": [ -104.66344689, 50.41263925 ] } },
{ "type": "Feature", "properties": { "PERMIT ID": "PRSS202400392", "DATE OF ISSUE": "21/3/2024", "DATE OF COMPLETION": "", "STATUS": "", "ADDRESS": "4780 E MUTRIE CRESCENT" }, "geometry": { "type": "Point", "coordinates": [ -104.51585409, 50.43072241 ] } },
{ "type": "Feature", "properties": { "PERMIT ID": "PRSS202400428", "DATE OF ISSUE": "22/3/2024", "DATE OF COMPLETION": "", "STATUS": "", "ADDRESS": "4609 E MUTRIE CRESCENT" }, "geometry": { "type": "Point", "coordinates": [ -104.51818492, 50.43105659 ] } },
{ "type": "Feature", "properties": { "PERMIT ID": "PRSS202400410", "DATE OF ISSUE": "27/3/2024", "DATE OF COMPLETION": "", "STATUS": "", "ADDRESS": "5664 GILBERT CRESCENT" }, "geometry": { "type": "Point", "coordinates": [ -104.66253004, 50.39800923 ] } },
{ "type": "Feature", "properties": { "PERMIT ID": "PRSS202400415", "DATE OF ISSUE": "27/3/2024", "DATE OF COMPLETION": "", "STATUS": "", "ADDRESS": "3277 GREEN TURTLE ROAD" }, "geometry": { "type": "Point", "coordinates": [ -104.50385657, 50.42659778 ] } },
{ "type": "Feature", "properties": { "PERMIT ID": "PRSS202400440", "DATE OF ISSUE": "27/3/2024", "DATE OF COMPLETION": "", "STATUS": "", "ADDRESS": "4633 E MUTRIE CRESCENT" }, "geometry": { "type": "Point", "coordinates": [ -104.51818675, 50.43059712 ] } },
{ "type": "Feature", "properties": { "PERMIT ID": "PRSS202400474", "DATE OF ISSUE": "27/3/2024", "DATE OF COMPLETION": "", "STATUS": "", "ADDRESS": "3301 FAVEL DRIVE" }, "geometry": { "type": "Point", "coordinates": [ -104.50638715, 50.42707334 ] } },
{ "type": "Feature", "properties": { "PERMIT ID": "PRSS202400356", "DATE OF ISSUE": "28/3/2024", "DATE OF COMPLETION": "", "STATUS": "", "ADDRESS": "3001 BELLEGARDE CRESCENT" }, "geometry": { "type": "Point", "coordinates": [ -104.50868942, 50.43072653 ] } },
{ "type": "Feature", "properties": { "PERMIT ID": "PRSS202400514", "DATE OF ISSUE": "28/3/2024", "DATE OF COMPLETION": "", "STATUS": "", "ADDRESS": "4628 E MUTRIE CRESCENT" }, "geometry": { "type": "Point", "coordinates": [ -104.51741965, 50.43065671 ] } },
{ "type": "Feature", "properties": { "PERMIT ID": "PRSS202400507", "DATE OF ISSUE": "2/4/2024", "DATE OF COMPLETION": "", "STATUS": "", "ADDRESS": "3712 GEE CRESCENT" }, "geometry": { "type": "Point", "coordinates": [ -104.50626116, 50.41892107 ] } },
{ "type": "Feature", "properties": { "PERMIT ID": "PRSS202400518", "DATE OF ISSUE": "3/4/2024", "DATE OF COMPLETION": "", "STATUS": "", "ADDRESS": "2941 TROMBLEY STREET" }, "geometry": { "type": "Point", "coordinates": [ -104.51390107, 50.43277709 ] } },
{ "type": "Feature", "properties": { "PERMIT ID": "PRSS202400574", "DATE OF ISSUE": "6/4/2024", "DATE OF COMPLETION": "", "STATUS": "", "ADDRESS": "3334 VICTORIA AVENUE" }, "geometry": { "type": "Point", "coordinates": [ -104.62939702, 50.4474698 ] } },
{ "type": "Feature", "properties": { "PERMIT ID": "PRSS202400511", "DATE OF ISSUE": "9/4/2024", "DATE OF COMPLETION": "", "STATUS": "", "ADDRESS": "5508 WATERER ROAD" }, "geometry": { "type": "Point", "coordinates": [ -104.6604754, 50.41352545 ] } },
{ "type": "Feature", "properties": { "PERMIT ID": "PRSS202400412", "DATE OF ISSUE": "16/4/2024", "DATE OF COMPLETION": "", "STATUS": "", "ADDRESS": "5120 E SIMARD AVENUE" }, "geometry": { "type": "Point", "coordinates": [ -104.50991983, 50.4319554 ] } },
{ "type": "Feature", "properties": { "PERMIT ID": "PRSS202400614", "DATE OF ISSUE": "17/4/2024", "DATE OF COMPLETION": "", "STATUS": "", "ADDRESS": "8826 WHEAT CRESCENT" }, "geometry": { "type": "Point", "coordinates": [ -104.70873666, 50.45170877 ] } },
{ "type": "Feature", "properties": { "PERMIT ID": "PRSS202400584", "DATE OF ISSUE": "23/4/2024", "DATE OF COMPLETION": "", "STATUS": "", "ADDRESS": "3249 GREEN STONE ROAD" }, "geometry": { "type": "Point", "coordinates": [ -104.51875075, 50.42655713 ] } },
{ "type": "Feature", "properties": { "PERMIT ID": "PRSS202400668", "DATE OF ISSUE": "23/4/2024", "DATE OF COMPLETION": "", "STATUS": "", "ADDRESS": "4033 DELHAYE WAY" }, "geometry": { "type": "Point", "coordinates": [ -104.66274571, 50.41450847 ] } },
{ "type": "Feature", "properties": { "PERMIT ID": "PRSS202400646", "DATE OF ISSUE": "24/4/2024", "DATE OF COMPLETION": "", "STATUS": "", "ADDRESS": "4410 E BUCKINGHAM DRIVE" }, "geometry": { "type": "Point", "coordinates": [ -104.52015268, 50.42965859 ] } },
{ "type": "Feature", "properties": { "PERMIT ID": "PRSS202400659", "DATE OF ISSUE": "24/4/2024", "DATE OF COMPLETION": "", "STATUS": "", "ADDRESS": "4632 E BUCKINGHAM DRIVE" }, "geometry": { "type": "Point", "coordinates": [ -104.51704016, 50.42965327 ] } },
{ "type": "Feature", "properties": { "PERMIT ID": "PRSS202400735", "DATE OF ISSUE": "25/4/2024", "DATE OF COMPLETION": "", "STATUS": "", "ADDRESS": "2268 MCARA STREET" }, "geometry": { "type": "Point", "coordinates": [ -104.5825848, 50.44268474 ] } },
{ "type": "Feature", "properties": { "PERMIT ID": "PRSS202400736", "DATE OF ISSUE": "1/5/2024", "DATE OF COMPLETION": "", "STATUS": "", "ADDRESS": "3205 VALLEY GREEN ROAD" }, "geometry": { "type": "Point", "coordinates": [ -104.52129288, 50.42750665 ] } },
{ "type": "Feature", "properties": { "PERMIT ID": "PRSS202400215", "DATE OF ISSUE": "6/5/2024", "DATE OF COMPLETION": "", "STATUS": "", "ADDRESS": "32 USHER STREET" }, "geometry": { "type": "Point", "coordinates": [ -104.55744611, 50.45931932 ] } },
{ "type": "Feature", "properties": { "PERMIT ID": "PRSS202400696", "DATE OF ISSUE": "6/5/2024", "DATE OF COMPLETION": "", "STATUS": "", "ADDRESS": "5101 CAMPLING AVENUE" }, "geometry": { "type": "Point", "coordinates": [ -104.65502405, 50.4091022 ] } },
{ "type": "Feature", "properties": { "PERMIT ID": "PRSS202400149", "DATE OF ISSUE": "7/5/2024", "DATE OF COMPLETION": "", "STATUS": "", "ADDRESS": "1750 WALLACE STREET" }, "geometry": { "type": "Point", "coordinates": [ -104.59413912, 50.45097566 ] } },
{ "type": "Feature", "properties": { "PERMIT ID": "PRSS202400150", "DATE OF ISSUE": "7/5/2024", "DATE OF COMPLETION": "", "STATUS": "", "ADDRESS": "1824 WINNIPEG STREET" }, "geometry": { "type": "Point", "coordinates": [ -104.59548646, 50.44983289 ] } },
{ "type": "Feature", "properties": { "PERMIT ID": "PRSS202400754", "DATE OF ISSUE": "8/5/2024", "DATE OF COMPLETION": "", "STATUS": "", "ADDRESS": "2522 ATKINSON STREET" }, "geometry": { "type": "Point", "coordinates": [ -104.59267986, 50.43881404 ] } },
{ "type": "Feature", "properties": { "PERMIT ID": "PRSS202400853", "DATE OF ISSUE": "8/5/2024", "DATE OF COMPLETION": "", "STATUS": "", "ADDRESS": "3100 COPELAND ROAD" }, "geometry": { "type": "Point", "coordinates": [ -104.51535068, 50.42923263 ] } },
{ "type": "Feature", "properties": { "PERMIT ID": "PRSS202400898", "DATE OF ISSUE": "13/5/2024", "DATE OF COMPLETION": "", "STATUS": "", "ADDRESS": "4601 FERNDALE CRESCENT" }, "geometry": { "type": "Point", "coordinates": [ -104.51742109, 50.43138849 ] } },
{ "type": "Feature", "properties": { "PERMIT ID": "PRSS202400907", "DATE OF ISSUE": "14/5/2024", "DATE OF COMPLETION": "", "STATUS": "", "ADDRESS": "4380 DELHAYE WAY" }, "geometry": { "type": "Point", "coordinates": [ -104.66344288, 50.40881476 ] } },
{ "type": "Feature", "properties": { "PERMIT ID": "PRSS202400845", "DATE OF ISSUE": "15/5/2024", "DATE OF COMPLETION": "", "STATUS": "", "ADDRESS": "5100 E SIMARD AVENUE" }, "geometry": { "type": "Point", "coordinates": [ -104.51057145, 50.43200145 ] } },
{ "type": "Feature", "properties": { "PERMIT ID": "PRSS202400829", "DATE OF ISSUE": "17/5/2024", "DATE OF COMPLETION": "", "STATUS": "", "ADDRESS": "4057 ALTON CRESCENT" }, "geometry": { "type": "Point", "coordinates": [ -104.65790215, 50.41322143 ] } },
{ "type": "Feature", "properties": { "PERMIT ID": "PRSS202401009", "DATE OF ISSUE": "22/5/2024", "DATE OF COMPLETION": "", "STATUS": "", "ADDRESS": "131 WOODWARD AVENUE" }, "geometry": { "type": "Point", "coordinates": [ -104.62864208, 50.47781161 ] } },
{ "type": "Feature", "properties": { "PERMIT ID": "PRSS202401013", "DATE OF ISSUE": "23/5/2024", "DATE OF COMPLETION": "", "STATUS": "", "ADDRESS": "3305 FAVEL DRIVE" }, "geometry": { "type": "Point", "coordinates": [ -104.50623697, 50.42707307 ] } },
{ "type": "Feature", "properties": { "PERMIT ID": "PRSS202401039", "DATE OF ISSUE": "28/5/2024", "DATE OF COMPLETION": "", "STATUS": "", "ADDRESS": "5136 E GREEN CRESCENT" }, "geometry": { "type": "Point", "coordinates": [ -104.50896001, 50.4202486 ] } },
{ "type": "Feature", "properties": { "PERMIT ID": "PRSS202401040", "DATE OF ISSUE": "28/5/2024", "DATE OF COMPLETION": "", "STATUS": "", "ADDRESS": "2948 TROMBLEY STREET" }, "geometry": { "type": "Point", "coordinates": [ -104.51460157, 50.43250312 ] } },
{ "type": "Feature", "properties": { "PERMIT ID": "PRSS202400934", "DATE OF ISSUE": "29/5/2024", "DATE OF COMPLETION": "", "STATUS": "", "ADDRESS": "126 E COLLEGE AVENUE" }, "geometry": { "type": "Point", "coordinates": [ -104.58174478, 50.44114034 ] } },
{ "type": "Feature", "properties": { "PERMIT ID": "PRSS202401096", "DATE OF ISSUE": "29/5/2024", "DATE OF COMPLETION": "", "STATUS": "", "ADDRESS": "2905 BELLEGARDE CRESCENT" }, "geometry": { "type": "Point", "coordinates": [ -104.5104526, 50.43277859 ] } },
{ "type": "Feature", "properties": { "PERMIT ID": "PRSS202401052", "DATE OF ISSUE": "31/5/2024", "DATE OF COMPLETION": "", "STATUS": "", "ADDRESS": "3141 COPELAND ROAD" }, "geometry": { "type": "Point", "coordinates": [ -104.51461853, 50.42823629 ] } },
{ "type": "Feature", "properties": { "PERMIT ID": "PRSS202401020", "DATE OF ISSUE": "5/6/2024", "DATE OF COMPLETION": "", "STATUS": "", "ADDRESS": "5752 PEARSALL CRESCENT" }, "geometry": { "type": "Point", "coordinates": [ -104.66191634, 50.40089274 ] } },
{ "type": "Feature", "properties": { "PERMIT ID": "PRSS202401058", "DATE OF ISSUE": "7/6/2024", "DATE OF COMPLETION": "", "STATUS": "", "ADDRESS": "3057 GREEN BANK ROAD" }, "geometry": { "type": "Point", "coordinates": [ -104.52342279, 50.42823679 ] } },
{ "type": "Feature", "properties": { "PERMIT ID": "PRSS202401187", "DATE OF ISSUE": "12/6/2024", "DATE OF COMPLETION": "", "STATUS": "", "ADDRESS": "5305 AERODROME ROAD" }, "geometry": { "type": "Point", "coordinates": [ -104.6570564, 50.40668857 ] } },
{ "type": "Feature", "properties": { "PERMIT ID": "PRSS202401175", "DATE OF ISSUE": "13/6/2024", "DATE OF COMPLETION": "", "STATUS": "", "ADDRESS": "2957 TROMBLEY STREET" }, "geometry": { "type": "Point", "coordinates": [ -104.51384856, 50.43239172 ] } },
{ "type": "Feature", "properties": { "PERMIT ID": "PRSS202401048", "DATE OF ISSUE": "14/6/2024", "DATE OF COMPLETION": "", "STATUS": "", "ADDRESS": "8148 BARLEY CRESCENT" }, "geometry": { "type": "Point", "coordinates": [ -104.69729268, 50.45330661 ] } },
{ "type": "Feature", "properties": { "PERMIT ID": "PRSS202202843", "DATE OF ISSUE": "11/1/2023", "DATE OF COMPLETION": "", "STATUS": "", "ADDRESS": "2948 TROMBLEY STREET" }, "geometry": { "type": "Point", "coordinates": [ -104.51460157, 50.43250312 ] } },
{ "type": "Feature", "properties": { "PERMIT ID": "PRSS202202292", "DATE OF ISSUE": "23/1/2023", "DATE OF COMPLETION": "", "STATUS": "", "ADDRESS": "1016 E 10TH AVENUE" }, "geometry": { "type": "Point", "coordinates": [ -104.56870422, 50.45221199 ] } },
{ "type": "Feature", "properties": { "PERMIT ID": "PRSS202300074", "DATE OF ISSUE": "30/1/2023", "DATE OF COMPLETION": "", "STATUS": "", "ADDRESS": "4228 E JASMIN PLACE" }, "geometry": { "type": "Point", "coordinates": [ -104.52217102, 50.42909409 ] } },
{ "type": "Feature", "properties": { "PERMIT ID": "PRSS202300236", "DATE OF ISSUE": "15/2/2023", "DATE OF COMPLETION": "", "STATUS": "", "ADDRESS": "3410 GREEN STONE ROAD" }, "geometry": { "type": "Point", "coordinates": [ -104.51952866, 50.42463978 ] } },
{ "type": "Feature", "properties": { "PERMIT ID": "PRSS202300128", "DATE OF ISSUE": "27/2/2023", "DATE OF COMPLETION": "", "STATUS": "", "ADDRESS": "5056 AERIAL CRESCENT" }, "geometry": { "type": "Point", "coordinates": [ -104.65873197, 50.40145902 ] } },
{ "type": "Feature", "properties": { "PERMIT ID": "PRSS202300291", "DATE OF ISSUE": "3/3/2023", "DATE OF COMPLETION": "", "STATUS": "", "ADDRESS": "3213 VALLEY GREEN ROAD" }, "geometry": { "type": "Point", "coordinates": [ -104.52129359, 50.42734769 ] } },
{ "type": "Feature", "properties": { "PERMIT ID": "PRSS202300378", "DATE OF ISSUE": "16/3/2023", "DATE OF COMPLETION": "", "STATUS": "", "ADDRESS": "11 CATHEDRAL DRIVE" }, "geometry": { "type": "Point", "coordinates": [ -104.6035341, 50.40625082 ] } },
{ "type": "Feature", "properties": { "PERMIT ID": "PRSS202300073", "DATE OF ISSUE": "23/3/2023", "DATE OF COMPLETION": "", "STATUS": "", "ADDRESS": "5133 E SIMARD AVENUE" }, "geometry": { "type": "Point", "coordinates": [ -104.50963357, 50.43147053 ] } },
{ "type": "Feature", "properties": { "PERMIT ID": "PRSS202201157", "DATE OF ISSUE": "14/4/2023", "DATE OF COMPLETION": "", "STATUS": "", "ADDRESS": "3100 TROMBLEY STREET" }, "geometry": { "type": "Point", "coordinates": [ -104.51415209, 50.42922639 ] } },
{ "type": "Feature", "properties": { "PERMIT ID": "PRSS202300836", "DATE OF ISSUE": "11/5/2023", "DATE OF COMPLETION": "", "STATUS": "", "ADDRESS": "3126 GREEN BANK ROAD" }, "geometry": { "type": "Point", "coordinates": [ -104.52369077, 50.42701067 ] } },
{ "type": "Feature", "properties": { "PERMIT ID": "PRSS202300813", "DATE OF ISSUE": "12/5/2023", "DATE OF COMPLETION": "", "STATUS": "", "ADDRESS": "3108 CROSBIE CRESCENT" }, "geometry": { "type": "Point", "coordinates": [ -104.5112451, 50.42900106 ] } },
{ "type": "Feature", "properties": { "PERMIT ID": "PRSS202202623", "DATE OF ISSUE": "19/5/2023", "DATE OF COMPLETION": "", "STATUS": "", "ADDRESS": "15 MCNAB CRESCENT" }, "geometry": { "type": "Point", "coordinates": [ -104.60338431, 50.42101303 ] } },
{ "type": "Feature", "properties": { "PERMIT ID": "PRSS202300956", "DATE OF ISSUE": "24/5/2023", "DATE OF COMPLETION": "", "STATUS": "", "ADDRESS": "5130 E KAUFMAN AVENUE" }, "geometry": { "type": "Point", "coordinates": [ -104.50974409, 50.43113563 ] } },
{ "type": "Feature", "properties": { "PERMIT ID": "PRSS202301056", "DATE OF ISSUE": "30/5/2023", "DATE OF COMPLETION": "", "STATUS": "", "ADDRESS": "1733 MUSTARD STREET" }, "geometry": { "type": "Point", "coordinates": [ -104.696642, 50.45185628 ] } },
{ "type": "Feature", "properties": { "PERMIT ID": "PRSS202301175", "DATE OF ISSUE": "26/6/2023", "DATE OF COMPLETION": "", "STATUS": "", "ADDRESS": "2270 ROSE STREET" }, "geometry": { "type": "Point", "coordinates": [ -104.60834774, 50.4426411 ] } },
{ "type": "Feature", "properties": { "PERMIT ID": "PRSS202301287", "DATE OF ISSUE": "26/6/2023", "DATE OF COMPLETION": "", "STATUS": "", "ADDRESS": "5539 BEACON DRIVE" }, "geometry": { "type": "Point", "coordinates": [ -104.6613875, 50.39835725 ] } },
{ "type": "Feature", "properties": { "PERMIT ID": "PRSS202300772", "DATE OF ISSUE": "6/7/2023", "DATE OF COMPLETION": "", "STATUS": "", "ADDRESS": "4612 E BUCKINGHAM DRIVE" }, "geometry": { "type": "Point", "coordinates": [ -104.51756766, 50.42965422 ] } },
{ "type": "Feature", "properties": { "PERMIT ID": "PRSS202300835", "DATE OF ISSUE": "6/7/2023", "DATE OF COMPLETION": "", "STATUS": "", "ADDRESS": "5635 MCKENNA ROAD" }, "geometry": { "type": "Point", "coordinates": [ -104.6634469, 50.41564433 ] } },
{ "type": "Feature", "properties": { "PERMIT ID": "PRSS202301684", "DATE OF ISSUE": "8/8/2023", "DATE OF COMPLETION": "", "STATUS": "", "ADDRESS": "2984 GEORGE STREET" }, "geometry": { "type": "Point", "coordinates": [ -104.51119889, 50.43137745 ] } },
{ "type": "Feature", "properties": { "PERMIT ID": "PRSS202301369", "DATE OF ISSUE": "16/8/2023", "DATE OF COMPLETION": "", "STATUS": "", "ADDRESS": "1901 GRANT DRIVE" }, "geometry": { "type": "Point", "coordinates": [ -104.60625047, 50.40767995 ] } },
{ "type": "Feature", "properties": { "PERMIT ID": "PRSS202302035", "DATE OF ISSUE": "7/9/2023", "DATE OF COMPLETION": "", "STATUS": "", "ADDRESS": "5128 E SIMARD AVENUE" }, "geometry": { "type": "Point", "coordinates": [ -104.50966373, 50.43193731 ] } },
{ "type": "Feature", "properties": { "PERMIT ID": "PRSS202302048", "DATE OF ISSUE": "14/9/2023", "DATE OF COMPLETION": "", "STATUS": "", "ADDRESS": "2917 TROMBLEY STREET" }, "geometry": { "type": "Point", "coordinates": [ -104.51333639, 50.4331986 ] } },
{ "type": "Feature", "properties": { "PERMIT ID": "PRSS202302074", "DATE OF ISSUE": "14/9/2023", "DATE OF COMPLETION": "", "STATUS": "", "ADDRESS": "5432 AERIAL CRESCENT" }, "geometry": { "type": "Point", "coordinates": [ -104.65788612, 50.40274641 ] } },
{ "type": "Feature", "properties": { "PERMIT ID": "PRSS202302333", "DATE OF ISSUE": "4/10/2023", "DATE OF COMPLETION": "", "STATUS": "", "ADDRESS": "446 FROOM CRESCENT" }, "geometry": { "type": "Point", "coordinates": [ -104.57115724, 50.44244018 ] } },
{ "type": "Feature", "properties": { "PERMIT ID": "PRSS202302599", "DATE OF ISSUE": "14/11/2023", "DATE OF COMPLETION": "", "STATUS": "", "ADDRESS": "127 MERLIN CRESCENT" }, "geometry": { "type": "Point", "coordinates": [ -104.62687924, 50.48296999 ] } },
{ "type": "Feature", "properties": { "PERMIT ID": "PRSS202302690", "DATE OF ISSUE": "14/11/2023", "DATE OF COMPLETION": "", "STATUS": "", "ADDRESS": "3112 CROSBIE CRESCENT" }, "geometry": { "type": "Point", "coordinates": [ -104.51124544, 50.42891888 ] } },
{ "type": "Feature", "properties": { "PERMIT ID": "PRSS202302786", "DATE OF ISSUE": "28/11/2023", "DATE OF COMPLETION": "", "STATUS": "", "ADDRESS": "5141 E SIMARD AVENUE" }, "geometry": { "type": "Point", "coordinates": [ -104.50939578, 50.43144825 ] } },
{ "type": "Feature", "properties": { "PERMIT ID": "PRSS202302783", "DATE OF ISSUE": "30/11/2023", "DATE OF COMPLETION": "", "STATUS": "", "ADDRESS": "3200 FAVEL DRIVE" }, "geometry": { "type": "Point", "coordinates": [ -104.50752867, 50.4284837 ] } },
{ "type": "Feature", "properties": { "PERMIT ID": "PRSS202302785", "DATE OF ISSUE": "1/12/2023", "DATE OF COMPLETION": "", "STATUS": "", "ADDRESS": "1112 MONTAGUE STREET" }, "geometry": { "type": "Point", "coordinates": [ -104.63013292, 50.46105737 ] } },
{ "type": "Feature", "properties": { "PERMIT ID": "PRSS202302477", "DATE OF ISSUE": "20/12/2023", "DATE OF COMPLETION": "", "STATUS": "", "ADDRESS": "5672 GILBERT CRESCENT" }, "geometry": { "type": "Point", "coordinates": [ -104.66277013, 50.39800932 ] } },
{ "type": "Feature", "properties": { "PERMIT ID": "PRSS202302702", "DATE OF ISSUE": "27/12/2023", "DATE OF COMPLETION": "", "STATUS": "", "ADDRESS": "3273 VALLEY GREEN ROAD" }, "geometry": { "type": "Point", "coordinates": [ -104.52129894, 50.42615112 ] } },
{ "type": "Feature", "properties": { "PERMIT ID": "PRSS202200019", "DATE OF ISSUE": "1/2/2022", "DATE OF COMPLETION": "", "STATUS": "", "ADDRESS": "8 BIRCHWOOD ROAD" }, "geometry": { "type": "Point", "coordinates": [ -104.60490529, 50.40066536 ] } },
{ "type": "Feature", "properties": { "PERMIT ID": "PRSS202200012", "DATE OF ISSUE": "8/3/2022", "DATE OF COMPLETION": "", "STATUS": "", "ADDRESS": "5426 MCCLELLAND DRIVE" }, "geometry": { "type": "Point", "coordinates": [ -104.6587536, 50.40463213 ] } },
{ "type": "Feature", "properties": { "PERMIT ID": "PRSS202200667", "DATE OF ISSUE": "11/4/2022", "DATE OF COMPLETION": "", "STATUS": "", "ADDRESS": "5121 E SIMARD AVENUE" }, "geometry": { "type": "Point", "coordinates": [ -104.510003, 50.43150514 ] } },
{ "type": "Feature", "properties": { "PERMIT ID": "PRSS202200487", "DATE OF ISSUE": "21/4/2022", "DATE OF COMPLETION": "", "STATUS": "", "ADDRESS": "5125 E SIMARD AVENUE" }, "geometry": { "type": "Point", "coordinates": [ -104.50987561, 50.43149321 ] } },
{ "type": "Feature", "properties": { "PERMIT ID": "PRSS202200865", "DATE OF ISSUE": "10/5/2022", "DATE OF COMPLETION": "", "STATUS": "", "ADDRESS": "5145 E SIMARD AVENUE" }, "geometry": { "type": "Point", "coordinates": [ -104.50927608, 50.43143703 ] } },
{ "type": "Feature", "properties": { "PERMIT ID": "PRSS202200859", "DATE OF ISSUE": "12/5/2022", "DATE OF COMPLETION": "", "STATUS": "", "ADDRESS": "4698 E MUTRIE CRESCENT" }, "geometry": { "type": "Point", "coordinates": [ -104.51671022, 50.43054203 ] } },
{ "type": "Feature", "properties": { "PERMIT ID": "PRSS202200848", "DATE OF ISSUE": "12/5/2022", "DATE OF COMPLETION": "", "STATUS": "", "ADDRESS": "5620 GILBERT CRESCENT" }, "geometry": { "type": "Point", "coordinates": [ -104.66119676, 50.3980087 ] } },
{ "type": "Feature", "properties": { "PERMIT ID": "PRSS202201287", "DATE OF ISSUE": "3/6/2022", "DATE OF COMPLETION": "", "STATUS": "", "ADDRESS": "3217 VALLEY GREEN ROAD" }, "geometry": { "type": "Point", "coordinates": [ -104.52129395, 50.42726821 ] } },
{ "type": "Feature", "properties": { "PERMIT ID": "PRSS202201107", "DATE OF ISSUE": "17/6/2022", "DATE OF COMPLETION": "", "STATUS": "", "ADDRESS": "18 VERNON CRESCENT" }, "geometry": { "type": "Point", "coordinates": [ -104.62261404, 50.48984918 ] } },
{ "type": "Feature", "properties": { "PERMIT ID": "PRSS202201293", "DATE OF ISSUE": "22/6/2022", "DATE OF COMPLETION": "", "STATUS": "", "ADDRESS": "5125 CANUCK CRESCENT" }, "geometry": { "type": "Point", "coordinates": [ -104.65364478, 50.417153 ] } },
{ "type": "Feature", "properties": { "PERMIT ID": "PRSS202201420", "DATE OF ISSUE": "30/6/2022", "DATE OF COMPLETION": "", "STATUS": "", "ADDRESS": "3366 GREEN MOSS LANE" }, "geometry": { "type": "Point", "coordinates": [ -104.52517866, 50.42399037 ] } },
{ "type": "Feature", "properties": { "PERMIT ID": "PRSS202201601", "DATE OF ISSUE": "8/7/2022", "DATE OF COMPLETION": "", "STATUS": "", "ADDRESS": "4737 E MUTRIE CRESCENT" }, "geometry": { "type": "Point", "coordinates": [ -104.51554441, 50.43001513 ] } },
{ "type": "Feature", "properties": { "PERMIT ID": "PRSS202201157", "DATE OF ISSUE": "19/8/2022", "DATE OF COMPLETION": "", "STATUS": "", "ADDRESS": "3100 TROMBLEY STREET" }, "geometry": { "type": "Point", "coordinates": [ -104.51415209, 50.42922639 ] } },
{ "type": "Feature", "properties": { "PERMIT ID": "PRSS202202213", "DATE OF ISSUE": "1/9/2022", "DATE OF COMPLETION": "", "STATUS": "", "ADDRESS": "4757 E MUTRIE CRESCENT" }, "geometry": { "type": "Point", "coordinates": [ -104.51507066, 50.43028733 ] } },
{ "type": "Feature", "properties": { "PERMIT ID": "PRSS202202309", "DATE OF ISSUE": "13/9/2022", "DATE OF COMPLETION": "", "STATUS": "", "ADDRESS": "3153 COPELAND ROAD" }, "geometry": { "type": "Point", "coordinates": [ -104.51461902, 50.42794023 ] } },
{ "type": "Feature", "properties": { "PERMIT ID": "PRSS202201934", "DATE OF ISSUE": "28/9/2022", "DATE OF COMPLETION": "", "STATUS": "", "ADDRESS": "5152 CRANE CRESCENT" }, "geometry": { "type": "Point", "coordinates": [ -104.6536449, 50.39811558 ] } },
{ "type": "Feature", "properties": { "PERMIT ID": "PRSS202202874", "DATE OF ISSUE": "20/12/2022", "DATE OF COMPLETION": "", "STATUS": "", "ADDRESS": "2555 WINNIPEG STREET" }, "geometry": { "type": "Point", "coordinates": [ -104.59474353, 50.43830874 ] } },
{ "type": "Feature", "properties": { "PERMIT ID": "PRSS202002979", "DATE OF ISSUE": "14/1/2021", "DATE OF COMPLETION": "", "STATUS": "", "ADDRESS": "78 MACKENZIE CRESCENT" }, "geometry": { "type": "Point", "coordinates": [ -104.53800589, 50.45611843 ] } },
{ "type": "Feature", "properties": { "PERMIT ID": "PRSS202100100", "DATE OF ISSUE": "1/3/2021", "DATE OF COMPLETION": "", "STATUS": "", "ADDRESS": "2024 TORONTO STREET" }, "geometry": { "type": "Point", "coordinates": [ -104.59954504, 50.4465285 ] } },
{ "type": "Feature", "properties": { "PERMIT ID": "PRSS202100553", "DATE OF ISSUE": "3/5/2021", "DATE OF COMPLETION": "", "STATUS": "", "ADDRESS": "3502 GREEN MARSH CRESCENT" }, "geometry": { "type": "Point", "coordinates": [ -104.51225506, 50.42308945 ] } },
{ "type": "Feature", "properties": { "PERMIT ID": "PRSS202100875", "DATE OF ISSUE": "6/5/2021", "DATE OF COMPLETION": "", "STATUS": "", "ADDRESS": "4060 DELHAYE WAY" }, "geometry": { "type": "Point", "coordinates": [ -104.66344675, 50.41392694 ] } },
{ "type": "Feature", "properties": { "PERMIT ID": "PRSS202101520", "DATE OF ISSUE": "9/7/2021", "DATE OF COMPLETION": "", "STATUS": "", "ADDRESS": "3116 TROMBLEY STREET" }, "geometry": { "type": "Point", "coordinates": [ -104.51415385, 50.42882744 ] } },
{ "type": "Feature", "properties": { "PERMIT ID": "PRSS202102519", "DATE OF ISSUE": "5/10/2021", "DATE OF COMPLETION": "", "STATUS": "", "ADDRESS": "5621 TUTOR WAY" }, "geometry": { "type": "Point", "coordinates": [ -104.66168863, 50.41521668 ] } },
{ "type": "Feature", "properties": { "PERMIT ID": "PRSS202101908", "DATE OF ISSUE": "19/10/2021", "DATE OF COMPLETION": "", "STATUS": "", "ADDRESS": "617 MCINTOSH STREET" }, "geometry": { "type": "Point", "coordinates": [ -104.65207367, 50.46838002 ] } },
{ "type": "Feature", "properties": { "PERMIT ID": "PRSS202102302", "DATE OF ISSUE": "23/11/2021", "DATE OF COMPLETION": "", "STATUS": "", "ADDRESS": "1118 N POLEY STREET" }, "geometry": { "type": "Point", "coordinates": [ -104.62601349, 50.49553563 ] } },
{ "type": "Feature", "properties": { "PERMIT ID": "PRSS202103094", "DATE OF ISSUE": "9/12/2021", "DATE OF COMPLETION": "", "STATUS": "", "ADDRESS": "5701 GILBERT CRESCENT" }, "geometry": { "type": "Point", "coordinates": [ -104.66289717, 50.39751597 ] } },
{ "type": "Feature", "properties": { "PERMIT ID": "PRSS202101563", "DATE OF ISSUE": "10/12/2021", "DATE OF COMPLETION": "", "STATUS": "", "ADDRESS": "4433 E KELLER AVENUE" }, "geometry": { "type": "Point", "coordinates": [ -104.51937106, 50.42747836 ] } },
{ "type": "Feature", "properties": { "PERMIT ID": "PRSS202102790", "DATE OF ISSUE": "14/12/2021", "DATE OF COMPLETION": "", "STATUS": "", "ADDRESS": "3342 GREEN TURTLE ROAD" }, "geometry": { "type": "Point", "coordinates": [ -104.504618, 50.42499068 ] } },
{ "type": "Feature", "properties": { "PERMIT ID": "PRSS202103042", "DATE OF ISSUE": "15/12/2021", "DATE OF COMPLETION": "", "STATUS": "", "ADDRESS": "5613 TUTOR WAY" }, "geometry": { "type": "Point", "coordinates": [ -104.66148272, 50.4152168 ] } },
{ "type": "Feature", "properties": { "PERMIT ID": "PRSS201902895", "DATE OF ISSUE": "19/2/2020", "DATE OF COMPLETION": "", "STATUS": "", "ADDRESS": "4364 DELHAYE WAY" }, "geometry": { "type": "Point", "coordinates": [ -104.66344347, 50.40920347 ] } },
{ "type": "Feature", "properties": { "PERMIT ID": "PRSS202000259", "DATE OF ISSUE": "11/3/2020", "DATE OF COMPLETION": "", "STATUS": "", "ADDRESS": "5022 TUTOR WAY" }, "geometry": { "type": "Point", "coordinates": [ -104.65296642, 50.4158497 ] } },
{ "type": "Feature", "properties": { "PERMIT ID": "PRSS202000504", "DATE OF ISSUE": "17/4/2020", "DATE OF COMPLETION": "", "STATUS": "", "ADDRESS": "430 E BROADWAY AVENUE" }, "geometry": { "type": "Point", "coordinates": [ -104.57867035, 50.43830444 ] } },
{ "type": "Feature", "properties": { "PERMIT ID": "PRSS202000434", "DATE OF ISSUE": "5/5/2020", "DATE OF COMPLETION": "", "STATUS": "", "ADDRESS": "3332 CROSBIE CRESCENT" }, "geometry": { "type": "Point", "coordinates": [ -104.50952278, 50.42839091 ] } },
{ "type": "Feature", "properties": { "PERMIT ID": "PRSS202001456", "DATE OF ISSUE": "30/7/2020", "DATE OF COMPLETION": "", "STATUS": "", "ADDRESS": "3144 TROMBLEY STREET" }, "geometry": { "type": "Point", "coordinates": [ -104.5141569, 50.42813666 ] } },
{ "type": "Feature", "properties": { "PERMIT ID": "PRSS202002199", "DATE OF ISSUE": "13/10/2020", "DATE OF COMPLETION": "", "STATUS": "", "ADDRESS": "3202 COPELAND ROAD" }, "geometry": { "type": "Point", "coordinates": [ -104.5153848, 50.42721741 ] } },
{ "type": "Feature", "properties": { "PERMIT ID": "PRSS202002709", "DATE OF ISSUE": "20/11/2020", "DATE OF COMPLETION": "", "STATUS": "", "ADDRESS": "5312 E GREEN ALDER WAY" }, "geometry": { "type": "Point", "coordinates": [ -104.50669069, 50.42231453 ] } },
{ "type": "Feature", "properties": { "PERMIT ID": "PRSS202002568", "DATE OF ISSUE": "23/11/2020", "DATE OF COMPLETION": "", "STATUS": "", "ADDRESS": "62 HATTON CRESCENT" }, "geometry": { "type": "Point", "coordinates": [ -104.53799659, 50.45377121 ] } },
{ "type": "Feature", "properties": { "PERMIT ID": "PRSS202002678", "DATE OF ISSUE": "23/11/2020", "DATE OF COMPLETION": "", "STATUS": "", "ADDRESS": "8101 BARLEY CRESCENT" }, "geometry": { "type": "Point", "coordinates": [ -104.6966468, 50.45435077 ] } }
]
}
