{
"type": "FeatureCollection",
"name": "Toronto_ds",
"crs": { "type": "name", "properties": { "name": "urn:ogc:def:crs:OGC:1.3:CRS84" } },
"features": [
{ "type": "Feature", "properties": { "PERMIT ID": "18 213329 BLD", "DATE OF ISSUE": "1/5/2020", "DATE OF COMPLETION": "21/4/2021", "STATUS": "1", "ADDRESS": "56 Jones Ave" }, "geometry": { "type": "Point", "coordinates": [ -79.3336427, 43.66399188 ] } },
{ "type": "Feature", "properties": { "PERMIT ID": "18 221740 BLD", "DATE OF ISSUE": "22/2/2019", "DATE OF COMPLETION": "4/11/2020", "STATUS": "1", "ADDRESS": "311 Pape Ave" }, "geometry": { "type": "Point", "coordinates": [ -79.33989096, 43.6674276 ] } },
{ "type": "Feature", "properties": { "PERMIT ID": "18 238072 BLD", "DATE OF ISSUE": "19/10/2018", "DATE OF COMPLETION": "19/8/2019", "STATUS": "1", "ADDRESS": "574 Indian Rd" }, "geometry": { "type": "Point", "coordinates": [ -79.45707294, 43.65760266 ] } },
{ "type": "Feature", "properties": { "PERMIT ID": "18 238092 BLD", "DATE OF ISSUE": "27/12/2018", "DATE OF COMPLETION": "23/9/2021", "STATUS": "1", "ADDRESS": "329 Crawford St" }, "geometry": { "type": "Point", "coordinates": [ -79.4177459, 43.65239062 ] } },
{ "type": "Feature", "properties": { "PERMIT ID": "18 256340 BLD", "DATE OF ISSUE": "21/3/2019", "DATE OF COMPLETION": "2/6/2021", "STATUS": "1", "ADDRESS": "77 D'Arcy St" }, "geometry": { "type": "Point", "coordinates": [ -79.39538126, 43.65439007 ] } },
{ "type": "Feature", "properties": { "PERMIT ID": "18 268184 BLD", "DATE OF ISSUE": "6/1/2020", "DATE OF COMPLETION": "21/6/2021", "STATUS": "1", "ADDRESS": "438 Clinton St" }, "geometry": { "type": "Point", "coordinates": [ -79.41825689, 43.66586345 ] } },
{ "type": "Feature", "properties": { "PERMIT ID": "18 269277 BLD", "DATE OF ISSUE": "22/1/2019", "DATE OF COMPLETION": "28/10/2019", "STATUS": "1", "ADDRESS": "460 Ossington Ave" }, "geometry": { "type": "Point", "coordinates": [ -79.42315414, 43.65485065 ] } },
{ "type": "Feature", "properties": { "PERMIT ID": "18 270385 BLD", "DATE OF ISSUE": "23/5/2019", "DATE OF COMPLETION": "6/12/2019", "STATUS": "1", "ADDRESS": "225 Wallace Ave" }, "geometry": { "type": "Point", "coordinates": [ -79.4457492, 43.66185472 ] } },
{ "type": "Feature", "properties": { "PERMIT ID": "18 271385 BLD", "DATE OF ISSUE": "1/2/2019", "DATE OF COMPLETION": "1/8/2019", "STATUS": "1", "ADDRESS": "419 Markham St" }, "geometry": { "type": "Point", "coordinates": [ -79.41047036, 43.660523 ] } },
{ "type": "Feature", "properties": { "PERMIT ID": "19 102059 BLD", "DATE OF ISSUE": "9/1/2019", "DATE OF COMPLETION": "28/5/2019", "STATUS": "1", "ADDRESS": "5 Wayland Ave" }, "geometry": { "type": "Point", "coordinates": [ -79.29447728, 43.68194991 ] } },
{ "type": "Feature", "properties": { "PERMIT ID": "19 106049 BLD", "DATE OF ISSUE": "7/3/2019", "DATE OF COMPLETION": "10/6/2020", "STATUS": "1", "ADDRESS": "34 Abbott Ave" }, "geometry": { "type": "Point", "coordinates": [ -79.45653324, 43.66045533 ] } },
{ "type": "Feature", "properties": { "PERMIT ID": "19 109949 BLD", "DATE OF ISSUE": "18/4/2019", "DATE OF COMPLETION": "9/10/2020", "STATUS": "1", "ADDRESS": "142 Withrow Ave" }, "geometry": { "type": "Point", "coordinates": [ -79.34737356, 43.67116688 ] } },
{ "type": "Feature", "properties": { "PERMIT ID": "19 117053 BLD", "DATE OF ISSUE": "13/3/2019", "DATE OF COMPLETION": "19/8/2020", "STATUS": "1", "ADDRESS": "141 Emerson Ave" }, "geometry": { "type": "Point", "coordinates": [ -79.44244638, 43.66348787 ] } },
{ "type": "Feature", "properties": { "PERMIT ID": "19 130843 BLD", "DATE OF ISSUE": "11/10/2019", "DATE OF COMPLETION": "7/4/2021", "STATUS": "1", "ADDRESS": "145 Wolseley St" }, "geometry": { "type": "Point", "coordinates": [ -79.40621254, 43.64744801 ] } },
{ "type": "Feature", "properties": { "PERMIT ID": "19 142491 BLD", "DATE OF ISSUE": "28/9/2020", "DATE OF COMPLETION": "26/6/2024", "STATUS": "1", "ADDRESS": "349 Manning Ave" }, "geometry": { "type": "Point", "coordinates": [ -79.41215947, 43.65496506 ] } },
{ "type": "Feature", "properties": { "PERMIT ID": "19 146184 BLD", "DATE OF ISSUE": "13/6/2019", "DATE OF COMPLETION": "17/4/2020", "STATUS": "1", "ADDRESS": "11 Fulton Ave" }, "geometry": { "type": "Point", "coordinates": [ -79.35669794, 43.68186787 ] } },
{ "type": "Feature", "properties": { "PERMIT ID": "19 146860 BLD", "DATE OF ISSUE": "12/8/2019", "DATE OF COMPLETION": "7/12/2020", "STATUS": "1", "ADDRESS": "29 Alma Ave" }, "geometry": { "type": "Point", "coordinates": [ -79.42923626, 43.64451258 ] } },
{ "type": "Feature", "properties": { "PERMIT ID": "19 147633 BLD", "DATE OF ISSUE": "1/9/2021", "DATE OF COMPLETION": "26/10/2023", "STATUS": "1", "ADDRESS": "23 Helena Ave" }, "geometry": { "type": "Point", "coordinates": [ -79.41869956, 43.68061751 ] } },
{ "type": "Feature", "properties": { "PERMIT ID": "19 148107 BLD", "DATE OF ISSUE": "26/11/2019", "DATE OF COMPLETION": "2/11/2021", "STATUS": "1", "ADDRESS": "262 Beatrice St" }, "geometry": { "type": "Point", "coordinates": [ -79.41837537, 43.65795375 ] } },
{ "type": "Feature", "properties": { "PERMIT ID": "19 152852 BLD", "DATE OF ISSUE": "20/6/2019", "DATE OF COMPLETION": "25/7/2019", "STATUS": "1", "ADDRESS": "94 Marion St" }, "geometry": { "type": "Point", "coordinates": [ -79.44458778, 43.64181539 ] } },
{ "type": "Feature", "properties": { "PERMIT ID": "19 160261 BLD", "DATE OF ISSUE": "17/9/2019", "DATE OF COMPLETION": "24/11/2020", "STATUS": "1", "ADDRESS": "128 Langford Ave" }, "geometry": { "type": "Point", "coordinates": [ -79.34217283, 43.68309093 ] } },
{ "type": "Feature", "properties": { "PERMIT ID": "19 160431 BLD", "DATE OF ISSUE": "22/7/2019", "DATE OF COMPLETION": "29/1/2021", "STATUS": "1", "ADDRESS": "26 Austin Ave" }, "geometry": { "type": "Point", "coordinates": [ -79.33900223, 43.66729628 ] } },
{ "type": "Feature", "properties": { "PERMIT ID": "19 164771 BLD", "DATE OF ISSUE": "30/7/2019", "DATE OF COMPLETION": "12/8/2020", "STATUS": "1", "ADDRESS": "197 Argyle St" }, "geometry": { "type": "Point", "coordinates": [ -79.42680622, 43.64536682 ] } },
{ "type": "Feature", "properties": { "PERMIT ID": "19 169095 BLD", "DATE OF ISSUE": "8/8/2019", "DATE OF COMPLETION": "13/10/2020", "STATUS": "1", "ADDRESS": "101 Hallam St" }, "geometry": { "type": "Point", "coordinates": [ -79.43025052, 43.66732844 ] } },
{ "type": "Feature", "properties": { "PERMIT ID": "19 169162 BLD", "DATE OF ISSUE": "16/7/2019", "DATE OF COMPLETION": "19/12/2020", "STATUS": "1", "ADDRESS": "397 Roxton Rd" }, "geometry": { "type": "Point", "coordinates": [ -79.42270259, 43.65849283 ] } },
{ "type": "Feature", "properties": { "PERMIT ID": "19 173786 BLD", "DATE OF ISSUE": "31/8/2020", "DATE OF COMPLETION": "21/5/2022", "STATUS": "1", "ADDRESS": "133 Riverdale Ave" }, "geometry": { "type": "Point", "coordinates": [ -79.34755844, 43.66981745 ] } },
{ "type": "Feature", "properties": { "PERMIT ID": "19 175103 BLD", "DATE OF ISSUE": "19/8/2019", "DATE OF COMPLETION": "8/3/2024", "STATUS": "1", "ADDRESS": "94 Garnet Ave" }, "geometry": { "type": "Point", "coordinates": [ -79.42410142, 43.66866369 ] } },
{ "type": "Feature", "properties": { "PERMIT ID": "19 182923 BLD", "DATE OF ISSUE": "19/9/2019", "DATE OF COMPLETION": "22/5/2020", "STATUS": "1", "ADDRESS": "74 Dovercourt Rd" }, "geometry": { "type": "Point", "coordinates": [ -79.42220575, 43.64238025 ] } },
{ "type": "Feature", "properties": { "PERMIT ID": "19 184945 BLD", "DATE OF ISSUE": "31/10/2019", "DATE OF COMPLETION": "5/10/2020", "STATUS": "1", "ADDRESS": "24 Lamb Ave" }, "geometry": { "type": "Point", "coordinates": [ -79.32837655, 43.67915596 ] } },
{ "type": "Feature", "properties": { "PERMIT ID": "19 185193 BLD", "DATE OF ISSUE": "4/11/2019", "DATE OF COMPLETION": "15/7/2024", "STATUS": "1", "ADDRESS": "27 Chisholm Ave" }, "geometry": { "type": "Point", "coordinates": [ -79.30320574, 43.68898947 ] } },
{ "type": "Feature", "properties": { "PERMIT ID": "19 186271 BLD", "DATE OF ISSUE": "5/2/2020", "DATE OF COMPLETION": "18/1/2021", "STATUS": "1", "ADDRESS": "918 Manning Ave" }, "geometry": { "type": "Point", "coordinates": [ -79.41910831, 43.67148723 ] } },
{ "type": "Feature", "properties": { "PERMIT ID": "19 189117 BLD", "DATE OF ISSUE": "14/8/2019", "DATE OF COMPLETION": "18/11/2021", "STATUS": "1", "ADDRESS": "407 Palmerston Blvd" }, "geometry": { "type": "Point", "coordinates": [ -79.41143464, 43.65983029 ] } },
{ "type": "Feature", "properties": { "PERMIT ID": "19 207174 BLD", "DATE OF ISSUE": "19/6/2020", "DATE OF COMPLETION": "10/3/2023", "STATUS": "1", "ADDRESS": "376 Sumach St" }, "geometry": { "type": "Point", "coordinates": [ -79.36312481, 43.66639905 ] } },
{ "type": "Feature", "properties": { "PERMIT ID": "19 220320 BLD", "DATE OF ISSUE": "6/11/2019", "DATE OF COMPLETION": "27/5/2021", "STATUS": "1", "ADDRESS": "18 Langford Ave" }, "geometry": { "type": "Point", "coordinates": [ -79.34105813, 43.68027178 ] } },
{ "type": "Feature", "properties": { "PERMIT ID": "19 220876 BLD", "DATE OF ISSUE": "22/10/2019", "DATE OF COMPLETION": "12/5/2021", "STATUS": "1", "ADDRESS": "1067 Shaw St" }, "geometry": { "type": "Point", "coordinates": [ -79.42626248, 43.67043812 ] } },
{ "type": "Feature", "properties": { "PERMIT ID": "19 221675 BLD", "DATE OF ISSUE": "18/2/2020", "DATE OF COMPLETION": "7/9/2023", "STATUS": "1", "ADDRESS": "568 Dovercourt Rd" }, "geometry": { "type": "Point", "coordinates": [ -79.42819044, 43.6573353 ] } },
{ "type": "Feature", "properties": { "PERMIT ID": "19 221991 BLD", "DATE OF ISSUE": "7/2/2020", "DATE OF COMPLETION": "20/3/2024", "STATUS": "1", "ADDRESS": "170A Emerson Ave" }, "geometry": { "type": "Point", "coordinates": [ -79.44339742, 43.66469565 ] } },
{ "type": "Feature", "properties": { "PERMIT ID": "19 222009 BLD", "DATE OF ISSUE": "7/2/2020", "DATE OF COMPLETION": "20/3/2024", "STATUS": "1", "ADDRESS": "170 Emerson Ave" }, "geometry": { "type": "Point", "coordinates": [ -79.44339673, 43.66467758 ] } },
{ "type": "Feature", "properties": { "PERMIT ID": "19 227917 BLD", "DATE OF ISSUE": "26/11/2019", "DATE OF COMPLETION": "6/4/2021", "STATUS": "1", "ADDRESS": "526 Clinton St" }, "geometry": { "type": "Point", "coordinates": [ -79.41942849, 43.66873638 ] } },
{ "type": "Feature", "properties": { "PERMIT ID": "19 228441 BLD", "DATE OF ISSUE": "28/1/2020", "DATE OF COMPLETION": "15/11/2020", "STATUS": "1", "ADDRESS": "373 Main St" }, "geometry": { "type": "Point", "coordinates": [ -79.30274271, 43.6907329 ] } },
{ "type": "Feature", "properties": { "PERMIT ID": "19 229104 BLD", "DATE OF ISSUE": "11/12/2019", "DATE OF COMPLETION": "23/9/2021", "STATUS": "1", "ADDRESS": "325 Perth Ave" }, "geometry": { "type": "Point", "coordinates": [ -79.45125561, 43.66330364 ] } },
{ "type": "Feature", "properties": { "PERMIT ID": "19 231800 BLD", "DATE OF ISSUE": "10/8/2020", "DATE OF COMPLETION": "30/6/2022", "STATUS": "1", "ADDRESS": "133 Grenadier Rd" }, "geometry": { "type": "Point", "coordinates": [ -79.45049202, 43.64857602 ] } },
{ "type": "Feature", "properties": { "PERMIT ID": "19 240032 BLD", "DATE OF ISSUE": "31/1/2020", "DATE OF COMPLETION": "23/12/2020", "STATUS": "1", "ADDRESS": "717A Palmerston Ave" }, "geometry": { "type": "Point", "coordinates": [ -79.41436725, 43.66745462 ] } },
{ "type": "Feature", "properties": { "PERMIT ID": "19 240442 BLD", "DATE OF ISSUE": "9/12/2019", "DATE OF COMPLETION": "20/8/2020", "STATUS": "1", "ADDRESS": "163 Wychwood Ave" }, "geometry": { "type": "Point", "coordinates": [ -79.42325562, 43.68295915 ] } },
{ "type": "Feature", "properties": { "PERMIT ID": "19 240520 BLD", "DATE OF ISSUE": "6/1/2020", "DATE OF COMPLETION": "7/5/2021", "STATUS": "1", "ADDRESS": "66 Chatham Ave" }, "geometry": { "type": "Point", "coordinates": [ -79.33825831, 43.67965463 ] } },
{ "type": "Feature", "properties": { "PERMIT ID": "19 243644 BLD", "DATE OF ISSUE": "10/9/2020", "DATE OF COMPLETION": "30/5/2023", "STATUS": "1", "ADDRESS": "1170 Ossington Ave" }, "geometry": { "type": "Point", "coordinates": [ -79.43057103, 43.67310322 ] } },
{ "type": "Feature", "properties": { "PERMIT ID": "19 254598 BLD", "DATE OF ISSUE": "4/3/2020", "DATE OF COMPLETION": "5/12/2022", "STATUS": "1", "ADDRESS": "122 D'Arcy St" }, "geometry": { "type": "Point", "coordinates": [ -79.39702148, 43.65440527 ] } },
{ "type": "Feature", "properties": { "PERMIT ID": "19 255117 BLD", "DATE OF ISSUE": "8/11/2021", "DATE OF COMPLETION": "14/4/2023", "STATUS": "1", "ADDRESS": "107 Strathmore Blvd" }, "geometry": { "type": "Point", "coordinates": [ -79.33565757, 43.68145455 ] } },
{ "type": "Feature", "properties": { "PERMIT ID": "19 255708 BLD", "DATE OF ISSUE": "30/11/2020", "DATE OF COMPLETION": "7/11/2023", "STATUS": "1", "ADDRESS": "543 Euclid Ave" }, "geometry": { "type": "Point", "coordinates": [ -79.41272896, 43.65971384 ] } },
{ "type": "Feature", "properties": { "PERMIT ID": "19 262547 BLD", "DATE OF ISSUE": "7/10/2020", "DATE OF COMPLETION": "24/3/2021", "STATUS": "1", "ADDRESS": "24 Bain Ave" }, "geometry": { "type": "Point", "coordinates": [ -79.35249783, 43.67103974 ] } },
{ "type": "Feature", "properties": { "PERMIT ID": "20 101789 BLD", "DATE OF ISSUE": "27/10/2020", "DATE OF COMPLETION": "6/7/2021", "STATUS": "1", "ADDRESS": "43 Harcourt Ave" }, "geometry": { "type": "Point", "coordinates": [ -79.34371778, 43.67729334 ] } },
{ "type": "Feature", "properties": { "PERMIT ID": "20 104043 BLD", "DATE OF ISSUE": "30/9/2020", "DATE OF COMPLETION": "29/10/2021", "STATUS": "1", "ADDRESS": "9 Whitaker Ave" }, "geometry": { "type": "Point", "coordinates": [ -79.40615146, 43.64376296 ] } },
{ "type": "Feature", "properties": { "PERMIT ID": "20 114063 BLD", "DATE OF ISSUE": "4/8/2020", "DATE OF COMPLETION": "13/7/2021", "STATUS": "1", "ADDRESS": "434 Montrose Ave" }, "geometry": { "type": "Point", "coordinates": [ -79.42053405, 43.66130168 ] } },
{ "type": "Feature", "properties": { "PERMIT ID": "20 116519 BLD", "DATE OF ISSUE": "13/5/2020", "DATE OF COMPLETION": "26/5/2021", "STATUS": "1", "ADDRESS": "81 Gough Ave" }, "geometry": { "type": "Point", "coordinates": [ -79.34624234, 43.67962423 ] } },
{ "type": "Feature", "properties": { "PERMIT ID": "20 116552 BLD", "DATE OF ISSUE": "19/8/2020", "DATE OF COMPLETION": "10/6/2021", "STATUS": "1", "ADDRESS": "46 West Lynn Ave" }, "geometry": { "type": "Point", "coordinates": [ -79.31584687, 43.68262628 ] } },
{ "type": "Feature", "properties": { "PERMIT ID": "20 117953 BLD", "DATE OF ISSUE": "8/7/2020", "DATE OF COMPLETION": "31/8/2021", "STATUS": "1", "ADDRESS": "389R Leslie St" }, "geometry": { "type": "Point", "coordinates": [ -79.33282988, 43.67046247 ] } },
{ "type": "Feature", "properties": { "PERMIT ID": "20 122356 BLD", "DATE OF ISSUE": "1/9/2020", "DATE OF COMPLETION": "10/3/2022", "STATUS": "1", "ADDRESS": "980 Ossington Ave" }, "geometry": { "type": "Point", "coordinates": [ -79.42847171, 43.66822178 ] } },
{ "type": "Feature", "properties": { "PERMIT ID": "20 128430 BLD", "DATE OF ISSUE": "28/9/2020", "DATE OF COMPLETION": "12/11/2021", "STATUS": "1", "ADDRESS": "135 Pearson Ave" }, "geometry": { "type": "Point", "coordinates": [ -79.44471619, 43.64229178 ] } },
{ "type": "Feature", "properties": { "PERMIT ID": "20 132717 BLD", "DATE OF ISSUE": "21/9/2020", "DATE OF COMPLETION": "27/5/2022", "STATUS": "1", "ADDRESS": "24 Sorauren Ave" }, "geometry": { "type": "Point", "coordinates": [ -79.44154405, 43.64051827 ] } },
{ "type": "Feature", "properties": { "PERMIT ID": "20 132858 BLD", "DATE OF ISSUE": "5/6/2020", "DATE OF COMPLETION": "5/3/2021", "STATUS": "1", "ADDRESS": "12 Glen Stewart Ave" }, "geometry": { "type": "Point", "coordinates": [ -79.29703949, 43.67851277 ] } },
{ "type": "Feature", "properties": { "PERMIT ID": "20 134148 BLD", "DATE OF ISSUE": "28/7/2020", "DATE OF COMPLETION": "7/3/2023", "STATUS": "1", "ADDRESS": "58 St Clarens Ave" }, "geometry": { "type": "Point", "coordinates": [ -79.4378966, 43.64844668 ] } },
{ "type": "Feature", "properties": { "PERMIT ID": "20 138131 BLD", "DATE OF ISSUE": "7/7/2020", "DATE OF COMPLETION": "7/3/2022", "STATUS": "1", "ADDRESS": "77 Fuller Ave" }, "geometry": { "type": "Point", "coordinates": [ -79.43971442, 43.64235365 ] } },
{ "type": "Feature", "properties": { "PERMIT ID": "20 142369 BLD", "DATE OF ISSUE": "4/8/2020", "DATE OF COMPLETION": "3/2/2022", "STATUS": "1", "ADDRESS": "331 Donlands Ave" }, "geometry": { "type": "Point", "coordinates": [ -79.34201751, 43.69272636 ] } },
{ "type": "Feature", "properties": { "PERMIT ID": "20 143469 BLD", "DATE OF ISSUE": "21/9/2020", "DATE OF COMPLETION": "2/3/2021", "STATUS": "1", "ADDRESS": "523 Lansdowne Ave" }, "geometry": { "type": "Point", "coordinates": [ -79.44155629, 43.65548101 ] } },
{ "type": "Feature", "properties": { "PERMIT ID": "20 143816 BLD", "DATE OF ISSUE": "28/1/2021", "DATE OF COMPLETION": "12/5/2022", "STATUS": "1", "ADDRESS": "60 Beverley St" }, "geometry": { "type": "Point", "coordinates": [ -79.39305828, 43.65138226 ] } },
{ "type": "Feature", "properties": { "PERMIT ID": "20 144494 BLD", "DATE OF ISSUE": "1/9/2020", "DATE OF COMPLETION": "3/11/2021", "STATUS": "1", "ADDRESS": "946 Logan Ave" }, "geometry": { "type": "Point", "coordinates": [ -79.35020914, 43.6795558 ] } },
{ "type": "Feature", "properties": { "PERMIT ID": "20 146777 BLD", "DATE OF ISSUE": "31/8/2020", "DATE OF COMPLETION": "17/12/2020", "STATUS": "1", "ADDRESS": "2 Humewood Dr" }, "geometry": { "type": "Point", "coordinates": [ -79.42670409, 43.68205807 ] } },
{ "type": "Feature", "properties": { "PERMIT ID": "20 147445 BLD", "DATE OF ISSUE": "6/8/2020", "DATE OF COMPLETION": "7/5/2021", "STATUS": "1", "ADDRESS": "435 Grace St" }, "geometry": { "type": "Point", "coordinates": [ -79.41809313, 43.66214064 ] } },
{ "type": "Feature", "properties": { "PERMIT ID": "20 148761 BLD", "DATE OF ISSUE": "2/9/2020", "DATE OF COMPLETION": "17/11/2021", "STATUS": "1", "ADDRESS": "182 Borden St" }, "geometry": { "type": "Point", "coordinates": [ -79.40726106, 43.66159913 ] } },
{ "type": "Feature", "properties": { "PERMIT ID": "20 150832 BLD", "DATE OF ISSUE": "31/7/2020", "DATE OF COMPLETION": "21/4/2021", "STATUS": "1", "ADDRESS": "140 Ascot Ave" }, "geometry": { "type": "Point", "coordinates": [ -79.44989863, 43.67899993 ] } },
{ "type": "Feature", "properties": { "PERMIT ID": "20 153894 BLD", "DATE OF ISSUE": "21/7/2021", "DATE OF COMPLETION": "9/11/2022", "STATUS": "1", "ADDRESS": "916 Manning Ave" }, "geometry": { "type": "Point", "coordinates": [ -79.41917201, 43.67142568 ] } },
{ "type": "Feature", "properties": { "PERMIT ID": "20 155082 BLD", "DATE OF ISSUE": "25/9/2020", "DATE OF COMPLETION": "3/11/2022", "STATUS": "1", "ADDRESS": "864 Dovercourt Rd" }, "geometry": { "type": "Point", "coordinates": [ -79.43089049, 43.66462042 ] } },
{ "type": "Feature", "properties": { "PERMIT ID": "20 159667 BLD", "DATE OF ISSUE": "4/8/2020", "DATE OF COMPLETION": "9/3/2023", "STATUS": "1", "ADDRESS": "95 Mackay Ave" }, "geometry": { "type": "Point", "coordinates": [ -79.44649123, 43.67611244 ] } },
{ "type": "Feature", "properties": { "PERMIT ID": "20 159736 BLD", "DATE OF ISSUE": "8/1/2021", "DATE OF COMPLETION": "21/7/2021", "STATUS": "1", "ADDRESS": "622 Greenwood Ave" }, "geometry": { "type": "Point", "coordinates": [ -79.33239858, 43.68087846 ] } },
{ "type": "Feature", "properties": { "PERMIT ID": "20 160736 BLD", "DATE OF ISSUE": "24/9/2020", "DATE OF COMPLETION": "5/10/2022", "STATUS": "1", "ADDRESS": "100 Garden Ave" }, "geometry": { "type": "Point", "coordinates": [ -79.44459689, 43.64459656 ] } },
{ "type": "Feature", "properties": { "PERMIT ID": "20 161500 BLD", "DATE OF ISSUE": "1/10/2020", "DATE OF COMPLETION": "20/9/2021", "STATUS": "1", "ADDRESS": "656 Old Weston Rd" }, "geometry": { "type": "Point", "coordinates": [ -79.46584954, 43.67962301 ] } },
{ "type": "Feature", "properties": { "PERMIT ID": "20 163680 BLD", "DATE OF ISSUE": "4/12/2020", "DATE OF COMPLETION": "3/6/2024", "STATUS": "1", "ADDRESS": "32 Alma Ave" }, "geometry": { "type": "Point", "coordinates": [ -79.42944203, 43.64481625 ] } },
{ "type": "Feature", "properties": { "PERMIT ID": "20 165453 BLD", "DATE OF ISSUE": "23/10/2020", "DATE OF COMPLETION": "10/6/2024", "STATUS": "1", "ADDRESS": "146 Mulock Ave" }, "geometry": { "type": "Point", "coordinates": [ -79.46605523, 43.67122362 ] } },
{ "type": "Feature", "properties": { "PERMIT ID": "20 165834 BLD", "DATE OF ISSUE": "17/11/2020", "DATE OF COMPLETION": "14/1/2022", "STATUS": "1", "ADDRESS": "18 Vermont Ave" }, "geometry": { "type": "Point", "coordinates": [ -79.41551746, 43.67195487 ] } },
{ "type": "Feature", "properties": { "PERMIT ID": "20 167921 BLD", "DATE OF ISSUE": "23/4/2021", "DATE OF COMPLETION": "6/3/2023", "STATUS": "1", "ADDRESS": "60 Winchester St" }, "geometry": { "type": "Point", "coordinates": [ -79.36792895, 43.66621062 ] } },
{ "type": "Feature", "properties": { "PERMIT ID": "20 168276 BLD", "DATE OF ISSUE": "6/10/2020", "DATE OF COMPLETION": "17/12/2021", "STATUS": "1", "ADDRESS": "2 Keystone Ave" }, "geometry": { "type": "Point", "coordinates": [ -79.31028813, 43.68566266 ] } },
{ "type": "Feature", "properties": { "PERMIT ID": "20 172903 BLD", "DATE OF ISSUE": "17/11/2020", "DATE OF COMPLETION": "15/10/2021", "STATUS": "1", "ADDRESS": "52A St Clarens Ave" }, "geometry": { "type": "Point", "coordinates": [ -79.43784688, 43.6482959 ] } },
{ "type": "Feature", "properties": { "PERMIT ID": "20 176687 BLD", "DATE OF ISSUE": "20/10/2020", "DATE OF COMPLETION": "17/12/2021", "STATUS": "1", "ADDRESS": "82 Stafford St" }, "geometry": { "type": "Point", "coordinates": [ -79.41162116, 43.6439236 ] } },
{ "type": "Feature", "properties": { "PERMIT ID": "20 179881 BLD", "DATE OF ISSUE": "19/10/2020", "DATE OF COMPLETION": "15/2/2022", "STATUS": "1", "ADDRESS": "5 Mariposa Ave" }, "geometry": { "type": "Point", "coordinates": [ -79.48978975, 43.66820694 ] } },
{ "type": "Feature", "properties": { "PERMIT ID": "20 180122 BLD", "DATE OF ISSUE": "1/2/2021", "DATE OF COMPLETION": "30/6/2022", "STATUS": "1", "ADDRESS": "531 Delaware Ave N" }, "geometry": { "type": "Point", "coordinates": [ -79.43198241, 43.67185185 ] } },
{ "type": "Feature", "properties": { "PERMIT ID": "20 185670 BLD", "DATE OF ISSUE": "6/7/2021", "DATE OF COMPLETION": "5/1/2023", "STATUS": "1", "ADDRESS": "104 Pembroke St" }, "geometry": { "type": "Point", "coordinates": [ -79.37331304, 43.6598666 ] } },
{ "type": "Feature", "properties": { "PERMIT ID": "20 187892 BLD", "DATE OF ISSUE": "14/10/2020", "DATE OF COMPLETION": "29/6/2021", "STATUS": "1", "ADDRESS": "54 Dewhurst Blvd" }, "geometry": { "type": "Point", "coordinates": [ -79.34028395, 43.681522 ] } },
{ "type": "Feature", "properties": { "PERMIT ID": "20 195590 BLD", "DATE OF ISSUE": "20/10/2020", "DATE OF COMPLETION": "25/8/2021", "STATUS": "1", "ADDRESS": "19 Kenwood Ave" }, "geometry": { "type": "Point", "coordinates": [ -79.4219505, 43.68327828 ] } },
{ "type": "Feature", "properties": { "PERMIT ID": "20 195738 BLD", "DATE OF ISSUE": "30/3/2021", "DATE OF COMPLETION": "3/8/2022", "STATUS": "1", "ADDRESS": "94 Helena Ave" }, "geometry": { "type": "Point", "coordinates": [ -79.42160001, 43.68037642 ] } },
{ "type": "Feature", "properties": { "PERMIT ID": "20 196282 BLD", "DATE OF ISSUE": "31/3/2021", "DATE OF COMPLETION": "3/8/2022", "STATUS": "1", "ADDRESS": "96 Helena Ave" }, "geometry": { "type": "Point", "coordinates": [ -79.42166524, 43.68036827 ] } },
{ "type": "Feature", "properties": { "PERMIT ID": "20 196379 BLD", "DATE OF ISSUE": "17/11/2020", "DATE OF COMPLETION": "21/9/2022", "STATUS": "1", "ADDRESS": "58 Beaconsfield Ave" }, "geometry": { "type": "Point", "coordinates": [ -79.42587849, 43.64509783 ] } },
{ "type": "Feature", "properties": { "PERMIT ID": "20 197182 BLD", "DATE OF ISSUE": "29/10/2020", "DATE OF COMPLETION": "19/7/2021", "STATUS": "1", "ADDRESS": "111 Woodfield Rd" }, "geometry": { "type": "Point", "coordinates": [ -79.32180215, 43.66716125 ] } },
{ "type": "Feature", "properties": { "PERMIT ID": "20 200235 BLD", "DATE OF ISSUE": "13/1/2021", "DATE OF COMPLETION": "2/4/2024", "STATUS": "1", "ADDRESS": "2378 Gerrard St E" }, "geometry": { "type": "Point", "coordinates": [ -79.29102876, 43.68614737 ] } },
{ "type": "Feature", "properties": { "PERMIT ID": "20 201736 BLD", "DATE OF ISSUE": "6/11/2020", "DATE OF COMPLETION": "5/8/2021", "STATUS": "1", "ADDRESS": "658 Old Weston Rd" }, "geometry": { "type": "Point", "coordinates": [ -79.46586509, 43.67967216 ] } },
{ "type": "Feature", "properties": { "PERMIT ID": "20 204168 BLD", "DATE OF ISSUE": "6/1/2021", "DATE OF COMPLETION": "20/9/2021", "STATUS": "1", "ADDRESS": "106 Lappin Ave" }, "geometry": { "type": "Point", "coordinates": [ -79.44240506, 43.66576145 ] } },
{ "type": "Feature", "properties": { "PERMIT ID": "20 206333 BLD", "DATE OF ISSUE": "14/9/2021", "DATE OF COMPLETION": "28/11/2022", "STATUS": "1", "ADDRESS": "39 Summerhill Ave" }, "geometry": { "type": "Point", "coordinates": [ -79.39021107, 43.68331173 ] } },
{ "type": "Feature", "properties": { "PERMIT ID": "20 209706 BLD", "DATE OF ISSUE": "15/7/2021", "DATE OF COMPLETION": "28/6/2023", "STATUS": "1", "ADDRESS": "82 Borden St" }, "geometry": { "type": "Point", "coordinates": [ -79.40638925, 43.65910147 ] } },
{ "type": "Feature", "properties": { "PERMIT ID": "20 211623 BLD", "DATE OF ISSUE": "3/3/2021", "DATE OF COMPLETION": "15/9/2023", "STATUS": "1", "ADDRESS": "197 Beech Ave" }, "geometry": { "type": "Point", "coordinates": [ -79.2886554, 43.67586825 ] } },
{ "type": "Feature", "properties": { "PERMIT ID": "20 213993 BLD", "DATE OF ISSUE": "13/4/2021", "DATE OF COMPLETION": "12/10/2022", "STATUS": "1", "ADDRESS": "275 Rusholme Rd" }, "geometry": { "type": "Point", "coordinates": [ -79.42980131, 43.65814159 ] } },
{ "type": "Feature", "properties": { "PERMIT ID": "20 214211 BLD", "DATE OF ISSUE": "29/3/2021", "DATE OF COMPLETION": "17/11/2021", "STATUS": "1", "ADDRESS": "75 Woodycrest Ave" }, "geometry": { "type": "Point", "coordinates": [ -79.34254821, 43.6824322 ] } },
{ "type": "Feature", "properties": { "PERMIT ID": "20 215200 BLD", "DATE OF ISSUE": "26/1/2021", "DATE OF COMPLETION": "10/11/2023", "STATUS": "1", "ADDRESS": "581 Crawford St" }, "geometry": { "type": "Point", "coordinates": [ -79.42062797, 43.65977938 ] } },
{ "type": "Feature", "properties": { "PERMIT ID": "20 224645 BLD", "DATE OF ISSUE": "14/12/2020", "DATE OF COMPLETION": "1/12/2023", "STATUS": "1", "ADDRESS": "654 Old Weston Rd" }, "geometry": { "type": "Point", "coordinates": [ -79.46575013, 43.67956699 ] } },
{ "type": "Feature", "properties": { "PERMIT ID": "20 225601 BLD", "DATE OF ISSUE": "12/3/2021", "DATE OF COMPLETION": "20/6/2022", "STATUS": "1", "ADDRESS": "254 Carlton St" }, "geometry": { "type": "Point", "coordinates": [ -79.36750209, 43.66509357 ] } },
{ "type": "Feature", "properties": { "PERMIT ID": "20 233960 BLD", "DATE OF ISSUE": "9/3/2021", "DATE OF COMPLETION": "26/2/2024", "STATUS": "1", "ADDRESS": "94 Dovercourt Rd" }, "geometry": { "type": "Point", "coordinates": [ -79.42239696, 43.64277635 ] } },
{ "type": "Feature", "properties": { "PERMIT ID": "21 104148 BLD", "DATE OF ISSUE": "19/7/2021", "DATE OF COMPLETION": "21/10/2022", "STATUS": "1", "ADDRESS": "263 Pape Ave" }, "geometry": { "type": "Point", "coordinates": [ -79.33945842, 43.6662778 ] } },
{ "type": "Feature", "properties": { "PERMIT ID": "21 113763 BLD", "DATE OF ISSUE": "7/6/2021", "DATE OF COMPLETION": "6/4/2023", "STATUS": "1", "ADDRESS": "200 Heward Ave" }, "geometry": { "type": "Point", "coordinates": [ -79.33892778, 43.6607833 ] } },
{ "type": "Feature", "properties": { "PERMIT ID": "21 116024 BLD", "DATE OF ISSUE": "11/3/2021", "DATE OF COMPLETION": "7/3/2022", "STATUS": "1", "ADDRESS": "30 Salem Ave" }, "geometry": { "type": "Point", "coordinates": [ -79.43237263, 43.66166654 ] } },
{ "type": "Feature", "properties": { "PERMIT ID": "21 119216 BLD", "DATE OF ISSUE": "15/10/2021", "DATE OF COMPLETION": "1/3/2024", "STATUS": "1", "ADDRESS": "84 Ulster St" }, "geometry": { "type": "Point", "coordinates": [ -79.40770997, 43.66021354 ] } },
{ "type": "Feature", "properties": { "PERMIT ID": "21 120409 BLD", "DATE OF ISSUE": "19/4/2021", "DATE OF COMPLETION": "16/8/2022", "STATUS": "1", "ADDRESS": "85 Ravina Cres" }, "geometry": { "type": "Point", "coordinates": [ -79.33883722, 43.67901548 ] } },
{ "type": "Feature", "properties": { "PERMIT ID": "21 120719 BLD", "DATE OF ISSUE": "16/7/2021", "DATE OF COMPLETION": "9/3/2023", "STATUS": "1", "ADDRESS": "82 Major St" }, "geometry": { "type": "Point", "coordinates": [ -79.4042325, 43.66040225 ] } },
{ "type": "Feature", "properties": { "PERMIT ID": "21 120957 BLD", "DATE OF ISSUE": "25/3/2021", "DATE OF COMPLETION": "23/12/2021", "STATUS": "1", "ADDRESS": "144 Ascot Ave" }, "geometry": { "type": "Point", "coordinates": [ -79.45004296, 43.67900596 ] } },
{ "type": "Feature", "properties": { "PERMIT ID": "21 122483 BLD", "DATE OF ISSUE": "29/3/2021", "DATE OF COMPLETION": "7/2/2024", "STATUS": "1", "ADDRESS": "297 Withrow Ave" }, "geometry": { "type": "Point", "coordinates": [ -79.34055653, 43.67229651 ] } },
{ "type": "Feature", "properties": { "PERMIT ID": "21 124725 BLD", "DATE OF ISSUE": "30/3/2021", "DATE OF COMPLETION": "20/7/2023", "STATUS": "1", "ADDRESS": "52 Follis Ave" }, "geometry": { "type": "Point", "coordinates": [ -79.41507486, 43.66934041 ] } },
{ "type": "Feature", "properties": { "PERMIT ID": "21 125186 BLD", "DATE OF ISSUE": "16/4/2021", "DATE OF COMPLETION": "26/5/2023", "STATUS": "1", "ADDRESS": "11 Shudell Ave" }, "geometry": { "type": "Point", "coordinates": [ -79.33715711, 43.67515427 ] } },
{ "type": "Feature", "properties": { "PERMIT ID": "21 127231 BLD", "DATE OF ISSUE": "14/6/2021", "DATE OF COMPLETION": "30/4/2024", "STATUS": "1", "ADDRESS": "58 Kenwood Ave" }, "geometry": { "type": "Point", "coordinates": [ -79.4229917, 43.68438892 ] } },
{ "type": "Feature", "properties": { "PERMIT ID": "21 128247 BLD", "DATE OF ISSUE": "7/5/2021", "DATE OF COMPLETION": "6/6/2023", "STATUS": "1", "ADDRESS": "158 Randolph Rd" }, "geometry": { "type": "Point", "coordinates": [ -79.36379043, 43.70708871 ] } },
{ "type": "Feature", "properties": { "PERMIT ID": "21 129422 BLD", "DATE OF ISSUE": "10/5/2021", "DATE OF COMPLETION": "10/1/2022", "STATUS": "1", "ADDRESS": "11 Merrill Ave W" }, "geometry": { "type": "Point", "coordinates": [ -79.31618476, 43.68201602 ] } },
{ "type": "Feature", "properties": { "PERMIT ID": "21 132437 BLD", "DATE OF ISSUE": "16/6/2021", "DATE OF COMPLETION": "12/12/2023", "STATUS": "1", "ADDRESS": "997 Dufferin St" }, "geometry": { "type": "Point", "coordinates": [ -79.43484464, 43.65923406 ] } },
{ "type": "Feature", "properties": { "PERMIT ID": "21 134057 BLD", "DATE OF ISSUE": "25/10/2021", "DATE OF COMPLETION": "10/5/2024", "STATUS": "1", "ADDRESS": "12 Batavia Ave" }, "geometry": { "type": "Point", "coordinates": [ -79.48892952, 43.6685293 ] } },
{ "type": "Feature", "properties": { "PERMIT ID": "21 135210 BLD", "DATE OF ISSUE": "5/5/2021", "DATE OF COMPLETION": "17/10/2022", "STATUS": "1", "ADDRESS": "124 Geoffrey St" }, "geometry": { "type": "Point", "coordinates": [ -79.44915211, 43.64836035 ] } },
{ "type": "Feature", "properties": { "PERMIT ID": "21 135543 BLD", "DATE OF ISSUE": "20/5/2021", "DATE OF COMPLETION": "30/1/2023", "STATUS": "1", "ADDRESS": "281A Osler St" }, "geometry": { "type": "Point", "coordinates": [ -79.45965409, 43.67137761 ] } },
{ "type": "Feature", "properties": { "PERMIT ID": "21 137795 BLD", "DATE OF ISSUE": "21/7/2021", "DATE OF COMPLETION": "23/8/2023", "STATUS": "1", "ADDRESS": "388 Wellesley St E" }, "geometry": { "type": "Point", "coordinates": [ -79.36607892, 43.66918134 ] } },
{ "type": "Feature", "properties": { "PERMIT ID": "21 140031 BLD", "DATE OF ISSUE": "19/8/2021", "DATE OF COMPLETION": "2/11/2023", "STATUS": "1", "ADDRESS": "19 Grange Ave" }, "geometry": { "type": "Point", "coordinates": [ -79.39439175, 43.65238192 ] } },
{ "type": "Feature", "properties": { "PERMIT ID": "21 140335 BLD", "DATE OF ISSUE": "5/7/2021", "DATE OF COMPLETION": "17/5/2023", "STATUS": "1", "ADDRESS": "41 Dunkirk Rd" }, "geometry": { "type": "Point", "coordinates": [ -79.3202696, 43.69227342 ] } },
{ "type": "Feature", "properties": { "PERMIT ID": "21 145305 BLD", "DATE OF ISSUE": "31/5/2021", "DATE OF COMPLETION": "4/1/2022", "STATUS": "1", "ADDRESS": "160 Bartlett Ave" }, "geometry": { "type": "Point", "coordinates": [ -79.43506824, 43.66498943 ] } },
{ "type": "Feature", "properties": { "PERMIT ID": "21 147550 BLD", "DATE OF ISSUE": "2/9/2021", "DATE OF COMPLETION": "9/2/2023", "STATUS": "1", "ADDRESS": "29 Grace St" }, "geometry": { "type": "Point", "coordinates": [ -79.41410231, 43.65170785 ] } },
{ "type": "Feature", "properties": { "PERMIT ID": "21 148896 BLD", "DATE OF ISSUE": "17/9/2021", "DATE OF COMPLETION": "14/4/2022", "STATUS": "1", "ADDRESS": "47 Lewis St" }, "geometry": { "type": "Point", "coordinates": [ -79.34779143, 43.65780268 ] } },
{ "type": "Feature", "properties": { "PERMIT ID": "21 150593 BLD", "DATE OF ISSUE": "16/8/2021", "DATE OF COMPLETION": "26/8/2022", "STATUS": "1", "ADDRESS": "161 Lisgar St" }, "geometry": { "type": "Point", "coordinates": [ -79.4241507, 43.64512367 ] } },
{ "type": "Feature", "properties": { "PERMIT ID": "21 151133 BLD", "DATE OF ISSUE": "15/6/2021", "DATE OF COMPLETION": "30/1/2024", "STATUS": "1", "ADDRESS": "60 Jones Ave" }, "geometry": { "type": "Point", "coordinates": [ -79.33370708, 43.66412196 ] } },
{ "type": "Feature", "properties": { "PERMIT ID": "21 152228 BLD", "DATE OF ISSUE": "30/11/2022", "DATE OF COMPLETION": "12/7/2024", "STATUS": "1", "ADDRESS": "8 Boon Ave" }, "geometry": { "type": "Point", "coordinates": [ -79.44670865, 43.67774533 ] } },
{ "type": "Feature", "properties": { "PERMIT ID": "21 154741 BLD", "DATE OF ISSUE": "20/9/2021", "DATE OF COMPLETION": "5/10/2022", "STATUS": "1", "ADDRESS": "15 Trowell Ave" }, "geometry": { "type": "Point", "coordinates": [ -79.4675941, 43.68691332 ] } },
{ "type": "Feature", "properties": { "PERMIT ID": "21 154897 BLD", "DATE OF ISSUE": "15/6/2021", "DATE OF COMPLETION": "19/12/2022", "STATUS": "1", "ADDRESS": "217 Christie St" }, "geometry": { "type": "Point", "coordinates": [ -79.42040929, 43.66919837 ] } },
{ "type": "Feature", "properties": { "PERMIT ID": "21 155265 BLD", "DATE OF ISSUE": "2/6/2021", "DATE OF COMPLETION": "8/12/2022", "STATUS": "1", "ADDRESS": "96 Wiltshire Ave" }, "geometry": { "type": "Point", "coordinates": [ -79.45210412, 43.67026273 ] } },
{ "type": "Feature", "properties": { "PERMIT ID": "21 156117 BLD", "DATE OF ISSUE": "14/7/2021", "DATE OF COMPLETION": "4/8/2022", "STATUS": "1", "ADDRESS": "165 Wychwood Ave" }, "geometry": { "type": "Point", "coordinates": [ -79.42323798, 43.68304274 ] } },
{ "type": "Feature", "properties": { "PERMIT ID": "21 162235 BLD", "DATE OF ISSUE": "1/3/2022", "DATE OF COMPLETION": "24/11/2023", "STATUS": "1", "ADDRESS": "28 Prust Ave" }, "geometry": { "type": "Point", "coordinates": [ -79.33134629, 43.67143212 ] } },
{ "type": "Feature", "properties": { "PERMIT ID": "21 164018 BLD", "DATE OF ISSUE": "27/10/2021", "DATE OF COMPLETION": "29/6/2022", "STATUS": "1", "ADDRESS": "398 Westmoreland Ave N" }, "geometry": { "type": "Point", "coordinates": [ -79.43537509, 43.67233255 ] } },
{ "type": "Feature", "properties": { "PERMIT ID": "21 164284 BLD", "DATE OF ISSUE": "3/12/2021", "DATE OF COMPLETION": "29/9/2023", "STATUS": "1", "ADDRESS": "431 Bathurst St" }, "geometry": { "type": "Point", "coordinates": [ -79.40676462, 43.65477267 ] } },
{ "type": "Feature", "properties": { "PERMIT ID": "21 166082 BLD", "DATE OF ISSUE": "5/8/2021", "DATE OF COMPLETION": "18/10/2022", "STATUS": "1", "ADDRESS": "457 Euclid Ave" }, "geometry": { "type": "Point", "coordinates": [ -79.41176957, 43.6573341 ] } },
{ "type": "Feature", "properties": { "PERMIT ID": "21 168282 BLD", "DATE OF ISSUE": "22/9/2021", "DATE OF COMPLETION": "16/9/2022", "STATUS": "1", "ADDRESS": "201 Pickering St" }, "geometry": { "type": "Point", "coordinates": [ -79.29151179, 43.68472293 ] } },
{ "type": "Feature", "properties": { "PERMIT ID": "21 168828 BLD", "DATE OF ISSUE": "15/7/2021", "DATE OF COMPLETION": "31/5/2022", "STATUS": "1", "ADDRESS": "119 Hallam St" }, "geometry": { "type": "Point", "coordinates": [ -79.43107846, 43.66713006 ] } },
{ "type": "Feature", "properties": { "PERMIT ID": "21 168985 BLD", "DATE OF ISSUE": "30/3/2022", "DATE OF COMPLETION": "7/7/2023", "STATUS": "1", "ADDRESS": "6 Bain Ave" }, "geometry": { "type": "Point", "coordinates": [ -79.35318058, 43.67086371 ] } },
{ "type": "Feature", "properties": { "PERMIT ID": "21 169109 BLD", "DATE OF ISSUE": "8/7/2021", "DATE OF COMPLETION": "23/6/2023", "STATUS": "1", "ADDRESS": "721 Windermere Ave" }, "geometry": { "type": "Point", "coordinates": [ -79.48339161, 43.65868978 ] } },
{ "type": "Feature", "properties": { "PERMIT ID": "21 171303 BLD", "DATE OF ISSUE": "19/7/2021", "DATE OF COMPLETION": "9/12/2022", "STATUS": "1", "ADDRESS": "436 Clinton St" }, "geometry": { "type": "Point", "coordinates": [ -79.41821945, 43.66582577 ] } },
{ "type": "Feature", "properties": { "PERMIT ID": "21 174609 BLD", "DATE OF ISSUE": "2/9/2021", "DATE OF COMPLETION": "5/9/2023", "STATUS": "1", "ADDRESS": "32 Woburn Ave" }, "geometry": { "type": "Point", "coordinates": [ -79.40441256, 43.72826967 ] } },
{ "type": "Feature", "properties": { "PERMIT ID": "21 180066 BLD", "DATE OF ISSUE": "17/8/2021", "DATE OF COMPLETION": "27/10/2022", "STATUS": "1", "ADDRESS": "529 Palmerston Blvd" }, "geometry": { "type": "Point", "coordinates": [ -79.41305643, 43.66381021 ] } },
{ "type": "Feature", "properties": { "PERMIT ID": "21 182295 BLD", "DATE OF ISSUE": "29/7/2021", "DATE OF COMPLETION": "21/10/2022", "STATUS": "1", "ADDRESS": "78 Alcina Ave" }, "geometry": { "type": "Point", "coordinates": [ -79.42055877, 43.6795633 ] } },
{ "type": "Feature", "properties": { "PERMIT ID": "21 184061 BLD", "DATE OF ISSUE": "8/11/2021", "DATE OF COMPLETION": "10/3/2022", "STATUS": "1", "ADDRESS": "189 Booth Ave" }, "geometry": { "type": "Point", "coordinates": [ -79.3431733, 43.65981561 ] } },
{ "type": "Feature", "properties": { "PERMIT ID": "21 184268 BLD", "DATE OF ISSUE": "31/8/2021", "DATE OF COMPLETION": "19/5/2022", "STATUS": "1", "ADDRESS": "229 Manor Rd E" }, "geometry": { "type": "Point", "coordinates": [ -79.3878262, 43.70425776 ] } },
{ "type": "Feature", "properties": { "PERMIT ID": "21 184922 BLD", "DATE OF ISSUE": "3/8/2021", "DATE OF COMPLETION": "28/3/2023", "STATUS": "1", "ADDRESS": "15 Hector Ave" }, "geometry": { "type": "Point", "coordinates": [ -79.42353383, 43.67463817 ] } },
{ "type": "Feature", "properties": { "PERMIT ID": "21 185026 BLD", "DATE OF ISSUE": "5/10/2021", "DATE OF COMPLETION": "12/2/2024", "STATUS": "1", "ADDRESS": "259 Donlands Ave" }, "geometry": { "type": "Point", "coordinates": [ -79.34018477, 43.68814235 ] } },
{ "type": "Feature", "properties": { "PERMIT ID": "21 189446 BLD", "DATE OF ISSUE": "8/11/2021", "DATE OF COMPLETION": "23/1/2023", "STATUS": "1", "ADDRESS": "80 Prescott Ave" }, "geometry": { "type": "Point", "coordinates": [ -79.45825136, 43.6768613 ] } },
{ "type": "Feature", "properties": { "PERMIT ID": "21 194550 BLD", "DATE OF ISSUE": "8/9/2021", "DATE OF COMPLETION": "5/6/2024", "STATUS": "1", "ADDRESS": "189A Concord Ave" }, "geometry": { "type": "Point", "coordinates": [ -79.42558396, 43.65908938 ] } },
{ "type": "Feature", "properties": { "PERMIT ID": "21 194808 BLD", "DATE OF ISSUE": "13/9/2021", "DATE OF COMPLETION": "14/7/2023", "STATUS": "1", "ADDRESS": "17 Slade Ave" }, "geometry": { "type": "Point", "coordinates": [ -79.42322745, 43.67904027 ] } },
{ "type": "Feature", "properties": { "PERMIT ID": "21 195929 BLD", "DATE OF ISSUE": "4/11/2021", "DATE OF COMPLETION": "1/8/2023", "STATUS": "1", "ADDRESS": "11 Rushbrooke Ave" }, "geometry": { "type": "Point", "coordinates": [ -79.33115348, 43.66067232 ] } },
{ "type": "Feature", "properties": { "PERMIT ID": "21 197266 BLD", "DATE OF ISSUE": "26/10/2021", "DATE OF COMPLETION": "12/1/2023", "STATUS": "1", "ADDRESS": "11 Rose Ave" }, "geometry": { "type": "Point", "coordinates": [ -79.36977381, 43.66600979 ] } },
{ "type": "Feature", "properties": { "PERMIT ID": "21 199432 BLD", "DATE OF ISSUE": "30/8/2021", "DATE OF COMPLETION": "3/5/2024", "STATUS": "1", "ADDRESS": "1402 Dufferin St" }, "geometry": { "type": "Point", "coordinates": [ -79.44001034, 43.67022023 ] } },
{ "type": "Feature", "properties": { "PERMIT ID": "21 199435 BLD", "DATE OF ISSUE": "30/8/2021", "DATE OF COMPLETION": "3/5/2024", "STATUS": "1", "ADDRESS": "1404 Dufferin St" }, "geometry": { "type": "Point", "coordinates": [ -79.44002727, 43.67025767 ] } },
{ "type": "Feature", "properties": { "PERMIT ID": "21 199441 BLD", "DATE OF ISSUE": "17/2/2022", "DATE OF COMPLETION": "3/5/2024", "STATUS": "1", "ADDRESS": "1406 Dufferin St" }, "geometry": { "type": "Point", "coordinates": [ -79.44006445, 43.67028875 ] } },
{ "type": "Feature", "properties": { "PERMIT ID": "21 199878 BLD", "DATE OF ISSUE": "15/9/2021", "DATE OF COMPLETION": "22/12/2023", "STATUS": "1", "ADDRESS": "393 Palmerston Blvd" }, "geometry": { "type": "Point", "coordinates": [ -79.41114582, 43.65909968 ] } },
{ "type": "Feature", "properties": { "PERMIT ID": "21 201454 BLD", "DATE OF ISSUE": "9/3/2022", "DATE OF COMPLETION": "7/9/2023", "STATUS": "1", "ADDRESS": "12 Chester Ave" }, "geometry": { "type": "Point", "coordinates": [ -79.3524382, 43.6779554 ] } },
{ "type": "Feature", "properties": { "PERMIT ID": "21 203532 BLD", "DATE OF ISSUE": "6/12/2021", "DATE OF COMPLETION": "16/1/2023", "STATUS": "1", "ADDRESS": "147 Denison Ave" }, "geometry": { "type": "Point", "coordinates": [ -79.40226357, 43.652663 ] } },
{ "type": "Feature", "properties": { "PERMIT ID": "21 204362 BLD", "DATE OF ISSUE": "16/9/2021", "DATE OF COMPLETION": "11/12/2022", "STATUS": "1", "ADDRESS": "108 Moberly Ave" }, "geometry": { "type": "Point", "coordinates": [ -79.31416538, 43.68492292 ] } },
{ "type": "Feature", "properties": { "PERMIT ID": "21 205021 BLD", "DATE OF ISSUE": "6/10/2021", "DATE OF COMPLETION": "21/3/2023", "STATUS": "1", "ADDRESS": "165 Manning Ave" }, "geometry": { "type": "Point", "coordinates": [ -79.41034224, 43.65043746 ] } },
{ "type": "Feature", "properties": { "PERMIT ID": "21 205593 BLD", "DATE OF ISSUE": "13/10/2021", "DATE OF COMPLETION": "5/5/2023", "STATUS": "1", "ADDRESS": "630 Brock Ave" }, "geometry": { "type": "Point", "coordinates": [ -79.4391945, 43.65996433 ] } },
{ "type": "Feature", "properties": { "PERMIT ID": "21 206729 BLD", "DATE OF ISSUE": "4/10/2021", "DATE OF COMPLETION": "21/11/2022", "STATUS": "1", "ADDRESS": "31 Cavell Ave" }, "geometry": { "type": "Point", "coordinates": [ -79.34467736, 43.67625044 ] } },
{ "type": "Feature", "properties": { "PERMIT ID": "21 209366 BLD", "DATE OF ISSUE": "21/3/2022", "DATE OF COMPLETION": "18/4/2023", "STATUS": "1", "ADDRESS": "367 Howland Ave" }, "geometry": { "type": "Point", "coordinates": [ -79.41297437, 43.67629492 ] } },
{ "type": "Feature", "properties": { "PERMIT ID": "21 209376 BLD", "DATE OF ISSUE": "28/3/2022", "DATE OF COMPLETION": "18/4/2023", "STATUS": "1", "ADDRESS": "369 Howland Ave" }, "geometry": { "type": "Point", "coordinates": [ -79.41299122, 43.67633582 ] } },
{ "type": "Feature", "properties": { "PERMIT ID": "21 209999 BLD", "DATE OF ISSUE": "19/4/2022", "DATE OF COMPLETION": "13/6/2023", "STATUS": "1", "ADDRESS": "161 Logan Ave" }, "geometry": { "type": "Point", "coordinates": [ -79.34141014, 43.65836966 ] } },
{ "type": "Feature", "properties": { "PERMIT ID": "21 210057 BLD", "DATE OF ISSUE": "19/4/2022", "DATE OF COMPLETION": "13/6/2023", "STATUS": "1", "ADDRESS": "159 Logan Ave" }, "geometry": { "type": "Point", "coordinates": [ -79.34137475, 43.65835662 ] } },
{ "type": "Feature", "properties": { "PERMIT ID": "21 212358 BLD", "DATE OF ISSUE": "1/10/2021", "DATE OF COMPLETION": "7/11/2022", "STATUS": "1", "ADDRESS": "78 Campbell Ave" }, "geometry": { "type": "Point", "coordinates": [ -79.44765269, 43.65904124 ] } },
{ "type": "Feature", "properties": { "PERMIT ID": "21 214146 BLD", "DATE OF ISSUE": "8/11/2021", "DATE OF COMPLETION": "24/3/2023", "STATUS": "1", "ADDRESS": "48 Lanark Ave" }, "geometry": { "type": "Point", "coordinates": [ -79.44152504, 43.69685869 ] } },
{ "type": "Feature", "properties": { "PERMIT ID": "21 215845 BLD", "DATE OF ISSUE": "20/12/2021", "DATE OF COMPLETION": "15/3/2024", "STATUS": "1", "ADDRESS": "626 Old Weston Rd" }, "geometry": { "type": "Point", "coordinates": [ -79.46538089, 43.6790068 ] } },
{ "type": "Feature", "properties": { "PERMIT ID": "21 217109 BLD", "DATE OF ISSUE": "22/12/2021", "DATE OF COMPLETION": "15/3/2024", "STATUS": "1", "ADDRESS": "628 Old Weston Rd" }, "geometry": { "type": "Point", "coordinates": [ -79.46542498, 43.67906934 ] } },
{ "type": "Feature", "properties": { "PERMIT ID": "21 217331 BLD", "DATE OF ISSUE": "2/12/2021", "DATE OF COMPLETION": "14/12/2022", "STATUS": "1", "ADDRESS": "12 Neepawa Ave" }, "geometry": { "type": "Point", "coordinates": [ -79.44997917, 43.65070086 ] } },
{ "type": "Feature", "properties": { "PERMIT ID": "21 219868 BLD", "DATE OF ISSUE": "14/3/2022", "DATE OF COMPLETION": "21/7/2023", "STATUS": "1", "ADDRESS": "102 Morse St" }, "geometry": { "type": "Point", "coordinates": [ -79.34019833, 43.65737293 ] } },
{ "type": "Feature", "properties": { "PERMIT ID": "21 221005 BLD", "DATE OF ISSUE": "4/2/2022", "DATE OF COMPLETION": "30/3/2023", "STATUS": "1", "ADDRESS": "254 Riverdale Ave" }, "geometry": { "type": "Point", "coordinates": [ -79.34311349, 43.67119353 ] } },
{ "type": "Feature", "properties": { "PERMIT ID": "21 227869 BLD", "DATE OF ISSUE": "11/4/2022", "DATE OF COMPLETION": "22/8/2023", "STATUS": "1", "ADDRESS": "64 Langford Ave" }, "geometry": { "type": "Point", "coordinates": [ -79.34152253, 43.68145087 ] } },
{ "type": "Feature", "properties": { "PERMIT ID": "21 229179 BLD", "DATE OF ISSUE": "10/6/2022", "DATE OF COMPLETION": "2/5/2024", "STATUS": "1", "ADDRESS": "607 Jane St" }, "geometry": { "type": "Point", "coordinates": [ -79.49072228, 43.66518409 ] } },
{ "type": "Feature", "properties": { "PERMIT ID": "21 229928 BLD", "DATE OF ISSUE": "11/3/2022", "DATE OF COMPLETION": "22/11/2023", "STATUS": "1", "ADDRESS": "138 Yarmouth Rd" }, "geometry": { "type": "Point", "coordinates": [ -79.42456631, 43.66945889 ] } },
{ "type": "Feature", "properties": { "PERMIT ID": "21 231700 BLD", "DATE OF ISSUE": "5/4/2022", "DATE OF COMPLETION": "3/8/2023", "STATUS": "1", "ADDRESS": "639 Huron St" }, "geometry": { "type": "Point", "coordinates": [ -79.40413348, 43.67441885 ] } },
{ "type": "Feature", "properties": { "PERMIT ID": "21 234825 BLD", "DATE OF ISSUE": "31/3/2022", "DATE OF COMPLETION": "26/9/2023", "STATUS": "1", "ADDRESS": "2137 Gerrard St E" }, "geometry": { "type": "Point", "coordinates": [ -79.30402858, 43.68292954 ] } },
{ "type": "Feature", "properties": { "PERMIT ID": "21 234946 BLD", "DATE OF ISSUE": "1/4/2022", "DATE OF COMPLETION": "25/9/2023", "STATUS": "1", "ADDRESS": "2133 Gerrard St E" }, "geometry": { "type": "Point", "coordinates": [ -79.30418315, 43.68291012 ] } },
{ "type": "Feature", "properties": { "PERMIT ID": "21 235351 BLD", "DATE OF ISSUE": "24/1/2023", "DATE OF COMPLETION": "15/2/2024", "STATUS": "1", "ADDRESS": "33 Salem Ave" }, "geometry": { "type": "Point", "coordinates": [ -79.43178294, 43.66167689 ] } },
{ "type": "Feature", "properties": { "PERMIT ID": "21 236311 BLD", "DATE OF ISSUE": "6/12/2021", "DATE OF COMPLETION": "26/3/2024", "STATUS": "1", "ADDRESS": "140 Bartlett Ave" }, "geometry": { "type": "Point", "coordinates": [ -79.43486018, 43.66446034 ] } },
{ "type": "Feature", "properties": { "PERMIT ID": "21 237469 BLD", "DATE OF ISSUE": "31/12/2021", "DATE OF COMPLETION": "3/8/2023", "STATUS": "1", "ADDRESS": "210 Victor Ave" }, "geometry": { "type": "Point", "coordinates": [ -79.34448237, 43.66907383 ] } },
{ "type": "Feature", "properties": { "PERMIT ID": "21 237947 BLD", "DATE OF ISSUE": "5/7/2022", "DATE OF COMPLETION": "26/10/2023", "STATUS": "1", "ADDRESS": "43 McIntosh St" }, "geometry": { "type": "Point", "coordinates": [ -79.25387915, 43.70416106 ] } },
{ "type": "Feature", "properties": { "PERMIT ID": "21 238260 BLD", "DATE OF ISSUE": "22/3/2022", "DATE OF COMPLETION": "6/10/2023", "STATUS": "1", "ADDRESS": "2135 Gerrard St E" }, "geometry": { "type": "Point", "coordinates": [ -79.304095, 43.68291804 ] } },
{ "type": "Feature", "properties": { "PERMIT ID": "21 239037 BLD", "DATE OF ISSUE": "9/11/2022", "DATE OF COMPLETION": "16/11/2023", "STATUS": "1", "ADDRESS": "98 Wright Ave" }, "geometry": { "type": "Point", "coordinates": [ -79.44496418, 43.64635668 ] } },
{ "type": "Feature", "properties": { "PERMIT ID": "21 239668 BLD", "DATE OF ISSUE": "8/12/2021", "DATE OF COMPLETION": "24/5/2022", "STATUS": "1", "ADDRESS": "131 Brock Ave" }, "geometry": { "type": "Point", "coordinates": [ -79.43384341, 43.64583538 ] } },
{ "type": "Feature", "properties": { "PERMIT ID": "21 243859 BLD", "DATE OF ISSUE": "17/2/2022", "DATE OF COMPLETION": "2/3/2023", "STATUS": "1", "ADDRESS": "169 Concord Ave" }, "geometry": { "type": "Point", "coordinates": [ -79.42538041, 43.65855575 ] } },
{ "type": "Feature", "properties": { "PERMIT ID": "21 248486 BLD", "DATE OF ISSUE": "14/4/2022", "DATE OF COMPLETION": "4/5/2023", "STATUS": "1", "ADDRESS": "18 Osborne Ave" }, "geometry": { "type": "Point", "coordinates": [ -79.2964735, 43.68186462 ] } },
{ "type": "Feature", "properties": { "PERMIT ID": "21 249621 BLD", "DATE OF ISSUE": "25/1/2022", "DATE OF COMPLETION": "6/1/2023", "STATUS": "1", "ADDRESS": "564 Beresford Ave" }, "geometry": { "type": "Point", "coordinates": [ -79.48202731, 43.66100739 ] } },
{ "type": "Feature", "properties": { "PERMIT ID": "21 249953 BLD", "DATE OF ISSUE": "6/1/2022", "DATE OF COMPLETION": "8/11/2023", "STATUS": "1", "ADDRESS": "200 Dovercourt Rd" }, "geometry": { "type": "Point", "coordinates": [ -79.42399224, 43.6468603 ] } },
{ "type": "Feature", "properties": { "PERMIT ID": "21 250938 BLD", "DATE OF ISSUE": "6/4/2022", "DATE OF COMPLETION": "22/2/2023", "STATUS": "1", "ADDRESS": "106 Wright Ave" }, "geometry": { "type": "Point", "coordinates": [ -79.44527051, 43.64630046 ] } },
{ "type": "Feature", "properties": { "PERMIT ID": "21 251609 BLD", "DATE OF ISSUE": "19/8/2022", "DATE OF COMPLETION": "5/10/2023", "STATUS": "1", "ADDRESS": "324 Old Weston Rd" }, "geometry": { "type": "Point", "coordinates": [ -79.46304922, 43.67282589 ] } },
{ "type": "Feature", "properties": { "PERMIT ID": "22 102414 BLD", "DATE OF ISSUE": "5/10/2022", "DATE OF COMPLETION": "17/11/2023", "STATUS": "1", "ADDRESS": "144 Dovercourt Rd" }, "geometry": { "type": "Point", "coordinates": [ -79.42320541, 43.64487744 ] } },
{ "type": "Feature", "properties": { "PERMIT ID": "22 102957 BLD", "DATE OF ISSUE": "11/5/2022", "DATE OF COMPLETION": "23/1/2023", "STATUS": "1", "ADDRESS": "148 Borden St" }, "geometry": { "type": "Point", "coordinates": [ -79.4069754, 43.6607405 ] } },
{ "type": "Feature", "properties": { "PERMIT ID": "22 104889 BLD", "DATE OF ISSUE": "8/6/2022", "DATE OF COMPLETION": "4/12/2023", "STATUS": "1", "ADDRESS": "93 Larchmount Ave" }, "geometry": { "type": "Point", "coordinates": [ -79.33383775, 43.66172647 ] } },
{ "type": "Feature", "properties": { "PERMIT ID": "22 105711 BLD", "DATE OF ISSUE": "28/2/2022", "DATE OF COMPLETION": "21/12/2023", "STATUS": "1", "ADDRESS": "71 Garden Ave" }, "geometry": { "type": "Point", "coordinates": [ -79.44358489, 43.64437579 ] } },
{ "type": "Feature", "properties": { "PERMIT ID": "22 111052 BLD", "DATE OF ISSUE": "12/9/2022", "DATE OF COMPLETION": "18/5/2023", "STATUS": "1", "ADDRESS": "456 Armadale Ave" }, "geometry": { "type": "Point", "coordinates": [ -79.48667004, 43.65681144 ] } },
{ "type": "Feature", "properties": { "PERMIT ID": "22 116923 BLD", "DATE OF ISSUE": "27/5/2022", "DATE OF COMPLETION": "8/12/2023", "STATUS": "1", "ADDRESS": "339 Boon Ave" }, "geometry": { "type": "Point", "coordinates": [ -79.44939025, 43.6857225 ] } },
{ "type": "Feature", "properties": { "PERMIT ID": "22 117907 BLD", "DATE OF ISSUE": "11/4/2022", "DATE OF COMPLETION": "2/11/2023", "STATUS": "1", "ADDRESS": "107 Geoffrey St" }, "geometry": { "type": "Point", "coordinates": [ -79.44892833, 43.64804396 ] } },
{ "type": "Feature", "properties": { "PERMIT ID": "22 119470 BLD", "DATE OF ISSUE": "12/5/2022", "DATE OF COMPLETION": "27/2/2024", "STATUS": "1", "ADDRESS": "37 Margueretta St" }, "geometry": { "type": "Point", "coordinates": [ -79.43710556, 43.65103502 ] } },
{ "type": "Feature", "properties": { "PERMIT ID": "22 119548 BLD", "DATE OF ISSUE": "21/3/2022", "DATE OF COMPLETION": "12/7/2023", "STATUS": "1", "ADDRESS": "1571 Dundas St E" }, "geometry": { "type": "Point", "coordinates": [ -79.3298267, 43.66697604 ] } },
{ "type": "Feature", "properties": { "PERMIT ID": "22 122924 BLD", "DATE OF ISSUE": "11/4/2022", "DATE OF COMPLETION": "28/4/2023", "STATUS": "1", "ADDRESS": "76 Symington Ave" }, "geometry": { "type": "Point", "coordinates": [ -79.4487724, 43.6591909 ] } },
{ "type": "Feature", "properties": { "PERMIT ID": "22 124870 BLD", "DATE OF ISSUE": "20/6/2022", "DATE OF COMPLETION": "3/5/2024", "STATUS": "1", "ADDRESS": "33 Lewis St" }, "geometry": { "type": "Point", "coordinates": [ -79.34769381, 43.65748338 ] } },
{ "type": "Feature", "properties": { "PERMIT ID": "22 127657 BLD", "DATE OF ISSUE": "27/5/2022", "DATE OF COMPLETION": "31/5/2023", "STATUS": "1", "ADDRESS": "297 Harvie Ave" }, "geometry": { "type": "Point", "coordinates": [ -79.45333887, 43.68565261 ] } },
{ "type": "Feature", "properties": { "PERMIT ID": "22 129016 BLD", "DATE OF ISSUE": "25/5/2022", "DATE OF COMPLETION": "8/6/2023", "STATUS": "1", "ADDRESS": "59 Bowden St" }, "geometry": { "type": "Point", "coordinates": [ -79.3536774, 43.67678048 ] } },
{ "type": "Feature", "properties": { "PERMIT ID": "22 138723 BLD", "DATE OF ISSUE": "9/5/2022", "DATE OF COMPLETION": "2/11/2023", "STATUS": "1", "ADDRESS": "329 Ryding Ave" }, "geometry": { "type": "Point", "coordinates": [ -79.48171418, 43.66806807 ] } },
{ "type": "Feature", "properties": { "PERMIT ID": "22 142405 BLD", "DATE OF ISSUE": "3/6/2022", "DATE OF COMPLETION": "16/8/2023", "STATUS": "1", "ADDRESS": "450 Roxton Rd" }, "geometry": { "type": "Point", "coordinates": [ -79.42366217, 43.65968724 ] } },
{ "type": "Feature", "properties": { "PERMIT ID": "22 143337 BLD", "DATE OF ISSUE": "5/10/2022", "DATE OF COMPLETION": "29/4/2024", "STATUS": "1", "ADDRESS": "754 Windermere Ave" }, "geometry": { "type": "Point", "coordinates": [ -79.48437191, 43.65967441 ] } },
{ "type": "Feature", "properties": { "PERMIT ID": "22 146413 BLD", "DATE OF ISSUE": "2/6/2022", "DATE OF COMPLETION": "22/6/2023", "STATUS": "1", "ADDRESS": "116 Day Ave" }, "geometry": { "type": "Point", "coordinates": [ -79.44787266, 43.68371809 ] } },
{ "type": "Feature", "properties": { "PERMIT ID": "22 149406 BLD", "DATE OF ISSUE": "16/6/2022", "DATE OF COMPLETION": "21/7/2023", "STATUS": "1", "ADDRESS": "99 Markham St" }, "geometry": { "type": "Point", "coordinates": [ -79.40634615, 43.65047448 ] } },
{ "type": "Feature", "properties": { "PERMIT ID": "22 149449 BLD", "DATE OF ISSUE": "18/4/2023", "DATE OF COMPLETION": "29/4/2024", "STATUS": "1", "ADDRESS": "199 Beech Ave" }, "geometry": { "type": "Point", "coordinates": [ -79.28868085, 43.67593005 ] } },
{ "type": "Feature", "properties": { "PERMIT ID": "22 154516 BLD", "DATE OF ISSUE": "16/8/2022", "DATE OF COMPLETION": "18/5/2023", "STATUS": "1", "ADDRESS": "174 Indian Grv" }, "geometry": { "type": "Point", "coordinates": [ -79.45966607, 43.6563204 ] } },
{ "type": "Feature", "properties": { "PERMIT ID": "22 155673 BLD", "DATE OF ISSUE": "4/10/2022", "DATE OF COMPLETION": "29/5/2023", "STATUS": "1", "ADDRESS": "65 Joseph St" }, "geometry": { "type": "Point", "coordinates": [ -79.51679985, 43.70623108 ] } },
{ "type": "Feature", "properties": { "PERMIT ID": "22 160421 BLD", "DATE OF ISSUE": "24/11/2022", "DATE OF COMPLETION": "3/2/2023", "STATUS": "1", "ADDRESS": "9 Hugo Ave" }, "geometry": { "type": "Point", "coordinates": [ -79.4535547, 43.66599428 ] } },
{ "type": "Feature", "properties": { "PERMIT ID": "22 162599 BLD", "DATE OF ISSUE": "3/8/2022", "DATE OF COMPLETION": "25/8/2023", "STATUS": "1", "ADDRESS": "95 Leslie St" }, "geometry": { "type": "Point", "coordinates": [ -79.33026068, 43.66391907 ] } },
{ "type": "Feature", "properties": { "PERMIT ID": "22 162630 BLD", "DATE OF ISSUE": "30/9/2022", "DATE OF COMPLETION": "8/5/2024", "STATUS": "1", "ADDRESS": "80 Marion St" }, "geometry": { "type": "Point", "coordinates": [ -79.44404745, 43.64192111 ] } },
{ "type": "Feature", "properties": { "PERMIT ID": "22 165549 BLD", "DATE OF ISSUE": "8/8/2022", "DATE OF COMPLETION": "14/11/2023", "STATUS": "1", "ADDRESS": "95 Hallam St" }, "geometry": { "type": "Point", "coordinates": [ -79.43003888, 43.6674036 ] } },
{ "type": "Feature", "properties": { "PERMIT ID": "22 165772 BLD", "DATE OF ISSUE": "26/8/2022", "DATE OF COMPLETION": "5/6/2023", "STATUS": "1", "ADDRESS": "78 Dovercourt Rd" }, "geometry": { "type": "Point", "coordinates": [ -79.42224752, 43.64248502 ] } },
{ "type": "Feature", "properties": { "PERMIT ID": "22 166881 BLD", "DATE OF ISSUE": "7/12/2022", "DATE OF COMPLETION": "25/9/2023", "STATUS": "1", "ADDRESS": "110A Boon Ave" }, "geometry": { "type": "Point", "coordinates": [ -79.44770106, 43.68004835 ] } },
{ "type": "Feature", "properties": { "PERMIT ID": "22 168096 BLD", "DATE OF ISSUE": "4/10/2022", "DATE OF COMPLETION": "9/5/2024", "STATUS": "1", "ADDRESS": "26 Glebeholme Blvd" }, "geometry": { "type": "Point", "coordinates": [ -79.33734198, 43.68329982 ] } },
{ "type": "Feature", "properties": { "PERMIT ID": "22 168693 BLD", "DATE OF ISSUE": "21/7/2022", "DATE OF COMPLETION": "5/2/2024", "STATUS": "1", "ADDRESS": "22 Hopedale Ave" }, "geometry": { "type": "Point", "coordinates": [ -79.35283266, 43.69368239 ] } },
{ "type": "Feature", "properties": { "PERMIT ID": "22 170676 BLD", "DATE OF ISSUE": "30/12/2022", "DATE OF COMPLETION": "27/5/2024", "STATUS": "1", "ADDRESS": "56 Glenlake Ave" }, "geometry": { "type": "Point", "coordinates": [ -79.45681235, 43.65950299 ] } },
{ "type": "Feature", "properties": { "PERMIT ID": "22 181065 BLD", "DATE OF ISSUE": "25/8/2022", "DATE OF COMPLETION": "9/5/2023", "STATUS": "1", "ADDRESS": "202 Glebemount Ave" }, "geometry": { "type": "Point", "coordinates": [ -79.32114153, 43.69180324 ] } },
{ "type": "Feature", "properties": { "PERMIT ID": "22 185762 BLD", "DATE OF ISSUE": "12/8/2022", "DATE OF COMPLETION": "6/11/2023", "STATUS": "1", "ADDRESS": "8 First Ave" }, "geometry": { "type": "Point", "coordinates": [ -79.35173382, 43.66496977 ] } },
{ "type": "Feature", "properties": { "PERMIT ID": "22 188076 BLD", "DATE OF ISSUE": "25/8/2022", "DATE OF COMPLETION": "23/11/2023", "STATUS": "1", "ADDRESS": "210 Palmerston Ave" }, "geometry": { "type": "Point", "coordinates": [ -79.40931595, 43.65317768 ] } },
{ "type": "Feature", "properties": { "PERMIT ID": "22 195369 BLD", "DATE OF ISSUE": "22/2/2023", "DATE OF COMPLETION": "20/11/2023", "STATUS": "1", "ADDRESS": "123 Havelock St" }, "geometry": { "type": "Point", "coordinates": [ -79.43038589, 43.65610639 ] } },
{ "type": "Feature", "properties": { "PERMIT ID": "22 196221 BLD", "DATE OF ISSUE": "22/11/2022", "DATE OF COMPLETION": "11/1/2024", "STATUS": "1", "ADDRESS": "214 Sixth St" }, "geometry": { "type": "Point", "coordinates": [ -79.5057378, 43.60418261 ] } },
{ "type": "Feature", "properties": { "PERMIT ID": "22 196312 BLD", "DATE OF ISSUE": "18/11/2022", "DATE OF COMPLETION": "9/11/2023", "STATUS": "1", "ADDRESS": "7 Nuffield Dr" }, "geometry": { "type": "Point", "coordinates": [ -79.19822585, 43.75181389 ] } },
{ "type": "Feature", "properties": { "PERMIT ID": "22 200511 BLD", "DATE OF ISSUE": "14/11/2022", "DATE OF COMPLETION": "27/6/2024", "STATUS": "1", "ADDRESS": "65 Essex St" }, "geometry": { "type": "Point", "coordinates": [ -79.42283021, 43.66766293 ] } },
{ "type": "Feature", "properties": { "PERMIT ID": "22 201355 BLD", "DATE OF ISSUE": "23/11/2022", "DATE OF COMPLETION": "18/7/2024", "STATUS": "1", "ADDRESS": "433 Rustic Rd" }, "geometry": { "type": "Point", "coordinates": [ -79.48362395, 43.71654748 ] } },
{ "type": "Feature", "properties": { "PERMIT ID": "22 202926 BLD", "DATE OF ISSUE": "20/12/2022", "DATE OF COMPLETION": "25/1/2024", "STATUS": "1", "ADDRESS": "100 Sheldrake Blvd" }, "geometry": { "type": "Point", "coordinates": [ -79.39672632, 43.71562787 ] } },
{ "type": "Feature", "properties": { "PERMIT ID": "22 210209 BLD", "DATE OF ISSUE": "29/12/2022", "DATE OF COMPLETION": "16/11/2023", "STATUS": "1", "ADDRESS": "391 Berkeley St" }, "geometry": { "type": "Point", "coordinates": [ -79.36885855, 43.66344117 ] } },
{ "type": "Feature", "properties": { "PERMIT ID": "22 211323 BLD", "DATE OF ISSUE": "1/11/2022", "DATE OF COMPLETION": "15/3/2024", "STATUS": "1", "ADDRESS": "269 Borden St" }, "geometry": { "type": "Point", "coordinates": [ -79.40825402, 43.665248 ] } },
{ "type": "Feature", "properties": { "PERMIT ID": "22 212360 BLD", "DATE OF ISSUE": "9/1/2023", "DATE OF COMPLETION": "27/6/2024", "STATUS": "1", "ADDRESS": "210 Glenayr Rd" }, "geometry": { "type": "Point", "coordinates": [ -79.41947943, 43.69512298 ] } },
{ "type": "Feature", "properties": { "PERMIT ID": "22 212560 BLD", "DATE OF ISSUE": "28/11/2022", "DATE OF COMPLETION": "29/11/2023", "STATUS": "1", "ADDRESS": "165 Wychwood Ave" }, "geometry": { "type": "Point", "coordinates": [ -79.42323798, 43.68304274 ] } },
{ "type": "Feature", "properties": { "PERMIT ID": "22 214381 BLD", "DATE OF ISSUE": "1/11/2022", "DATE OF COMPLETION": "26/4/2024", "STATUS": "1", "ADDRESS": "28 Salem Ave" }, "geometry": { "type": "Point", "coordinates": [ -79.43230036, 43.66162199 ] } },
{ "type": "Feature", "properties": { "PERMIT ID": "22 222243 BLD", "DATE OF ISSUE": "19/6/2023", "DATE OF COMPLETION": "21/6/2024", "STATUS": "1", "ADDRESS": "96 Benson Ave" }, "geometry": { "type": "Point", "coordinates": [ -79.42671749, 43.67980744 ] } },
{ "type": "Feature", "properties": { "PERMIT ID": "22 229477 BLD", "DATE OF ISSUE": "19/5/2023", "DATE OF COMPLETION": "15/11/2023", "STATUS": "1", "ADDRESS": "26 Batavia Ave" }, "geometry": { "type": "Point", "coordinates": [ -79.4891451, 43.66901232 ] } },
{ "type": "Feature", "properties": { "PERMIT ID": "22 229903 BLD", "DATE OF ISSUE": "31/8/2023", "DATE OF COMPLETION": "15/4/2024", "STATUS": "1", "ADDRESS": "177 Gamble Ave" }, "geometry": { "type": "Point", "coordinates": [ -79.34646011, 43.69073697 ] } },
{ "type": "Feature", "properties": { "PERMIT ID": "22 230146 BLD", "DATE OF ISSUE": "8/11/2023", "DATE OF COMPLETION": "24/6/2024", "STATUS": "1", "ADDRESS": "190 Wedgewood Dr" }, "geometry": { "type": "Point", "coordinates": [ -79.4037066, 43.79199528 ] } },
{ "type": "Feature", "properties": { "PERMIT ID": "22 230629 BLD", "DATE OF ISSUE": "17/2/2023", "DATE OF COMPLETION": "29/1/2024", "STATUS": "1", "ADDRESS": "134 Millicent St" }, "geometry": { "type": "Point", "coordinates": [ -79.44253853, 43.66481463 ] } },
{ "type": "Feature", "properties": { "PERMIT ID": "22 231313 BLD", "DATE OF ISSUE": "13/2/2023", "DATE OF COMPLETION": "2/11/2023", "STATUS": "1", "ADDRESS": "936 Scarlett Rd" }, "geometry": { "type": "Point", "coordinates": [ -79.52549288, 43.69977082 ] } },
{ "type": "Feature", "properties": { "PERMIT ID": "22 231633 BLD", "DATE OF ISSUE": "30/1/2023", "DATE OF COMPLETION": "19/6/2024", "STATUS": "1", "ADDRESS": "88 Willingdon Blvd" }, "geometry": { "type": "Point", "coordinates": [ -79.51259067, 43.65252321 ] } },
{ "type": "Feature", "properties": { "PERMIT ID": "22 232273 BLD", "DATE OF ISSUE": "10/2/2023", "DATE OF COMPLETION": "18/7/2024", "STATUS": "1", "ADDRESS": "24 Dixon Ave" }, "geometry": { "type": "Point", "coordinates": [ -79.31029464, 43.66996754 ] } },
{ "type": "Feature", "properties": { "PERMIT ID": "22 235609 BLD", "DATE OF ISSUE": "19/6/2023", "DATE OF COMPLETION": "3/6/2024", "STATUS": "1", "ADDRESS": "252 Lippincott St" }, "geometry": { "type": "Point", "coordinates": [ -79.4085451, 43.66132679 ] } },
{ "type": "Feature", "properties": { "PERMIT ID": "22 235687 BLD", "DATE OF ISSUE": "18/4/2023", "DATE OF COMPLETION": "28/11/2023", "STATUS": "1", "ADDRESS": "24 McManus Rd" }, "geometry": { "type": "Point", "coordinates": [ -79.53751818, 43.69800695 ] } },
{ "type": "Feature", "properties": { "PERMIT ID": "23 101306 BLD", "DATE OF ISSUE": "12/6/2023", "DATE OF COMPLETION": "4/3/2024", "STATUS": "1", "ADDRESS": "39 Henry St" }, "geometry": { "type": "Point", "coordinates": [ -79.39399343, 43.65776659 ] } },
{ "type": "Feature", "properties": { "PERMIT ID": "23 103390 BLD", "DATE OF ISSUE": "15/2/2023", "DATE OF COMPLETION": "13/10/2023", "STATUS": "1", "ADDRESS": "465 Broadview Ave" }, "geometry": { "type": "Point", "coordinates": [ -79.35280207, 43.66850513 ] } },
{ "type": "Feature", "properties": { "PERMIT ID": "23 106205 BLD", "DATE OF ISSUE": "15/2/2023", "DATE OF COMPLETION": "16/8/2023", "STATUS": "1", "ADDRESS": "570 Ridelle Ave" }, "geometry": { "type": "Point", "coordinates": [ -79.44982563, 43.7022078 ] } },
{ "type": "Feature", "properties": { "PERMIT ID": "23 107023 BLD", "DATE OF ISSUE": "29/6/2023", "DATE OF COMPLETION": "27/2/2024", "STATUS": "1", "ADDRESS": "539 Horner Ave" }, "geometry": { "type": "Point", "coordinates": [ -79.54758814, 43.60095246 ] } },
{ "type": "Feature", "properties": { "PERMIT ID": "23 107074 BLD", "DATE OF ISSUE": "9/5/2023", "DATE OF COMPLETION": "15/3/2024", "STATUS": "1", "ADDRESS": "146 Bartlett Ave" }, "geometry": { "type": "Point", "coordinates": [ -79.43490971, 43.66457319 ] } },
{ "type": "Feature", "properties": { "PERMIT ID": "23 109203 BLD", "DATE OF ISSUE": "22/3/2023", "DATE OF COMPLETION": "12/9/2023", "STATUS": "1", "ADDRESS": "60 Lansdowne Ave" }, "geometry": { "type": "Point", "coordinates": [ -79.43781365, 43.64284145 ] } },
{ "type": "Feature", "properties": { "PERMIT ID": "23 109243 BLD", "DATE OF ISSUE": "22/2/2023", "DATE OF COMPLETION": "5/7/2024", "STATUS": "1", "ADDRESS": "808 Manning Ave" }, "geometry": { "type": "Point", "coordinates": [ -79.41793964, 43.66842081 ] } },
{ "type": "Feature", "properties": { "PERMIT ID": "23 109364 BLD", "DATE OF ISSUE": "13/2/2023", "DATE OF COMPLETION": "14/2/2024", "STATUS": "1", "ADDRESS": "319 Mortimer Ave" }, "geometry": { "type": "Point", "coordinates": [ -79.34116727, 43.68712039 ] } },
{ "type": "Feature", "properties": { "PERMIT ID": "23 109697 BLD", "DATE OF ISSUE": "17/7/2023", "DATE OF COMPLETION": "28/6/2024", "STATUS": "1", "ADDRESS": "386 Concord Ave" }, "geometry": { "type": "Point", "coordinates": [ -79.42825347, 43.66461452 ] } },
{ "type": "Feature", "properties": { "PERMIT ID": "23 111117 BLD", "DATE OF ISSUE": "31/3/2023", "DATE OF COMPLETION": "6/2/2024", "STATUS": "1", "ADDRESS": "110 Concord Ave" }, "geometry": { "type": "Point", "coordinates": [ -79.42552207, 43.65756835 ] } },
{ "type": "Feature", "properties": { "PERMIT ID": "23 111148 BLD", "DATE OF ISSUE": "26/7/2023", "DATE OF COMPLETION": "2/3/2024", "STATUS": "1", "ADDRESS": "464 Main St" }, "geometry": { "type": "Point", "coordinates": [ -79.30439656, 43.69341426 ] } },
{ "type": "Feature", "properties": { "PERMIT ID": "23 111514 BLD", "DATE OF ISSUE": "9/5/2023", "DATE OF COMPLETION": "15/4/2024", "STATUS": "1", "ADDRESS": "50 Lanark Ave" }, "geometry": { "type": "Point", "coordinates": [ -79.44164083, 43.69688899 ] } },
{ "type": "Feature", "properties": { "PERMIT ID": "23 111721 BLD", "DATE OF ISSUE": "9/5/2023", "DATE OF COMPLETION": "15/4/2024", "STATUS": "1", "ADDRESS": "50 Lanark Ave" }, "geometry": { "type": "Point", "coordinates": [ -79.44164083, 43.69688899 ] } },
{ "type": "Feature", "properties": { "PERMIT ID": "23 112642 BLD", "DATE OF ISSUE": "4/5/2023", "DATE OF COMPLETION": "26/9/2023", "STATUS": "1", "ADDRESS": "249 Keele St" }, "geometry": { "type": "Point", "coordinates": [ -79.4623543, 43.66105346 ] } },
{ "type": "Feature", "properties": { "PERMIT ID": "23 115859 BLD", "DATE OF ISSUE": "24/3/2023", "DATE OF COMPLETION": "17/11/2023", "STATUS": "1", "ADDRESS": "158 Dovercourt Rd" }, "geometry": { "type": "Point", "coordinates": [ -79.42333656, 43.64532228 ] } },
{ "type": "Feature", "properties": { "PERMIT ID": "23 116840 BLD", "DATE OF ISSUE": "13/3/2023", "DATE OF COMPLETION": "12/7/2023", "STATUS": "1", "ADDRESS": "185 Divadale Dr" }, "geometry": { "type": "Point", "coordinates": [ -79.36320049, 43.71562531 ] } },
{ "type": "Feature", "properties": { "PERMIT ID": "23 120353 BLD", "DATE OF ISSUE": "26/5/2023", "DATE OF COMPLETION": "3/5/2024", "STATUS": "1", "ADDRESS": "49 Gemshaw Cres" }, "geometry": { "type": "Point", "coordinates": [ -79.21114015, 43.80015219 ] } },
{ "type": "Feature", "properties": { "PERMIT ID": "23 121060 BLD", "DATE OF ISSUE": "29/5/2023", "DATE OF COMPLETION": "7/2/2024", "STATUS": "1", "ADDRESS": "39 Dunkirk Rd" }, "geometry": { "type": "Point", "coordinates": [ -79.32035188, 43.69224939 ] } },
{ "type": "Feature", "properties": { "PERMIT ID": "23 121344 BLD", "DATE OF ISSUE": "16/3/2023", "DATE OF COMPLETION": "4/7/2024", "STATUS": "1", "ADDRESS": "193 Fairview Ave" }, "geometry": { "type": "Point", "coordinates": [ -79.47669862, 43.66304869 ] } },
{ "type": "Feature", "properties": { "PERMIT ID": "23 123412 BLD", "DATE OF ISSUE": "19/4/2023", "DATE OF COMPLETION": "23/10/2023", "STATUS": "1", "ADDRESS": "3978 Ellesmere Rd" }, "geometry": { "type": "Point", "coordinates": [ -79.16305445, 43.7928756 ] } },
{ "type": "Feature", "properties": { "PERMIT ID": "23 128843 BLD", "DATE OF ISSUE": "26/5/2023", "DATE OF COMPLETION": "20/6/2024", "STATUS": "1", "ADDRESS": "23 Kootenay Cres" }, "geometry": { "type": "Point", "coordinates": [ -79.25087821, 43.74791672 ] } },
{ "type": "Feature", "properties": { "PERMIT ID": "23 131877 BLD", "DATE OF ISSUE": "12/6/2023", "DATE OF COMPLETION": "30/1/2024", "STATUS": "1", "ADDRESS": "16 John Best Ave" }, "geometry": { "type": "Point", "coordinates": [ -79.50389086, 43.6983897 ] } },
{ "type": "Feature", "properties": { "PERMIT ID": "23 133016 BLD", "DATE OF ISSUE": "1/6/2023", "DATE OF COMPLETION": "22/7/2024", "STATUS": "1", "ADDRESS": "810 Indian Rd" }, "geometry": { "type": "Point", "coordinates": [ -79.45963744, 43.66384835 ] } },
{ "type": "Feature", "properties": { "PERMIT ID": "23 136145 BLD", "DATE OF ISSUE": "24/10/2023", "DATE OF COMPLETION": "3/6/2024", "STATUS": "1", "ADDRESS": "35 Barrhead Cres" }, "geometry": { "type": "Point", "coordinates": [ -79.5669128, 43.71883457 ] } },
{ "type": "Feature", "properties": { "PERMIT ID": "23 145786 BLD", "DATE OF ISSUE": "30/6/2023", "DATE OF COMPLETION": "24/5/2024", "STATUS": "1", "ADDRESS": "53 Adanac Dr" }, "geometry": { "type": "Point", "coordinates": [ -79.23051774, 43.73763386 ] } },
{ "type": "Feature", "properties": { "PERMIT ID": "23 150579 BLD", "DATE OF ISSUE": "28/9/2023", "DATE OF COMPLETION": "23/5/2024", "STATUS": "1", "ADDRESS": "941 Bathurst St" }, "geometry": { "type": "Point", "coordinates": [ -79.41288939, 43.67003941 ] } },
{ "type": "Feature", "properties": { "PERMIT ID": "23 152314 BLD", "DATE OF ISSUE": "27/6/2023", "DATE OF COMPLETION": "14/3/2024", "STATUS": "1", "ADDRESS": "1204 Roselawn Ave" }, "geometry": { "type": "Point", "coordinates": [ -79.4559026, 43.69954034 ] } },
{ "type": "Feature", "properties": { "PERMIT ID": "23 161411 BLD", "DATE OF ISSUE": "11/7/2023", "DATE OF COMPLETION": "6/5/2024", "STATUS": "1", "ADDRESS": "315 Davisville Ave" }, "geometry": { "type": "Point", "coordinates": [ -79.38445352, 43.70066618 ] } },
{ "type": "Feature", "properties": { "PERMIT ID": "23 162112 BLD", "DATE OF ISSUE": "12/7/2023", "DATE OF COMPLETION": "6/5/2024", "STATUS": "1", "ADDRESS": "25 Earl Grey Rd" }, "geometry": { "type": "Point", "coordinates": [ -79.33712656, 43.67586251 ] } },
{ "type": "Feature", "properties": { "PERMIT ID": "23 163435 BLD", "DATE OF ISSUE": "21/7/2023", "DATE OF COMPLETION": "13/2/2024", "STATUS": "1", "ADDRESS": "579 Oakwood Ave" }, "geometry": { "type": "Point", "coordinates": [ -79.4418499, 43.69568638 ] } },
{ "type": "Feature", "properties": { "PERMIT ID": "23 166235 BLD", "DATE OF ISSUE": "19/10/2023", "DATE OF COMPLETION": "24/5/2024", "STATUS": "1", "ADDRESS": "18 Thurodale Ave" }, "geometry": { "type": "Point", "coordinates": [ -79.49624511, 43.70312502 ] } },
{ "type": "Feature", "properties": { "PERMIT ID": "23 175628 BLD", "DATE OF ISSUE": "25/9/2023", "DATE OF COMPLETION": "22/4/2024", "STATUS": "1", "ADDRESS": "245 Woburn Ave" }, "geometry": { "type": "Point", "coordinates": [ -79.41089668, 43.72649051 ] } },
{ "type": "Feature", "properties": { "PERMIT ID": "23 184635 BLD", "DATE OF ISSUE": "11/10/2023", "DATE OF COMPLETION": "5/6/2024", "STATUS": "1", "ADDRESS": "31 Woodfield Rd" }, "geometry": { "type": "Point", "coordinates": [ -79.3207285, 43.66458782 ] } },
{ "type": "Feature", "properties": { "PERMIT ID": "23 187227 BLD", "DATE OF ISSUE": "12/9/2023", "DATE OF COMPLETION": "29/4/2024", "STATUS": "1", "ADDRESS": "60 Tavistock Rd" }, "geometry": { "type": "Point", "coordinates": [ -79.48815511, 43.73365128 ] } },
{ "type": "Feature", "properties": { "PERMIT ID": "23 189181 BLD", "DATE OF ISSUE": "30/11/2023", "DATE OF COMPLETION": "8/7/2024", "STATUS": "1", "ADDRESS": "146 Eastwood Rd" }, "geometry": { "type": "Point", "coordinates": [ -79.31406355, 43.6744422 ] } },
{ "type": "Feature", "properties": { "PERMIT ID": "23 197515 BLD", "DATE OF ISSUE": "6/11/2023", "DATE OF COMPLETION": "16/7/2024", "STATUS": "1", "ADDRESS": "381 Grace St" }, "geometry": { "type": "Point", "coordinates": [ -79.41779513, 43.66142397 ] } },
{ "type": "Feature", "properties": { "PERMIT ID": "23 199274 BLD", "DATE OF ISSUE": "25/9/2023", "DATE OF COMPLETION": "6/8/2024", "STATUS": "1", "ADDRESS": "47 Innismore Cres" }, "geometry": { "type": "Point", "coordinates": [ -79.30256156, 43.73576771 ] } },
{ "type": "Feature", "properties": { "PERMIT ID": "23 205831 BLD", "DATE OF ISSUE": "14/11/2023", "DATE OF COMPLETION": "8/7/2024", "STATUS": "1", "ADDRESS": "97 Ennerdale Rd" }, "geometry": { "type": "Point", "coordinates": [ -79.45213501, 43.69013172 ] } },
{ "type": "Feature", "properties": { "PERMIT ID": "23 207738 BLD", "DATE OF ISSUE": "31/10/2023", "DATE OF COMPLETION": "16/5/2024", "STATUS": "1", "ADDRESS": "140 Eaton Ave" }, "geometry": { "type": "Point", "coordinates": [ -79.34489168, 43.68345235 ] } },
{ "type": "Feature", "properties": { "PERMIT ID": "23 208461 BLD", "DATE OF ISSUE": "4/1/2024", "DATE OF COMPLETION": "25/4/2024", "STATUS": "1", "ADDRESS": "252 Sheldon Ave" }, "geometry": { "type": "Point", "coordinates": [ -79.54590839, 43.60843138 ] } },
{ "type": "Feature", "properties": { "PERMIT ID": "24 101553 BLD", "DATE OF ISSUE": "30/4/2024", "DATE OF COMPLETION": "24/6/2024", "STATUS": "1", "ADDRESS": "8 Fraserton Cres" }, "geometry": { "type": "Point", "coordinates": [ -79.25288988, 43.7495933 ] } },
{ "type": "Feature", "properties": { "PERMIT ID": "19 155205 BLD", "DATE OF ISSUE": "24/2/2020", "DATE OF COMPLETION": "", "STATUS": "0", "ADDRESS": "127 Booth Ave" }, "geometry": { "type": "Point", "coordinates": [ -79.34250347, 43.65852858 ] } },
{ "type": "Feature", "properties": { "PERMIT ID": "19 182179 BLD", "DATE OF ISSUE": "9/4/2020", "DATE OF COMPLETION": "", "STATUS": "0", "ADDRESS": "31 Grange Ave" }, "geometry": { "type": "Point", "coordinates": [ -79.39488334, 43.65227542 ] } },
{ "type": "Feature", "properties": { "PERMIT ID": "19 183397 BLD", "DATE OF ISSUE": "25/9/2019", "DATE OF COMPLETION": "", "STATUS": "0", "ADDRESS": "985 Dupont St" }, "geometry": { "type": "Point", "coordinates": [ -79.43221864, 43.66965584 ] } },
{ "type": "Feature", "properties": { "PERMIT ID": "20 142791 BLD", "DATE OF ISSUE": "29/11/2021", "DATE OF COMPLETION": "", "STATUS": "0", "ADDRESS": "33 Beaconsfield Ave" }, "geometry": { "type": "Point", "coordinates": [ -79.42501305, 43.64436275 ] } },
{ "type": "Feature", "properties": { "PERMIT ID": "20 179098 BLD", "DATE OF ISSUE": "5/3/2024", "DATE OF COMPLETION": "", "STATUS": "0", "ADDRESS": "22 Bryant Ave" }, "geometry": { "type": "Point", "coordinates": [ -79.29036097, 43.69318251 ] } },
{ "type": "Feature", "properties": { "PERMIT ID": "21 119475 BLD", "DATE OF ISSUE": "16/9/2021", "DATE OF COMPLETION": "", "STATUS": "0", "ADDRESS": "37 Alhambra Ave" }, "geometry": { "type": "Point", "coordinates": [ -79.45310914, 43.65491394 ] } },
{ "type": "Feature", "properties": { "PERMIT ID": "21 120648 BLD", "DATE OF ISSUE": "17/5/2021", "DATE OF COMPLETION": "", "STATUS": "0", "ADDRESS": "98 Brookside Ave" }, "geometry": { "type": "Point", "coordinates": [ -79.49296567, 43.66289937 ] } },
{ "type": "Feature", "properties": { "PERMIT ID": "21 129974 BLD", "DATE OF ISSUE": "15/4/2021", "DATE OF COMPLETION": "", "STATUS": "0", "ADDRESS": "89 Kenneth Ave" }, "geometry": { "type": "Point", "coordinates": [ -79.45926797, 43.6610008 ] } },
{ "type": "Feature", "properties": { "PERMIT ID": "21 142155 BLD", "DATE OF ISSUE": "7/10/2021", "DATE OF COMPLETION": "", "STATUS": "0", "ADDRESS": "125 Perth Ave" }, "geometry": { "type": "Point", "coordinates": [ -79.44915379, 43.65818301 ] } },
{ "type": "Feature", "properties": { "PERMIT ID": "21 162262 BLD", "DATE OF ISSUE": "15/6/2021", "DATE OF COMPLETION": "", "STATUS": "0", "ADDRESS": "97 Ascot Ave" }, "geometry": { "type": "Point", "coordinates": [ -79.44756694, 43.6791535 ] } },
{ "type": "Feature", "properties": { "PERMIT ID": "21 166452 BLD", "DATE OF ISSUE": "18/11/2021", "DATE OF COMPLETION": "", "STATUS": "0", "ADDRESS": "474 Dovercourt Rd" }, "geometry": { "type": "Point", "coordinates": [ -79.42695864, 43.65420008 ] } },
{ "type": "Feature", "properties": { "PERMIT ID": "21 187196 BLD", "DATE OF ISSUE": "18/2/2022", "DATE OF COMPLETION": "", "STATUS": "0", "ADDRESS": "55 Thyra Ave" }, "geometry": { "type": "Point", "coordinates": [ -79.29103358, 43.69308051 ] } },
{ "type": "Feature", "properties": { "PERMIT ID": "21 189439 BLD", "DATE OF ISSUE": "9/9/2021", "DATE OF COMPLETION": "", "STATUS": "0", "ADDRESS": "13 Hocken Ave" }, "geometry": { "type": "Point", "coordinates": [ -79.41918764, 43.68150938 ] } },
{ "type": "Feature", "properties": { "PERMIT ID": "21 194494 BLD", "DATE OF ISSUE": "14/12/2022", "DATE OF COMPLETION": "", "STATUS": "0", "ADDRESS": "92 Sussex Ave" }, "geometry": { "type": "Point", "coordinates": [ -79.40608617, 43.66412731 ] } },
{ "type": "Feature", "properties": { "PERMIT ID": "21 202345 BLD", "DATE OF ISSUE": "20/9/2021", "DATE OF COMPLETION": "", "STATUS": "0", "ADDRESS": "323 Delaware Ave" }, "geometry": { "type": "Point", "coordinates": [ -79.42935465, 43.66520581 ] } },
{ "type": "Feature", "properties": { "PERMIT ID": "21 209188 BLD", "DATE OF ISSUE": "17/3/2022", "DATE OF COMPLETION": "", "STATUS": "0", "ADDRESS": "205 Wychwood Ave" }, "geometry": { "type": "Point", "coordinates": [ -79.4238015, 43.6843623 ] } },
{ "type": "Feature", "properties": { "PERMIT ID": "21 211701 BLD", "DATE OF ISSUE": "4/11/2021", "DATE OF COMPLETION": "", "STATUS": "0", "ADDRESS": "418 McRoberts Ave" }, "geometry": { "type": "Point", "coordinates": [ -79.45836054, 43.68657028 ] } },
{ "type": "Feature", "properties": { "PERMIT ID": "21 215743 BLD", "DATE OF ISSUE": "10/3/2022", "DATE OF COMPLETION": "", "STATUS": "0", "ADDRESS": "136 Bartlett Ave" }, "geometry": { "type": "Point", "coordinates": [ -79.43480254, 43.66433382 ] } },
{ "type": "Feature", "properties": { "PERMIT ID": "21 245435 BLD", "DATE OF ISSUE": "15/12/2022", "DATE OF COMPLETION": "", "STATUS": "0", "ADDRESS": "315 McRoberts Ave" }, "geometry": { "type": "Point", "coordinates": [ -79.45650294, 43.68336549 ] } },
{ "type": "Feature", "properties": { "PERMIT ID": "21 247165 BLD", "DATE OF ISSUE": "24/1/2022", "DATE OF COMPLETION": "", "STATUS": "0", "ADDRESS": "64 Bloem Ave" }, "geometry": { "type": "Point", "coordinates": [ -79.4489852, 43.68588552 ] } },
{ "type": "Feature", "properties": { "PERMIT ID": "22 114124 BLD", "DATE OF ISSUE": "15/3/2022", "DATE OF COMPLETION": "", "STATUS": "0", "ADDRESS": "227 Lisgar St" }, "geometry": { "type": "Point", "coordinates": [ -79.42487376, 43.64731293 ] } },
{ "type": "Feature", "properties": { "PERMIT ID": "22 115210 BLD", "DATE OF ISSUE": "7/6/2022", "DATE OF COMPLETION": "", "STATUS": "0", "ADDRESS": "58 Beverley St" }, "geometry": { "type": "Point", "coordinates": [ -79.3930748, 43.65130517 ] } },
{ "type": "Feature", "properties": { "PERMIT ID": "22 120058 BLD", "DATE OF ISSUE": "23/3/2022", "DATE OF COMPLETION": "", "STATUS": "0", "ADDRESS": "1 Seneca Ave" }, "geometry": { "type": "Point", "coordinates": [ -79.47592313, 43.68002717 ] } },
{ "type": "Feature", "properties": { "PERMIT ID": "22 121129 BLD", "DATE OF ISSUE": "16/8/2022", "DATE OF COMPLETION": "", "STATUS": "0", "ADDRESS": "19 Beechwood Dr" }, "geometry": { "type": "Point", "coordinates": [ -79.35348152, 43.69359806 ] } },
{ "type": "Feature", "properties": { "PERMIT ID": "22 122165 BLD", "DATE OF ISSUE": "28/10/2022", "DATE OF COMPLETION": "", "STATUS": "0", "ADDRESS": "225 High Park Ave" }, "geometry": { "type": "Point", "coordinates": [ -79.46824565, 43.66147703 ] } },
{ "type": "Feature", "properties": { "PERMIT ID": "22 126376 BLD", "DATE OF ISSUE": "19/9/2022", "DATE OF COMPLETION": "", "STATUS": "0", "ADDRESS": "375 Jones Ave" }, "geometry": { "type": "Point", "coordinates": [ -79.33704606, 43.67333642 ] } },
{ "type": "Feature", "properties": { "PERMIT ID": "22 126827 BLD", "DATE OF ISSUE": "6/5/2022", "DATE OF COMPLETION": "", "STATUS": "0", "ADDRESS": "48 Kippendavie Ave" }, "geometry": { "type": "Point", "coordinates": [ -79.30336361, 43.66708049 ] } },
{ "type": "Feature", "properties": { "PERMIT ID": "22 130531 BLD", "DATE OF ISSUE": "14/7/2023", "DATE OF COMPLETION": "", "STATUS": "0", "ADDRESS": "202 Dovercourt Rd" }, "geometry": { "type": "Point", "coordinates": [ -79.42403084, 43.6469515 ] } },
{ "type": "Feature", "properties": { "PERMIT ID": "22 135733 BLD", "DATE OF ISSUE": "10/1/2023", "DATE OF COMPLETION": "", "STATUS": "0", "ADDRESS": "78 Gladstone Ave" }, "geometry": { "type": "Point", "coordinates": [ -79.42818316, 43.64477654 ] } },
{ "type": "Feature", "properties": { "PERMIT ID": "22 138317 BLD", "DATE OF ISSUE": "2/5/2024", "DATE OF COMPLETION": "", "STATUS": "0", "ADDRESS": "63A Wayland Ave" }, "geometry": { "type": "Point", "coordinates": [ -79.29538646, 43.68406754 ] } },
{ "type": "Feature", "properties": { "PERMIT ID": "22 139462 BLD", "DATE OF ISSUE": "15/2/2023", "DATE OF COMPLETION": "", "STATUS": "0", "ADDRESS": "147 Hogarth Ave" }, "geometry": { "type": "Point", "coordinates": [ -79.34908878, 43.6745756 ] } },
{ "type": "Feature", "properties": { "PERMIT ID": "22 141752 BLD", "DATE OF ISSUE": "14/11/2022", "DATE OF COMPLETION": "", "STATUS": "0", "ADDRESS": "274 Roncesvalles Ave" }, "geometry": { "type": "Point", "coordinates": [ -79.44984923, 43.64751105 ] } },
{ "type": "Feature", "properties": { "PERMIT ID": "22 142302 BLD", "DATE OF ISSUE": "29/6/2022", "DATE OF COMPLETION": "", "STATUS": "0", "ADDRESS": "116 Shaw St" }, "geometry": { "type": "Point", "coordinates": [ -79.41685566, 43.64529384 ] } },
{ "type": "Feature", "properties": { "PERMIT ID": "22 146043 BLD", "DATE OF ISSUE": "14/3/2023", "DATE OF COMPLETION": "", "STATUS": "0", "ADDRESS": "163 Shaw St" }, "geometry": { "type": "Point", "coordinates": [ -79.41658466, 43.64623785 ] } },
{ "type": "Feature", "properties": { "PERMIT ID": "22 148402 BLD", "DATE OF ISSUE": "18/8/2022", "DATE OF COMPLETION": "", "STATUS": "0", "ADDRESS": "187 Manning Ave" }, "geometry": { "type": "Point", "coordinates": [ -79.41060936, 43.65103209 ] } },
{ "type": "Feature", "properties": { "PERMIT ID": "22 149885 BLD", "DATE OF ISSUE": "14/9/2023", "DATE OF COMPLETION": "", "STATUS": "0", "ADDRESS": "241 Franklin Ave" }, "geometry": { "type": "Point", "coordinates": [ -79.45447459, 43.66645255 ] } },
{ "type": "Feature", "properties": { "PERMIT ID": "22 152362 BLD", "DATE OF ISSUE": "30/9/2022", "DATE OF COMPLETION": "", "STATUS": "0", "ADDRESS": "46 Salem Ave" }, "geometry": { "type": "Point", "coordinates": [ -79.43254091, 43.66215503 ] } },
{ "type": "Feature", "properties": { "PERMIT ID": "22 152494 BLD", "DATE OF ISSUE": "31/7/2023", "DATE OF COMPLETION": "", "STATUS": "0", "ADDRESS": "168 Locksley Ave" }, "geometry": { "type": "Point", "coordinates": [ -79.44880921, 43.70212866 ] } },
{ "type": "Feature", "properties": { "PERMIT ID": "22 156076 BLD", "DATE OF ISSUE": "29/8/2022", "DATE OF COMPLETION": "", "STATUS": "0", "ADDRESS": "42 Borden St" }, "geometry": { "type": "Point", "coordinates": [ -79.40590944, 43.6581071 ] } },
{ "type": "Feature", "properties": { "PERMIT ID": "22 167411 BLD", "DATE OF ISSUE": "10/1/2023", "DATE OF COMPLETION": "", "STATUS": "0", "ADDRESS": "469 Jones Ave" }, "geometry": { "type": "Point", "coordinates": [ -79.33835956, 43.67626468 ] } },
{ "type": "Feature", "properties": { "PERMIT ID": "22 172098 BLD", "DATE OF ISSUE": "5/4/2023", "DATE OF COMPLETION": "", "STATUS": "0", "ADDRESS": "174 Euclid Ave" }, "geometry": { "type": "Point", "coordinates": [ -79.40962903, 43.65067024 ] } },
{ "type": "Feature", "properties": { "PERMIT ID": "22 172349 BLD", "DATE OF ISSUE": "19/10/2022", "DATE OF COMPLETION": "", "STATUS": "0", "ADDRESS": "341 Dawes Rd" }, "geometry": { "type": "Point", "coordinates": [ -79.29674315, 43.6997841 ] } },
{ "type": "Feature", "properties": { "PERMIT ID": "22 173723 BLD", "DATE OF ISSUE": "7/9/2022", "DATE OF COMPLETION": "", "STATUS": "0", "ADDRESS": "39 Chester Ave" }, "geometry": { "type": "Point", "coordinates": [ -79.35211464, 43.67861094 ] } },
{ "type": "Feature", "properties": { "PERMIT ID": "22 173743 BLD", "DATE OF ISSUE": "17/1/2023", "DATE OF COMPLETION": "", "STATUS": "0", "ADDRESS": "7 Harvie Ave" }, "geometry": { "type": "Point", "coordinates": [ -79.44971199, 43.67706542 ] } },
{ "type": "Feature", "properties": { "PERMIT ID": "22 185168 BLD", "DATE OF ISSUE": "20/10/2022", "DATE OF COMPLETION": "", "STATUS": "0", "ADDRESS": "116 Dovercourt Rd" }, "geometry": { "type": "Point", "coordinates": [ -79.42285596, 43.64399768 ] } },
{ "type": "Feature", "properties": { "PERMIT ID": "22 191923 BLD", "DATE OF ISSUE": "21/11/2023", "DATE OF COMPLETION": "", "STATUS": "0", "ADDRESS": "83 Pendrith St" }, "geometry": { "type": "Point", "coordinates": [ -79.42311603, 43.666531 ] } },
{ "type": "Feature", "properties": { "PERMIT ID": "22 193632 BLD", "DATE OF ISSUE": "28/9/2022", "DATE OF COMPLETION": "", "STATUS": "0", "ADDRESS": "613 Ossington Ave" }, "geometry": { "type": "Point", "coordinates": [ -79.42425901, 43.6590729 ] } },
{ "type": "Feature", "properties": { "PERMIT ID": "22 197096 BLD", "DATE OF ISSUE": "21/12/2022", "DATE OF COMPLETION": "", "STATUS": "0", "ADDRESS": "553 Davisville Ave" }, "geometry": { "type": "Point", "coordinates": [ -79.37500525, 43.70265024 ] } },
{ "type": "Feature", "properties": { "PERMIT ID": "22 201100 BLD", "DATE OF ISSUE": "26/10/2022", "DATE OF COMPLETION": "", "STATUS": "0", "ADDRESS": "215 Chatham Ave" }, "geometry": { "type": "Point", "coordinates": [ -79.33298306, 43.68010427 ] } },
{ "type": "Feature", "properties": { "PERMIT ID": "22 201581 BLD", "DATE OF ISSUE": "15/3/2023", "DATE OF COMPLETION": "", "STATUS": "0", "ADDRESS": "132 Palmerston Ave" }, "geometry": { "type": "Point", "coordinates": [ -79.40840351, 43.65091709 ] } },
{ "type": "Feature", "properties": { "PERMIT ID": "22 204475 BLD", "DATE OF ISSUE": "16/1/2023", "DATE OF COMPLETION": "", "STATUS": "0", "ADDRESS": "92 Givins St" }, "geometry": { "type": "Point", "coordinates": [ -79.41889904, 43.64755148 ] } },
{ "type": "Feature", "properties": { "PERMIT ID": "22 208007 BLD", "DATE OF ISSUE": "20/4/2023", "DATE OF COMPLETION": "", "STATUS": "0", "ADDRESS": "90 Hastings Ave" }, "geometry": { "type": "Point", "coordinates": [ -79.3302832, 43.66585205 ] } },
{ "type": "Feature", "properties": { "PERMIT ID": "22 210726 BLD", "DATE OF ISSUE": "20/10/2022", "DATE OF COMPLETION": "", "STATUS": "0", "ADDRESS": "338 Dufferin St" }, "geometry": { "type": "Point", "coordinates": [ -79.42816083, 43.64042211 ] } },
{ "type": "Feature", "properties": { "PERMIT ID": "22 214331 BLD", "DATE OF ISSUE": "10/2/2023", "DATE OF COMPLETION": "", "STATUS": "0", "ADDRESS": "528 Clinton St" }, "geometry": { "type": "Point", "coordinates": [ -79.41953014, 43.6687722 ] } },
{ "type": "Feature", "properties": { "PERMIT ID": "22 215901 BLD", "DATE OF ISSUE": "10/1/2023", "DATE OF COMPLETION": "", "STATUS": "0", "ADDRESS": "259 St Clarens Ave" }, "geometry": { "type": "Point", "coordinates": [ -79.43950516, 43.65379009 ] } },
{ "type": "Feature", "properties": { "PERMIT ID": "22 216558 BLD", "DATE OF ISSUE": "23/2/2023", "DATE OF COMPLETION": "", "STATUS": "0", "ADDRESS": "51 Neddie Dr" }, "geometry": { "type": "Point", "coordinates": [ -79.29387895, 43.78057124 ] } },
{ "type": "Feature", "properties": { "PERMIT ID": "22 218771 BLD", "DATE OF ISSUE": "10/3/2023", "DATE OF COMPLETION": "", "STATUS": "0", "ADDRESS": "18 Elm Ave" }, "geometry": { "type": "Point", "coordinates": [ -79.37883973, 43.67518439 ] } },
{ "type": "Feature", "properties": { "PERMIT ID": "22 221789 BLD", "DATE OF ISSUE": "19/4/2023", "DATE OF COMPLETION": "", "STATUS": "0", "ADDRESS": "71 Chisholm Ave" }, "geometry": { "type": "Point", "coordinates": [ -79.30366356, 43.69000864 ] } },
{ "type": "Feature", "properties": { "PERMIT ID": "22 222275 BLD", "DATE OF ISSUE": "8/12/2022", "DATE OF COMPLETION": "", "STATUS": "0", "ADDRESS": "3 Pynford Cres" }, "geometry": { "type": "Point", "coordinates": [ -79.31814486, 43.75886804 ] } },
{ "type": "Feature", "properties": { "PERMIT ID": "22 222498 BLD", "DATE OF ISSUE": "4/10/2023", "DATE OF COMPLETION": "", "STATUS": "0", "ADDRESS": "361 Euclid Ave" }, "geometry": { "type": "Point", "coordinates": [ -79.41088707, 43.65514976 ] } },
{ "type": "Feature", "properties": { "PERMIT ID": "22 222817 BLD", "DATE OF ISSUE": "23/10/2023", "DATE OF COMPLETION": "", "STATUS": "0", "ADDRESS": "7 Muir Dr" }, "geometry": { "type": "Point", "coordinates": [ -79.2101472, 43.73994508 ] } },
{ "type": "Feature", "properties": { "PERMIT ID": "22 223919 BLD", "DATE OF ISSUE": "19/6/2023", "DATE OF COMPLETION": "", "STATUS": "0", "ADDRESS": "148 Brunswick Ave" }, "geometry": { "type": "Point", "coordinates": [ -79.40605058, 43.66168754 ] } },
{ "type": "Feature", "properties": { "PERMIT ID": "22 225161 BLD", "DATE OF ISSUE": "26/1/2023", "DATE OF COMPLETION": "", "STATUS": "0", "ADDRESS": "103 Gladstone Ave" }, "geometry": { "type": "Point", "coordinates": [ -79.42809096, 43.64579902 ] } },
{ "type": "Feature", "properties": { "PERMIT ID": "22 229083 BLD", "DATE OF ISSUE": "22/2/2024", "DATE OF COMPLETION": "", "STATUS": "0", "ADDRESS": "970 Pharmacy Ave" }, "geometry": { "type": "Point", "coordinates": [ -79.30174768, 43.73527842 ] } },
{ "type": "Feature", "properties": { "PERMIT ID": "22 229295 BLD", "DATE OF ISSUE": "16/10/2023", "DATE OF COMPLETION": "", "STATUS": "0", "ADDRESS": "3191 Weston Rd" }, "geometry": { "type": "Point", "coordinates": [ -79.53865535, 43.73705193 ] } },
{ "type": "Feature", "properties": { "PERMIT ID": "22 230076 BLD", "DATE OF ISSUE": "12/1/2024", "DATE OF COMPLETION": "", "STATUS": "0", "ADDRESS": "10 Fairbank Ave" }, "geometry": { "type": "Point", "coordinates": [ -79.45332865, 43.69579821 ] } },
{ "type": "Feature", "properties": { "PERMIT ID": "22 230631 BLD", "DATE OF ISSUE": "8/3/2023", "DATE OF COMPLETION": "", "STATUS": "0", "ADDRESS": "72 Wardell St" }, "geometry": { "type": "Point", "coordinates": [ -79.34594704, 43.66319196 ] } },
{ "type": "Feature", "properties": { "PERMIT ID": "22 231437 BLD", "DATE OF ISSUE": "15/12/2022", "DATE OF COMPLETION": "", "STATUS": "0", "ADDRESS": "977 Dupont St" }, "geometry": { "type": "Point", "coordinates": [ -79.43197449, 43.66968478 ] } },
{ "type": "Feature", "properties": { "PERMIT ID": "22 237126 BLD", "DATE OF ISSUE": "11/10/2023", "DATE OF COMPLETION": "", "STATUS": "0", "ADDRESS": "38 Minto St" }, "geometry": { "type": "Point", "coordinates": [ -79.32387984, 43.66387497 ] } },
{ "type": "Feature", "properties": { "PERMIT ID": "22 240759 BLD", "DATE OF ISSUE": "11/5/2023", "DATE OF COMPLETION": "", "STATUS": "0", "ADDRESS": "386 Balliol St" }, "geometry": { "type": "Point", "coordinates": [ -79.38517957, 43.6998741 ] } },
{ "type": "Feature", "properties": { "PERMIT ID": "23 100679 BLD", "DATE OF ISSUE": "20/4/2023", "DATE OF COMPLETION": "", "STATUS": "0", "ADDRESS": "1197 Roselawn Ave" }, "geometry": { "type": "Point", "coordinates": [ -79.45592708, 43.69918567 ] } },
{ "type": "Feature", "properties": { "PERMIT ID": "23 100889 BLD", "DATE OF ISSUE": "6/3/2023", "DATE OF COMPLETION": "", "STATUS": "0", "ADDRESS": "659 Woodbine Ave" }, "geometry": { "type": "Point", "coordinates": [ -79.30953905, 43.67866243 ] } },
{ "type": "Feature", "properties": { "PERMIT ID": "23 102449 BLD", "DATE OF ISSUE": "27/3/2023", "DATE OF COMPLETION": "", "STATUS": "0", "ADDRESS": "16 Vermont Ave" }, "geometry": { "type": "Point", "coordinates": [ -79.41542427, 43.67197589 ] } },
{ "type": "Feature", "properties": { "PERMIT ID": "23 107744 BLD", "DATE OF ISSUE": "6/8/2024", "DATE OF COMPLETION": "", "STATUS": "0", "ADDRESS": "342 Gilbert Ave" }, "geometry": { "type": "Point", "coordinates": [ -79.46103921, 43.68616253 ] } },
{ "type": "Feature", "properties": { "PERMIT ID": "23 108437 BLD", "DATE OF ISSUE": "16/8/2023", "DATE OF COMPLETION": "", "STATUS": "0", "ADDRESS": "49 Grandview Ave" }, "geometry": { "type": "Point", "coordinates": [ -79.34875328, 43.67367529 ] } },
{ "type": "Feature", "properties": { "PERMIT ID": "23 111252 BLD", "DATE OF ISSUE": "25/9/2023", "DATE OF COMPLETION": "", "STATUS": "0", "ADDRESS": "2420 Gerrard St E" }, "geometry": { "type": "Point", "coordinates": [ -79.2891864, 43.68657637 ] } },
{ "type": "Feature", "properties": { "PERMIT ID": "23 111736 BLD", "DATE OF ISSUE": "17/4/2023", "DATE OF COMPLETION": "", "STATUS": "0", "ADDRESS": "233 Pape Ave" }, "geometry": { "type": "Point", "coordinates": [ -79.3390677, 43.66559335 ] } },
{ "type": "Feature", "properties": { "PERMIT ID": "23 112033 BLD", "DATE OF ISSUE": "24/5/2023", "DATE OF COMPLETION": "", "STATUS": "0", "ADDRESS": "96 Hastings Ave" }, "geometry": { "type": "Point", "coordinates": [ -79.33037454, 43.66604073 ] } },
{ "type": "Feature", "properties": { "PERMIT ID": "23 113631 BLD", "DATE OF ISSUE": "2/6/2023", "DATE OF COMPLETION": "", "STATUS": "0", "ADDRESS": "118 Pritchard Ave" }, "geometry": { "type": "Point", "coordinates": [ -79.49222992, 43.66989448 ] } },
{ "type": "Feature", "properties": { "PERMIT ID": "23 115993 BLD", "DATE OF ISSUE": "31/7/2024", "DATE OF COMPLETION": "", "STATUS": "0", "ADDRESS": "27 Shirley Cres" }, "geometry": { "type": "Point", "coordinates": [ -79.21483779, 43.7375266 ] } },
{ "type": "Feature", "properties": { "PERMIT ID": "23 123987 BLD", "DATE OF ISSUE": "21/4/2023", "DATE OF COMPLETION": "", "STATUS": "0", "ADDRESS": "194 Avondale Ave" }, "geometry": { "type": "Point", "coordinates": [ -79.39863606, 43.76093117 ] } },
{ "type": "Feature", "properties": { "PERMIT ID": "23 126679 BLD", "DATE OF ISSUE": "14/7/2023", "DATE OF COMPLETION": "", "STATUS": "0", "ADDRESS": "15 Ketchum Pl" }, "geometry": { "type": "Point", "coordinates": [ -79.26707958, 43.82671858 ] } },
{ "type": "Feature", "properties": { "PERMIT ID": "23 127442 BLD", "DATE OF ISSUE": "31/5/2023", "DATE OF COMPLETION": "", "STATUS": "0", "ADDRESS": "5 Bethwin Pl" }, "geometry": { "type": "Point", "coordinates": [ -79.56111131, 43.68714317 ] } },
{ "type": "Feature", "properties": { "PERMIT ID": "23 127522 BLD", "DATE OF ISSUE": "10/5/2024", "DATE OF COMPLETION": "", "STATUS": "0", "ADDRESS": "115 Galley Ave" }, "geometry": { "type": "Point", "coordinates": [ -79.44553186, 43.64304785 ] } },
{ "type": "Feature", "properties": { "PERMIT ID": "23 131168 BLD", "DATE OF ISSUE": "21/7/2023", "DATE OF COMPLETION": "", "STATUS": "0", "ADDRESS": "135 Evans Ave" }, "geometry": { "type": "Point", "coordinates": [ -79.50884348, 43.61900353 ] } },
{ "type": "Feature", "properties": { "PERMIT ID": "23 132720 BLD", "DATE OF ISSUE": "18/9/2023", "DATE OF COMPLETION": "", "STATUS": "0", "ADDRESS": "41 Algoma St" }, "geometry": { "type": "Point", "coordinates": [ -79.49525364, 43.6216752 ] } },
{ "type": "Feature", "properties": { "PERMIT ID": "23 133590 BLD", "DATE OF ISSUE": "24/11/2023", "DATE OF COMPLETION": "", "STATUS": "0", "ADDRESS": "42 Agar Cres" }, "geometry": { "type": "Point", "coordinates": [ -79.55609322, 43.65556649 ] } },
{ "type": "Feature", "properties": { "PERMIT ID": "23 134773 BLD", "DATE OF ISSUE": "3/5/2023", "DATE OF COMPLETION": "", "STATUS": "0", "ADDRESS": "103 York Mills Rd" }, "geometry": { "type": "Point", "coordinates": [ -79.39799717, 43.74488065 ] } },
{ "type": "Feature", "properties": { "PERMIT ID": "23 140042 BLD", "DATE OF ISSUE": "21/11/2023", "DATE OF COMPLETION": "", "STATUS": "0", "ADDRESS": "92 Atlas Ave" }, "geometry": { "type": "Point", "coordinates": [ -79.432314, 43.68399696 ] } },
{ "type": "Feature", "properties": { "PERMIT ID": "23 140575 BLD", "DATE OF ISSUE": "31/7/2023", "DATE OF COMPLETION": "", "STATUS": "0", "ADDRESS": "15 Jean St" }, "geometry": { "type": "Point", "coordinates": [ -79.37398095, 43.68740781 ] } },
{ "type": "Feature", "properties": { "PERMIT ID": "23 141506 BLD", "DATE OF ISSUE": "2/4/2024", "DATE OF COMPLETION": "", "STATUS": "0", "ADDRESS": "838 Manning Ave" }, "geometry": { "type": "Point", "coordinates": [ -79.41823282, 43.66929153 ] } },
{ "type": "Feature", "properties": { "PERMIT ID": "23 142936 BLD", "DATE OF ISSUE": "5/1/2024", "DATE OF COMPLETION": "", "STATUS": "0", "ADDRESS": "840 Manning Ave" }, "geometry": { "type": "Point", "coordinates": [ -79.4182572, 43.6693412 ] } },
{ "type": "Feature", "properties": { "PERMIT ID": "23 144615 BLD", "DATE OF ISSUE": "27/9/2023", "DATE OF COMPLETION": "", "STATUS": "0", "ADDRESS": "35 Amelia St" }, "geometry": { "type": "Point", "coordinates": [ -79.36718253, 43.66753137 ] } },
{ "type": "Feature", "properties": { "PERMIT ID": "23 147342 BLD", "DATE OF ISSUE": "29/11/2023", "DATE OF COMPLETION": "", "STATUS": "0", "ADDRESS": "747 Glencairn Ave" }, "geometry": { "type": "Point", "coordinates": [ -79.4400575, 43.70953802 ] } },
{ "type": "Feature", "properties": { "PERMIT ID": "23 149481 BLD", "DATE OF ISSUE": "3/1/2024", "DATE OF COMPLETION": "", "STATUS": "0", "ADDRESS": "45 Weir Cres" }, "geometry": { "type": "Point", "coordinates": [ -79.19216507, 43.77371176 ] } },
{ "type": "Feature", "properties": { "PERMIT ID": "23 149722 BLD", "DATE OF ISSUE": "21/5/2024", "DATE OF COMPLETION": "", "STATUS": "0", "ADDRESS": "3 Lamella Rd" }, "geometry": { "type": "Point", "coordinates": [ -79.57355044, 43.74309014 ] } },
{ "type": "Feature", "properties": { "PERMIT ID": "23 151175 BLD", "DATE OF ISSUE": "24/10/2023", "DATE OF COMPLETION": "", "STATUS": "0", "ADDRESS": "428 Margueretta St" }, "geometry": { "type": "Point", "coordinates": [ -79.44094786, 43.66133377 ] } },
{ "type": "Feature", "properties": { "PERMIT ID": "23 156074 BLD", "DATE OF ISSUE": "6/7/2023", "DATE OF COMPLETION": "", "STATUS": "0", "ADDRESS": "352 Jones Ave" }, "geometry": { "type": "Point", "coordinates": [ -79.33751277, 43.67307325 ] } },
{ "type": "Feature", "properties": { "PERMIT ID": "23 158328 BLD", "DATE OF ISSUE": "26/7/2024", "DATE OF COMPLETION": "", "STATUS": "0", "ADDRESS": "77 Wales Ave" },