{
"type": "FeatureCollection",
"name": "Toronto_ss",
"crs": { "type": "name", "properties": { "name": "urn:ogc:def:crs:OGC:1.3:CRS84" } },
"features": [
{ "type": "Feature", "properties": { "PERMIT ID": "24 168161 BLD", "DATE OF ISSUE": "28/6/2024", "DATE OF COMPLETION": "", "STATUS": "0", "ADDRESS": "113 Poynter Dr" }, "geometry": { "type": "Point", "coordinates": [ -79.54690474, 43.69446596 ] } },
{ "type": "Feature", "properties": { "PERMIT ID": "24 169228 BLD", "DATE OF ISSUE": "28/6/2024", "DATE OF COMPLETION": "", "STATUS": "0", "ADDRESS": "39 Alanmeade Cres" }, "geometry": { "type": "Point", "coordinates": [ -79.55940392, 43.65548385 ] } },
{ "type": "Feature", "properties": { "PERMIT ID": "24 169347 BLD", "DATE OF ISSUE": "28/6/2024", "DATE OF COMPLETION": "", "STATUS": "0", "ADDRESS": "43 Moreau Trl" }, "geometry": { "type": "Point", "coordinates": [ -79.28277179, 43.7086631 ] } },
{ "type": "Feature", "properties": { "PERMIT ID": "24 168464 BLD", "DATE OF ISSUE": "27/6/2024", "DATE OF COMPLETION": "", "STATUS": "0", "ADDRESS": "280 Aylesworth Ave" }, "geometry": { "type": "Point", "coordinates": [ -79.26198548, 43.70551594 ] } },
{ "type": "Feature", "properties": { "PERMIT ID": "24 132819 BLD", "DATE OF ISSUE": "25/6/2024", "DATE OF COMPLETION": "", "STATUS": "0", "ADDRESS": "612 Van Horne Ave" }, "geometry": { "type": "Point", "coordinates": [ -79.33229274, 43.7889319 ] } },
{ "type": "Feature", "properties": { "PERMIT ID": "24 157104 BLD", "DATE OF ISSUE": "25/6/2024", "DATE OF COMPLETION": "", "STATUS": "0", "ADDRESS": "3 Plum Brook Cres" }, "geometry": { "type": "Point", "coordinates": [ -79.24255054, 43.789445 ] } },
{ "type": "Feature", "properties": { "PERMIT ID": "24 163613 BLD", "DATE OF ISSUE": "25/6/2024", "DATE OF COMPLETION": "", "STATUS": "0", "ADDRESS": "46 Martorino Dr" }, "geometry": { "type": "Point", "coordinates": [ -79.27124339, 43.72517097 ] } },
{ "type": "Feature", "properties": { "PERMIT ID": "24 164584 BLD", "DATE OF ISSUE": "24/6/2024", "DATE OF COMPLETION": "", "STATUS": "0", "ADDRESS": "19 Rangoon Rd" }, "geometry": { "type": "Point", "coordinates": [ -79.57705293, 43.66360611 ] } },
{ "type": "Feature", "properties": { "PERMIT ID": "24 167731 BLD", "DATE OF ISSUE": "21/6/2024", "DATE OF COMPLETION": "", "STATUS": "0", "ADDRESS": "10 Honbury Rd" }, "geometry": { "type": "Point", "coordinates": [ -79.57920709, 43.74124281 ] } },
{ "type": "Feature", "properties": { "PERMIT ID": "24 162823 BLD", "DATE OF ISSUE": "19/6/2024", "DATE OF COMPLETION": "", "STATUS": "0", "ADDRESS": "616 Rogers Rd" }, "geometry": { "type": "Point", "coordinates": [ -79.47358954, 43.68212433 ] } },
{ "type": "Feature", "properties": { "PERMIT ID": "24 163085 BLD", "DATE OF ISSUE": "18/6/2024", "DATE OF COMPLETION": "", "STATUS": "0", "ADDRESS": "166 Mammoth Hall Trl" }, "geometry": { "type": "Point", "coordinates": [ -79.23007235, 43.80097592 ] } },
{ "type": "Feature", "properties": { "PERMIT ID": "24 148395 BLD", "DATE OF ISSUE": "17/6/2024", "DATE OF COMPLETION": "", "STATUS": "0", "ADDRESS": "255 Bellamy Rd N" }, "geometry": { "type": "Point", "coordinates": [ -79.23215902, 43.75002423 ] } },
{ "type": "Feature", "properties": { "PERMIT ID": "24 161364 BLD", "DATE OF ISSUE": "17/6/2024", "DATE OF COMPLETION": "", "STATUS": "0", "ADDRESS": "76 Havendale Rd" }, "geometry": { "type": "Point", "coordinates": [ -79.28639896, 43.79256942 ] } },
{ "type": "Feature", "properties": { "PERMIT ID": "24 163500 BLD", "DATE OF ISSUE": "17/6/2024", "DATE OF COMPLETION": "", "STATUS": "0", "ADDRESS": "37 Waldock St" }, "geometry": { "type": "Point", "coordinates": [ -79.18980271, 43.75866389 ] } },
{ "type": "Feature", "properties": { "PERMIT ID": "24 164278 BLD", "DATE OF ISSUE": "17/6/2024", "DATE OF COMPLETION": "", "STATUS": "0", "ADDRESS": "49 Alicewood Crt" }, "geometry": { "type": "Point", "coordinates": [ -79.59454376, 43.72686411 ] } },
{ "type": "Feature", "properties": { "PERMIT ID": "24 133085 BLD", "DATE OF ISSUE": "14/6/2024", "DATE OF COMPLETION": "", "STATUS": "0", "ADDRESS": "732 Brock Ave" }, "geometry": { "type": "Point", "coordinates": [ -79.44026167, 43.66228164 ] } },
{ "type": "Feature", "properties": { "PERMIT ID": "24 134392 BLD", "DATE OF ISSUE": "12/6/2024", "DATE OF COMPLETION": "", "STATUS": "0", "ADDRESS": "284 Milverton Blvd" }, "geometry": { "type": "Point", "coordinates": [ -79.330533, 43.68559614 ] } },
{ "type": "Feature", "properties": { "PERMIT ID": "24 156190 BLD", "DATE OF ISSUE": "10/6/2024", "DATE OF COMPLETION": "", "STATUS": "0", "ADDRESS": "73 Lionhead Trl" }, "geometry": { "type": "Point", "coordinates": [ -79.16718765, 43.8082528 ] } },
{ "type": "Feature", "properties": { "PERMIT ID": "24 146918 BLD", "DATE OF ISSUE": "6/6/2024", "DATE OF COMPLETION": "", "STATUS": "0", "ADDRESS": "1001 St Clarens Ave" }, "geometry": { "type": "Point", "coordinates": [ -79.44794376, 43.67350228 ] } },
{ "type": "Feature", "properties": { "PERMIT ID": "24 152032 BLD", "DATE OF ISSUE": "6/6/2024", "DATE OF COMPLETION": "", "STATUS": "0", "ADDRESS": "28 Greybeaver Trl" }, "geometry": { "type": "Point", "coordinates": [ -79.12631985, 43.78777703 ] } },
{ "type": "Feature", "properties": { "PERMIT ID": "24 151694 BLD", "DATE OF ISSUE": "24/5/2024", "DATE OF COMPLETION": "", "STATUS": "0", "ADDRESS": "22 Pastrano Crt" }, "geometry": { "type": "Point", "coordinates": [ -79.24069454, 43.72363987 ] } },
{ "type": "Feature", "properties": { "PERMIT ID": "24 146574 BLD", "DATE OF ISSUE": "17/5/2024", "DATE OF COMPLETION": "", "STATUS": "0", "ADDRESS": "34 Oakmeadow Blvd" }, "geometry": { "type": "Point", "coordinates": [ -79.21282961, 43.78781116 ] } },
{ "type": "Feature", "properties": { "PERMIT ID": "24 145943 BLD", "DATE OF ISSUE": "16/5/2024", "DATE OF COMPLETION": "", "STATUS": "0", "ADDRESS": "67 Chipwood Cres" }, "geometry": { "type": "Point", "coordinates": [ -79.34031544, 43.79370174 ] } },
{ "type": "Feature", "properties": { "PERMIT ID": "24 133866 BLD", "DATE OF ISSUE": "13/5/2024", "DATE OF COMPLETION": "", "STATUS": "0", "ADDRESS": "194 Hilda Ave" }, "geometry": { "type": "Point", "coordinates": [ -79.42921803, 43.7951352 ] } },
{ "type": "Feature", "properties": { "PERMIT ID": "24 146446 BLD", "DATE OF ISSUE": "13/5/2024", "DATE OF COMPLETION": "", "STATUS": "0", "ADDRESS": "59 Bevdale Rd" }, "geometry": { "type": "Point", "coordinates": [ -79.43182656, 43.77487295 ] } },
{ "type": "Feature", "properties": { "PERMIT ID": "24 143246 BLD", "DATE OF ISSUE": "9/5/2024", "DATE OF COMPLETION": "", "STATUS": "0", "ADDRESS": "19 Britwell Ave" }, "geometry": { "type": "Point", "coordinates": [ -79.25744093, 43.75554303 ] } },
{ "type": "Feature", "properties": { "PERMIT ID": "24 134789 BLD", "DATE OF ISSUE": "7/5/2024", "DATE OF COMPLETION": "", "STATUS": "0", "ADDRESS": "723 St Clarens Ave" }, "geometry": { "type": "Point", "coordinates": [ -79.4445377, 43.66587352 ] } },
{ "type": "Feature", "properties": { "PERMIT ID": "24 103376 BLD", "DATE OF ISSUE": "30/4/2024", "DATE OF COMPLETION": "", "STATUS": "0", "ADDRESS": "262 McNicoll Ave" }, "geometry": { "type": "Point", "coordinates": [ -79.35033655, 43.80052097 ] } },
{ "type": "Feature", "properties": { "PERMIT ID": "24 139008 BLD", "DATE OF ISSUE": "25/4/2024", "DATE OF COMPLETION": "", "STATUS": "0", "ADDRESS": "108 Wincott Dr" }, "geometry": { "type": "Point", "coordinates": [ -79.55188344, 43.68949249 ] } },
{ "type": "Feature", "properties": { "PERMIT ID": "24 136893 BLD", "DATE OF ISSUE": "22/4/2024", "DATE OF COMPLETION": "", "STATUS": "0", "ADDRESS": "523 Midland Ave" }, "geometry": { "type": "Point", "coordinates": [ -79.25043046, 43.71739118 ] } },
{ "type": "Feature", "properties": { "PERMIT ID": "23 179109 BLD", "DATE OF ISSUE": "18/4/2024", "DATE OF COMPLETION": "", "STATUS": "0", "ADDRESS": "110 Parkview Hill Cres" }, "geometry": { "type": "Point", "coordinates": [ -79.32826951, 43.70463826 ] } },
{ "type": "Feature", "properties": { "PERMIT ID": "23 236018 BLD", "DATE OF ISSUE": "18/4/2024", "DATE OF COMPLETION": "", "STATUS": "0", "ADDRESS": "668 Jane St" }, "geometry": { "type": "Point", "coordinates": [ -79.49250621, 43.66824356 ] } },
{ "type": "Feature", "properties": { "PERMIT ID": "24 136812 BLD", "DATE OF ISSUE": "18/4/2024", "DATE OF COMPLETION": "19/6/2024", "STATUS": "1", "ADDRESS": "1300 Kingston Rd" }, "geometry": { "type": "Point", "coordinates": [ -79.27590022, 43.6846561 ] } },
{ "type": "Feature", "properties": { "PERMIT ID": "24 133178 BLD", "DATE OF ISSUE": "16/4/2024", "DATE OF COMPLETION": "", "STATUS": "0", "ADDRESS": "65 Donalda Cres" }, "geometry": { "type": "Point", "coordinates": [ -79.28252255, 43.789258 ] } },
{ "type": "Feature", "properties": { "PERMIT ID": "24 129974 BLD", "DATE OF ISSUE": "5/4/2024", "DATE OF COMPLETION": "", "STATUS": "0", "ADDRESS": "31 Wyvern Rd" }, "geometry": { "type": "Point", "coordinates": [ -79.38683149, 43.79127985 ] } },
{ "type": "Feature", "properties": { "PERMIT ID": "24 130520 BLD", "DATE OF ISSUE": "5/4/2024", "DATE OF COMPLETION": "", "STATUS": "0", "ADDRESS": "1233 King St W" }, "geometry": { "type": "Point", "coordinates": [ -79.42824896, 43.63853538 ] } },
{ "type": "Feature", "properties": { "PERMIT ID": "23 155265 BLD", "DATE OF ISSUE": "2/4/2024", "DATE OF COMPLETION": "", "STATUS": "0", "ADDRESS": "143 Chester Le Blvd" }, "geometry": { "type": "Point", "coordinates": [ -79.3300214, 43.79667097 ] } },
{ "type": "Feature", "properties": { "PERMIT ID": "24 127822 BLD", "DATE OF ISSUE": "28/3/2024", "DATE OF COMPLETION": "28/5/2024", "STATUS": "1", "ADDRESS": "9 Snowood Crt" }, "geometry": { "type": "Point", "coordinates": [ -79.52250218, 43.74310291 ] } },
{ "type": "Feature", "properties": { "PERMIT ID": "23 218512 BLD", "DATE OF ISSUE": "26/3/2024", "DATE OF COMPLETION": "25/6/2024", "STATUS": "1", "ADDRESS": "265 Apache Trl" }, "geometry": { "type": "Point", "coordinates": [ -79.33517148, 43.80001899 ] } },
{ "type": "Feature", "properties": { "PERMIT ID": "22 137958 BLD", "DATE OF ISSUE": "22/3/2024", "DATE OF COMPLETION": "", "STATUS": "0", "ADDRESS": "27 Frances Cres" }, "geometry": { "type": "Point", "coordinates": [ -79.2723987, 43.7908816 ] } },
{ "type": "Feature", "properties": { "PERMIT ID": "24 123205 BLD", "DATE OF ISSUE": "19/3/2024", "DATE OF COMPLETION": "19/6/2024", "STATUS": "1", "ADDRESS": "58 Millersgrove Dr" }, "geometry": { "type": "Point", "coordinates": [ -79.45928323, 43.7850193 ] } },
{ "type": "Feature", "properties": { "PERMIT ID": "24 110775 BLD", "DATE OF ISSUE": "18/3/2024", "DATE OF COMPLETION": "31/5/2024", "STATUS": "1", "ADDRESS": "60 McInnes Cres" }, "geometry": { "type": "Point", "coordinates": [ -79.20404125, 43.82054969 ] } },
{ "type": "Feature", "properties": { "PERMIT ID": "24 125268 BLD", "DATE OF ISSUE": "18/3/2024", "DATE OF COMPLETION": "", "STATUS": "0", "ADDRESS": "12 Raymore Dr" }, "geometry": { "type": "Point", "coordinates": [ -79.5198, 43.69653763 ] } },
{ "type": "Feature", "properties": { "PERMIT ID": "24 123178 BLD", "DATE OF ISSUE": "15/3/2024", "DATE OF COMPLETION": "", "STATUS": "0", "ADDRESS": "34 Barclay Rd" }, "geometry": { "type": "Point", "coordinates": [ -79.43808697, 43.73903006 ] } },
{ "type": "Feature", "properties": { "PERMIT ID": "24 122957 BLD", "DATE OF ISSUE": "14/3/2024", "DATE OF COMPLETION": "", "STATUS": "0", "ADDRESS": "23 Wharnsby Dr" }, "geometry": { "type": "Point", "coordinates": [ -79.22256211, 43.8206197 ] } },
{ "type": "Feature", "properties": { "PERMIT ID": "24 122758 BLD", "DATE OF ISSUE": "14/3/2024", "DATE OF COMPLETION": "23/4/2024", "STATUS": "1", "ADDRESS": "133 Earlton Rd" }, "geometry": { "type": "Point", "coordinates": [ -79.28830757, 43.78002393 ] } },
{ "type": "Feature", "properties": { "PERMIT ID": "22 236066 BLD", "DATE OF ISSUE": "13/3/2024", "DATE OF COMPLETION": "", "STATUS": "0", "ADDRESS": "19 Lormar Dr" }, "geometry": { "type": "Point", "coordinates": [ -79.55563556, 43.64072535 ] } },
{ "type": "Feature", "properties": { "PERMIT ID": "23 140783 BLD", "DATE OF ISSUE": "7/3/2024", "DATE OF COMPLETION": "27/3/2024", "STATUS": "1", "ADDRESS": "77 Ionview Rd" }, "geometry": { "type": "Point", "coordinates": [ -79.27319649, 43.73694175 ] } },
{ "type": "Feature", "properties": { "PERMIT ID": "24 120587 BLD", "DATE OF ISSUE": "5/3/2024", "DATE OF COMPLETION": "", "STATUS": "0", "ADDRESS": "177 Dunraven Dr" }, "geometry": { "type": "Point", "coordinates": [ -79.46879322, 43.68465043 ] } },
{ "type": "Feature", "properties": { "PERMIT ID": "24 121733 BLD", "DATE OF ISSUE": "5/3/2024", "DATE OF COMPLETION": "15/5/2024", "STATUS": "1", "ADDRESS": "32 Gatesview Ave" }, "geometry": { "type": "Point", "coordinates": [ -79.21434238, 43.74757401 ] } },
{ "type": "Feature", "properties": { "PERMIT ID": "24 112677 BLD", "DATE OF ISSUE": "4/3/2024", "DATE OF COMPLETION": "19/6/2024", "STATUS": "1", "ADDRESS": "180 Bob Yuill Dr" }, "geometry": { "type": "Point", "coordinates": [ -79.53589547, 43.73105427 ] } },
{ "type": "Feature", "properties": { "PERMIT ID": "23 196191 BLD", "DATE OF ISSUE": "28/2/2024", "DATE OF COMPLETION": "", "STATUS": "0", "ADDRESS": "577 O'Connor Dr" }, "geometry": { "type": "Point", "coordinates": [ -79.32793298, 43.69786615 ] } },
{ "type": "Feature", "properties": { "PERMIT ID": "23 228596 BLD", "DATE OF ISSUE": "23/2/2024", "DATE OF COMPLETION": "", "STATUS": "0", "ADDRESS": "2 Glenheather Ter" }, "geometry": { "type": "Point", "coordinates": [ -79.20758574, 43.81803711 ] } },
{ "type": "Feature", "properties": { "PERMIT ID": "24 115833 BLD", "DATE OF ISSUE": "23/2/2024", "DATE OF COMPLETION": "17/6/2024", "STATUS": "1", "ADDRESS": "25 Franson Cres" }, "geometry": { "type": "Point", "coordinates": [ -79.54267488, 43.74027344 ] } },
{ "type": "Feature", "properties": { "PERMIT ID": "24 113229 BLD", "DATE OF ISSUE": "21/2/2024", "DATE OF COMPLETION": "24/4/2024", "STATUS": "1", "ADDRESS": "7 Warbler Crcl" }, "geometry": { "type": "Point", "coordinates": [ -79.22032364, 43.82674655 ] } },
{ "type": "Feature", "properties": { "PERMIT ID": "24 116333 BLD", "DATE OF ISSUE": "21/2/2024", "DATE OF COMPLETION": "14/6/2024", "STATUS": "1", "ADDRESS": "43 Harcourt Ave" }, "geometry": { "type": "Point", "coordinates": [ -79.34371778, 43.67729334 ] } },
{ "type": "Feature", "properties": { "PERMIT ID": "24 115176 BLD", "DATE OF ISSUE": "20/2/2024", "DATE OF COMPLETION": "", "STATUS": "0", "ADDRESS": "1034 St Clarens Ave" }, "geometry": { "type": "Point", "coordinates": [ -79.44874053, 43.67426566 ] } },
{ "type": "Feature", "properties": { "PERMIT ID": "24 114396 BLD", "DATE OF ISSUE": "20/2/2024", "DATE OF COMPLETION": "4/6/2024", "STATUS": "1", "ADDRESS": "35 Dorward Dr" }, "geometry": { "type": "Point", "coordinates": [ -79.59269452, 43.74810854 ] } },
{ "type": "Feature", "properties": { "PERMIT ID": "24 113281 BLD", "DATE OF ISSUE": "15/2/2024", "DATE OF COMPLETION": "6/6/2024", "STATUS": "1", "ADDRESS": "4 Rivendell Trl" }, "geometry": { "type": "Point", "coordinates": [ -79.22582213, 43.83365179 ] } },
{ "type": "Feature", "properties": { "PERMIT ID": "24 113012 BLD", "DATE OF ISSUE": "13/2/2024", "DATE OF COMPLETION": "", "STATUS": "0", "ADDRESS": "38 Jordanroch Crt" }, "geometry": { "type": "Point", "coordinates": [ -79.32360555, 43.81127777 ] } },
{ "type": "Feature", "properties": { "PERMIT ID": "24 110161 BLD", "DATE OF ISSUE": "7/2/2024", "DATE OF COMPLETION": "", "STATUS": "0", "ADDRESS": "359 Apache Trl" }, "geometry": { "type": "Point", "coordinates": [ -79.33932691, 43.80033806 ] } },
{ "type": "Feature", "properties": { "PERMIT ID": "24 111174 BLD", "DATE OF ISSUE": "6/2/2024", "DATE OF COMPLETION": "24/5/2024", "STATUS": "1", "ADDRESS": "8 Lakewood Ave" }, "geometry": { "type": "Point", "coordinates": [ -79.25013595, 43.70112106 ] } },
{ "type": "Feature", "properties": { "PERMIT ID": "24 108624 BLD", "DATE OF ISSUE": "1/2/2024", "DATE OF COMPLETION": "", "STATUS": "0", "ADDRESS": "3 Highcliff Cres" }, "geometry": { "type": "Point", "coordinates": [ -79.24479236, 43.70670183 ] } },
{ "type": "Feature", "properties": { "PERMIT ID": "23 214938 BLD", "DATE OF ISSUE": "26/1/2024", "DATE OF COMPLETION": "23/4/2024", "STATUS": "1", "ADDRESS": "226 Winona Dr" }, "geometry": { "type": "Point", "coordinates": [ -79.43334767, 43.68124206 ] } },
{ "type": "Feature", "properties": { "PERMIT ID": "24 105620 BLD", "DATE OF ISSUE": "25/1/2024", "DATE OF COMPLETION": "10/6/2024", "STATUS": "1", "ADDRESS": "10 Austin Ter" }, "geometry": { "type": "Point", "coordinates": [ -79.40934854, 43.67892769 ] } },
{ "type": "Feature", "properties": { "PERMIT ID": "24 104774 BLD", "DATE OF ISSUE": "24/1/2024", "DATE OF COMPLETION": "", "STATUS": "0", "ADDRESS": "2 Homestead Rd" }, "geometry": { "type": "Point", "coordinates": [ -79.17639023, 43.76007176 ] } },
{ "type": "Feature", "properties": { "PERMIT ID": "23 210105 BLD", "DATE OF ISSUE": "22/1/2024", "DATE OF COMPLETION": "", "STATUS": "0", "ADDRESS": "230 Rosemount Ave" }, "geometry": { "type": "Point", "coordinates": [ -79.52374907, 43.70703529 ] } },
{ "type": "Feature", "properties": { "PERMIT ID": "24 104666 BLD", "DATE OF ISSUE": "22/1/2024", "DATE OF COMPLETION": "30/5/2024", "STATUS": "1", "ADDRESS": "62 Romulus Dr" }, "geometry": { "type": "Point", "coordinates": [ -79.26674315, 43.74577301 ] } },
{ "type": "Feature", "properties": { "PERMIT ID": "24 103162 BLD", "DATE OF ISSUE": "17/1/2024", "DATE OF COMPLETION": "", "STATUS": "0", "ADDRESS": "482 Glenholme Ave" }, "geometry": { "type": "Point", "coordinates": [ -79.44398826, 43.69153292 ] } },
{ "type": "Feature", "properties": { "PERMIT ID": "24 102837 BLD", "DATE OF ISSUE": "17/1/2024", "DATE OF COMPLETION": "3/4/2024", "STATUS": "1", "ADDRESS": "14 Suraty Ave" }, "geometry": { "type": "Point", "coordinates": [ -79.24958369, 43.76101846 ] } },
{ "type": "Feature", "properties": { "PERMIT ID": "24 103017 BLD", "DATE OF ISSUE": "15/1/2024", "DATE OF COMPLETION": "12/4/2024", "STATUS": "1", "ADDRESS": "29 Scarboro Ave" }, "geometry": { "type": "Point", "coordinates": [ -79.17024403, 43.79255087 ] } },
{ "type": "Feature", "properties": { "PERMIT ID": "24 102383 BLD", "DATE OF ISSUE": "11/1/2024", "DATE OF COMPLETION": "31/5/2024", "STATUS": "1", "ADDRESS": "36 Forbes Rd" }, "geometry": { "type": "Point", "coordinates": [ -79.28002642, 43.75536056 ] } },
{ "type": "Feature", "properties": { "PERMIT ID": "23 236349 BLD", "DATE OF ISSUE": "10/1/2024", "DATE OF COMPLETION": "", "STATUS": "0", "ADDRESS": "981 Dundas St W" }, "geometry": { "type": "Point", "coordinates": [ -79.41529971, 43.65022659 ] } },
{ "type": "Feature", "properties": { "PERMIT ID": "23 237560 BLD", "DATE OF ISSUE": "3/1/2024", "DATE OF COMPLETION": "4/4/2024", "STATUS": "1", "ADDRESS": "11 Eagle Rd" }, "geometry": { "type": "Point", "coordinates": [ -79.51960377, 43.64506057 ] } },
{ "type": "Feature", "properties": { "PERMIT ID": "23 238366 BLD", "DATE OF ISSUE": "3/1/2024", "DATE OF COMPLETION": "23/4/2024", "STATUS": "1", "ADDRESS": "33 Boarhill Dr" }, "geometry": { "type": "Point", "coordinates": [ -79.28225337, 43.79989057 ] } },
{ "type": "Feature", "properties": { "PERMIT ID": "23 239121 BLD", "DATE OF ISSUE": "3/1/2024", "DATE OF COMPLETION": "7/3/2024", "STATUS": "1", "ADDRESS": "51 Haynes Ave" }, "geometry": { "type": "Point", "coordinates": [ -79.4989972, 43.76781468 ] } },
{ "type": "Feature", "properties": { "PERMIT ID": "22 222226 BLD", "DATE OF ISSUE": "2/1/2024", "DATE OF COMPLETION": "11/1/2024", "STATUS": "1", "ADDRESS": "24 Cedarview Dr" }, "geometry": { "type": "Point", "coordinates": [ -79.15481784, 43.78805763 ] } },
{ "type": "Feature", "properties": { "PERMIT ID": "23 238695 BLD", "DATE OF ISSUE": "2/1/2024", "DATE OF COMPLETION": "27/3/2024", "STATUS": "1", "ADDRESS": "27 Trumpeter St" }, "geometry": { "type": "Point", "coordinates": [ -79.18551383, 43.80643827 ] } },
{ "type": "Feature", "properties": { "PERMIT ID": "23 189889 BLD", "DATE OF ISSUE": "27/12/2023", "DATE OF COMPLETION": "2/5/2024", "STATUS": "1", "ADDRESS": "44 Larkin Ave" }, "geometry": { "type": "Point", "coordinates": [ -79.48474234, 43.64826381 ] } },
{ "type": "Feature", "properties": { "PERMIT ID": "23 237164 BLD", "DATE OF ISSUE": "22/12/2023", "DATE OF COMPLETION": "5/4/2024", "STATUS": "1", "ADDRESS": "114 Castlegrove Blvd" }, "geometry": { "type": "Point", "coordinates": [ -79.31481447, 43.74967641 ] } },
{ "type": "Feature", "properties": { "PERMIT ID": "23 195649 BLD", "DATE OF ISSUE": "21/12/2023", "DATE OF COMPLETION": "22/12/2023", "STATUS": "1", "ADDRESS": "488 Scarborough Golf Club Rd" }, "geometry": { "type": "Point", "coordinates": [ -79.21495292, 43.75800758 ] } },
{ "type": "Feature", "properties": { "PERMIT ID": "23 237594 BLD", "DATE OF ISSUE": "21/12/2023", "DATE OF COMPLETION": "29/4/2024", "STATUS": "1", "ADDRESS": "760 Brimorton Dr" }, "geometry": { "type": "Point", "coordinates": [ -79.22287338, 43.77343614 ] } },
{ "type": "Feature", "properties": { "PERMIT ID": "23 236127 BLD", "DATE OF ISSUE": "20/12/2023", "DATE OF COMPLETION": "4/1/2024", "STATUS": "1", "ADDRESS": "32 Boake St" }, "geometry": { "type": "Point", "coordinates": [ -79.50069682, 43.76822174 ] } },
{ "type": "Feature", "properties": { "PERMIT ID": "23 235442 BLD", "DATE OF ISSUE": "19/12/2023", "DATE OF COMPLETION": "", "STATUS": "0", "ADDRESS": "7 Stoney Creek Dr" }, "geometry": { "type": "Point", "coordinates": [ -79.17009631, 43.77005319 ] } },
{ "type": "Feature", "properties": { "PERMIT ID": "23 234558 BLD", "DATE OF ISSUE": "18/12/2023", "DATE OF COMPLETION": "", "STATUS": "0", "ADDRESS": "9 Wandering Trl" }, "geometry": { "type": "Point", "coordinates": [ -79.20621136, 43.82173404 ] } },
{ "type": "Feature", "properties": { "PERMIT ID": "23 215434 BLD", "DATE OF ISSUE": "15/12/2023", "DATE OF COMPLETION": "26/4/2024", "STATUS": "1", "ADDRESS": "72 Fairglen Ave" }, "geometry": { "type": "Point", "coordinates": [ -79.32294819, 43.78049176 ] } },
{ "type": "Feature", "properties": { "PERMIT ID": "23 234893 BLD", "DATE OF ISSUE": "15/12/2023", "DATE OF COMPLETION": "17/4/2024", "STATUS": "1", "ADDRESS": "35 Shaver Ave N" }, "geometry": { "type": "Point", "coordinates": [ -79.54810892, 43.64077561 ] } },
{ "type": "Feature", "properties": { "PERMIT ID": "23 233222 BLD", "DATE OF ISSUE": "11/12/2023", "DATE OF COMPLETION": "21/5/2024", "STATUS": "1", "ADDRESS": "16 Archimedes Crt" }, "geometry": { "type": "Point", "coordinates": [ -79.1683597, 43.79746121 ] } },
{ "type": "Feature", "properties": { "PERMIT ID": "23 232591 BLD", "DATE OF ISSUE": "7/12/2023", "DATE OF COMPLETION": "26/1/2024", "STATUS": "1", "ADDRESS": "6 Elderfield Cres" }, "geometry": { "type": "Point", "coordinates": [ -79.57058788, 43.64570471 ] } },
{ "type": "Feature", "properties": { "PERMIT ID": "23 231564 BLD", "DATE OF ISSUE": "6/12/2023", "DATE OF COMPLETION": "8/5/2024", "STATUS": "1", "ADDRESS": "19 Oakridge Dr" }, "geometry": { "type": "Point", "coordinates": [ -79.24238437, 43.72683039 ] } },
{ "type": "Feature", "properties": { "PERMIT ID": "23 232411 BLD", "DATE OF ISSUE": "6/12/2023", "DATE OF COMPLETION": "21/2/2024", "STATUS": "1", "ADDRESS": "50 Cinrickbar Dr" }, "geometry": { "type": "Point", "coordinates": [ -79.61593445, 43.72056175 ] } },
{ "type": "Feature", "properties": { "PERMIT ID": "23 229927 BLD", "DATE OF ISSUE": "1/12/2023", "DATE OF COMPLETION": "6/2/2024", "STATUS": "1", "ADDRESS": "52 Amberdale Dr" }, "geometry": { "type": "Point", "coordinates": [ -79.25290273, 43.76472697 ] } },
{ "type": "Feature", "properties": { "PERMIT ID": "23 229923 BLD", "DATE OF ISSUE": "29/11/2023", "DATE OF COMPLETION": "6/2/2024", "STATUS": "1", "ADDRESS": "258 Valermo Dr" }, "geometry": { "type": "Point", "coordinates": [ -79.53032935, 43.61008616 ] } },
{ "type": "Feature", "properties": { "PERMIT ID": "23 220755 BLD", "DATE OF ISSUE": "27/11/2023", "DATE OF COMPLETION": "", "STATUS": "0", "ADDRESS": "45 Stephanie St" }, "geometry": { "type": "Point", "coordinates": [ -79.39214752, 43.65091593 ] } },
{ "type": "Feature", "properties": { "PERMIT ID": "23 220568 BLD", "DATE OF ISSUE": "27/11/2023", "DATE OF COMPLETION": "15/5/2024", "STATUS": "1", "ADDRESS": "37 Jane Osler Blvd" }, "geometry": { "type": "Point", "coordinates": [ -79.46048834, 43.72399135 ] } },
{ "type": "Feature", "properties": { "PERMIT ID": "23 228777 BLD", "DATE OF ISSUE": "27/11/2023", "DATE OF COMPLETION": "8/2/2024", "STATUS": "1", "ADDRESS": "16 Clarkhill St" }, "geometry": { "type": "Point", "coordinates": [ -79.4358315, 43.77671929 ] } },
{ "type": "Feature", "properties": { "PERMIT ID": "23 189488 BLD", "DATE OF ISSUE": "24/11/2023", "DATE OF COMPLETION": "14/2/2024", "STATUS": "1", "ADDRESS": "77 Highcastle Rd" }, "geometry": { "type": "Point", "coordinates": [ -79.21596534, 43.79066169 ] } },
{ "type": "Feature", "properties": { "PERMIT ID": "23 228312 BLD", "DATE OF ISSUE": "23/11/2023", "DATE OF COMPLETION": "24/5/2024", "STATUS": "1", "ADDRESS": "176 Conlins Rd" }, "geometry": { "type": "Point", "coordinates": [ -79.1841783, 43.7893531 ] } },
{ "type": "Feature", "properties": { "PERMIT ID": "23 155793 BLD", "DATE OF ISSUE": "22/11/2023", "DATE OF COMPLETION": "14/3/2024", "STATUS": "1", "ADDRESS": "30 Struthers St" }, "geometry": { "type": "Point", "coordinates": [ -79.49698244, 43.60910286 ] } },
{ "type": "Feature", "properties": { "PERMIT ID": "23 182731 BLD", "DATE OF ISSUE": "21/11/2023", "DATE OF COMPLETION": "", "STATUS": "0", "ADDRESS": "10 Trumpeter St" }, "geometry": { "type": "Point", "coordinates": [ -79.18663625, 43.80655091 ] } },
{ "type": "Feature", "properties": { "PERMIT ID": "23 190930 BLD", "DATE OF ISSUE": "21/11/2023", "DATE OF COMPLETION": "28/2/2024", "STATUS": "1", "ADDRESS": "7 Moncrieff Dr" }, "geometry": { "type": "Point", "coordinates": [ -79.57078184, 43.72300819 ] } },
{ "type": "Feature", "properties": { "PERMIT ID": "23 224591 BLD", "DATE OF ISSUE": "21/11/2023", "DATE OF COMPLETION": "14/5/2024", "STATUS": "1", "ADDRESS": "8 Calthorpe Ave" }, "geometry": { "type": "Point", "coordinates": [ -79.18127275, 43.78899796 ] } },
{ "type": "Feature", "properties": { "PERMIT ID": "23 224465 BLD", "DATE OF ISSUE": "20/11/2023", "DATE OF COMPLETION": "23/5/2024", "STATUS": "1", "ADDRESS": "67 Grapevine Crcl" }, "geometry": { "type": "Point", "coordinates": [ -79.22861746, 43.83090334 ] } },
{ "type": "Feature", "properties": { "PERMIT ID": "23 226574 BLD", "DATE OF ISSUE": "20/11/2023", "DATE OF COMPLETION": "22/4/2024", "STATUS": "1", "ADDRESS": "163 Regina Ave" }, "geometry": { "type": "Point", "coordinates": [ -79.44451468, 43.72485741 ] } },
{ "type": "Feature", "properties": { "PERMIT ID": "23 198803 BLD", "DATE OF ISSUE": "17/11/2023", "DATE OF COMPLETION": "4/6/2024", "STATUS": "1", "ADDRESS": "50 Glenridge Rd" }, "geometry": { "type": "Point", "coordinates": [ -79.24511122, 43.71163903 ] } },
{ "type": "Feature", "properties": { "PERMIT ID": "23 193810 BLD", "DATE OF ISSUE": "15/11/2023", "DATE OF COMPLETION": "", "STATUS": "0", "ADDRESS": "4 Chapel Rd" }, "geometry": { "type": "Point", "coordinates": [ -79.53277008, 43.58977798 ] } },
{ "type": "Feature", "properties": { "PERMIT ID": "23 196405 BLD", "DATE OF ISSUE": "8/11/2023", "DATE OF COMPLETION": "16/1/2024", "STATUS": "1", "ADDRESS": "12 Chandler Dr" }, "geometry": { "type": "Point", "coordinates": [ -79.2202273, 43.76324056 ] } },
{ "type": "Feature", "properties": { "PERMIT ID": "23 221588 BLD", "DATE OF ISSUE": "8/11/2023", "DATE OF COMPLETION": "24/6/2024", "STATUS": "1", "ADDRESS": "28 Garnock Ave" }, "geometry": { "type": "Point", "coordinates": [ -79.35080116, 43.67636668 ] } },
{ "type": "Feature", "properties": { "PERMIT ID": "23 192964 BLD", "DATE OF ISSUE": "3/11/2023", "DATE OF COMPLETION": "11/1/2024", "STATUS": "1", "ADDRESS": "65 Woodbury Rd" }, "geometry": { "type": "Point", "coordinates": [ -79.54918676, 43.59785714 ] } },
{ "type": "Feature", "properties": { "PERMIT ID": "23 199722 BLD", "DATE OF ISSUE": "2/11/2023", "DATE OF COMPLETION": "", "STATUS": "0", "ADDRESS": "54 Snowcrest Ave" }, "geometry": { "type": "Point", "coordinates": [ -79.38263128, 43.79263718 ] } },
{ "type": "Feature", "properties": { "PERMIT ID": "23 193237 BLD", "DATE OF ISSUE": "1/11/2023", "DATE OF COMPLETION": "21/2/2024", "STATUS": "1", "ADDRESS": "39 Wyndcliff Cres" }, "geometry": { "type": "Point", "coordinates": [ -79.31752602, 43.7364787 ] } },
{ "type": "Feature", "properties": { "PERMIT ID": "23 218463 BLD", "DATE OF ISSUE": "30/10/2023", "DATE OF COMPLETION": "", "STATUS": "0", "ADDRESS": "18 Patrick Blvd" }, "geometry": { "type": "Point", "coordinates": [ -79.32957895, 43.77676453 ] } },
{ "type": "Feature", "properties": { "PERMIT ID": "23 218763 BLD", "DATE OF ISSUE": "30/10/2023", "DATE OF COMPLETION": "", "STATUS": "0", "ADDRESS": "61 Navenby Cres" }, "geometry": { "type": "Point", "coordinates": [ -79.56272052, 43.75579968 ] } },
{ "type": "Feature", "properties": { "PERMIT ID": "23 216497 BLD", "DATE OF ISSUE": "26/10/2023", "DATE OF COMPLETION": "4/6/2024", "STATUS": "1", "ADDRESS": "26 Loma Rd" }, "geometry": { "type": "Point", "coordinates": [ -79.50932363, 43.62673363 ] } },
{ "type": "Feature", "properties": { "PERMIT ID": "23 217704 BLD", "DATE OF ISSUE": "26/10/2023", "DATE OF COMPLETION": "28/2/2024", "STATUS": "1", "ADDRESS": "48 Blackwater Cres" }, "geometry": { "type": "Point", "coordinates": [ -79.21708837, 43.79868999 ] } },
{ "type": "Feature", "properties": { "PERMIT ID": "23 179689 BLD", "DATE OF ISSUE": "24/10/2023", "DATE OF COMPLETION": "22/1/2024", "STATUS": "1", "ADDRESS": "157 Geoffrey St" }, "geometry": { "type": "Point", "coordinates": [ -79.45139179, 43.64751396 ] } },
{ "type": "Feature", "properties": { "PERMIT ID": "23 214912 BLD", "DATE OF ISSUE": "23/10/2023", "DATE OF COMPLETION": "28/6/2024", "STATUS": "1", "ADDRESS": "65 Summit Ave" }, "geometry": { "type": "Point", "coordinates": [ -79.46058985, 43.68630157 ] } },
{ "type": "Feature", "properties": { "PERMIT ID": "23 213621 BLD", "DATE OF ISSUE": "20/10/2023", "DATE OF COMPLETION": "", "STATUS": "0", "ADDRESS": "67 Rushley Dr" }, "geometry": { "type": "Point", "coordinates": [ -79.25912398, 43.75618022 ] } },
{ "type": "Feature", "properties": { "PERMIT ID": "23 215931 BLD", "DATE OF ISSUE": "20/10/2023", "DATE OF COMPLETION": "5/4/2024", "STATUS": "1", "ADDRESS": "92 Pettit Dr" }, "geometry": { "type": "Point", "coordinates": [ -79.54672005, 43.68183191 ] } },
{ "type": "Feature", "properties": { "PERMIT ID": "23 213454 BLD", "DATE OF ISSUE": "19/10/2023", "DATE OF COMPLETION": "8/12/2023", "STATUS": "1", "ADDRESS": "61 Galloway Rd" }, "geometry": { "type": "Point", "coordinates": [ -79.19122715, 43.75488401 ] } },
{ "type": "Feature", "properties": { "PERMIT ID": "23 215335 BLD", "DATE OF ISSUE": "19/10/2023", "DATE OF COMPLETION": "4/3/2024", "STATUS": "1", "ADDRESS": "247 Taysham Cres" }, "geometry": { "type": "Point", "coordinates": [ -79.57447508, 43.73916701 ] } },
{ "type": "Feature", "properties": { "PERMIT ID": "23 214669 BLD", "DATE OF ISSUE": "18/10/2023", "DATE OF COMPLETION": "30/1/2024", "STATUS": "1", "ADDRESS": "30 Pintail Cres" }, "geometry": { "type": "Point", "coordinates": [ -79.31920301, 43.76187572 ] } },
{ "type": "Feature", "properties": { "PERMIT ID": "23 213433 BLD", "DATE OF ISSUE": "17/10/2023", "DATE OF COMPLETION": "4/3/2024", "STATUS": "1", "ADDRESS": "12 Walbon Rd" }, "geometry": { "type": "Point", "coordinates": [ -79.29435842, 43.73952146 ] } },
{ "type": "Feature", "properties": { "PERMIT ID": "23 202292 BLD", "DATE OF ISSUE": "5/10/2023", "DATE OF COMPLETION": "31/1/2024", "STATUS": "1", "ADDRESS": "19 Baybrook Cres" }, "geometry": { "type": "Point", "coordinates": [ -79.24462557, 43.76721449 ] } },
{ "type": "Feature", "properties": { "PERMIT ID": "23 208755 BLD", "DATE OF ISSUE": "3/10/2023", "DATE OF COMPLETION": "13/2/2024", "STATUS": "1", "ADDRESS": "657 Pharmacy Ave" }, "geometry": { "type": "Point", "coordinates": [ -79.29140142, 43.71182376 ] } },
{ "type": "Feature", "properties": { "PERMIT ID": "23 141926 BLD", "DATE OF ISSUE": "29/9/2023", "DATE OF COMPLETION": "5/4/2024", "STATUS": "1", "ADDRESS": "12 Hopecrest Cres" }, "geometry": { "type": "Point", "coordinates": [ -79.2662138, 43.72462428 ] } },
{ "type": "Feature", "properties": { "PERMIT ID": "23 178140 BLD", "DATE OF ISSUE": "29/9/2023", "DATE OF COMPLETION": "22/5/2024", "STATUS": "1", "ADDRESS": "26 Farr Ave" }, "geometry": { "type": "Point", "coordinates": [ -79.5813211, 43.74375416 ] } },
{ "type": "Feature", "properties": { "PERMIT ID": "23 208336 BLD", "DATE OF ISSUE": "29/9/2023", "DATE OF COMPLETION": "9/4/2024", "STATUS": "1", "ADDRESS": "221 Willowridge Rd" }, "geometry": { "type": "Point", "coordinates": [ -79.57168079, 43.67662804 ] } },
{ "type": "Feature", "properties": { "PERMIT ID": "23 201310 BLD", "DATE OF ISSUE": "28/9/2023", "DATE OF COMPLETION": "", "STATUS": "0", "ADDRESS": "53 Savona Dr" }, "geometry": { "type": "Point", "coordinates": [ -79.55358854, 43.60595355 ] } },
{ "type": "Feature", "properties": { "PERMIT ID": "23 201550 BLD", "DATE OF ISSUE": "28/9/2023", "DATE OF COMPLETION": "", "STATUS": "0", "ADDRESS": "35 Leahurst Dr" }, "geometry": { "type": "Point", "coordinates": [ -79.29070198, 43.71786589 ] } },
{ "type": "Feature", "properties": { "PERMIT ID": "23 205400 BLD", "DATE OF ISSUE": "28/9/2023", "DATE OF COMPLETION": "13/2/2024", "STATUS": "1", "ADDRESS": "12 Christina Cres" }, "geometry": { "type": "Point", "coordinates": [ -79.31204238, 43.76023522 ] } },
{ "type": "Feature", "properties": { "PERMIT ID": "23 206828 BLD", "DATE OF ISSUE": "28/9/2023", "DATE OF COMPLETION": "14/11/2023", "STATUS": "1", "ADDRESS": "120 Hiscock Blvd" }, "geometry": { "type": "Point", "coordinates": [ -79.2260027, 43.76688147 ] } },
{ "type": "Feature", "properties": { "PERMIT ID": "23 207550 BLD", "DATE OF ISSUE": "28/9/2023", "DATE OF COMPLETION": "2/11/2023", "STATUS": "1", "ADDRESS": "218 Drewry Ave" }, "geometry": { "type": "Point", "coordinates": [ -79.42743452, 43.7851571 ] } },
{ "type": "Feature", "properties": { "PERMIT ID": "23 204802 BLD", "DATE OF ISSUE": "26/9/2023", "DATE OF COMPLETION": "26/1/2024", "STATUS": "1", "ADDRESS": "6 Franca Cres" }, "geometry": { "type": "Point", "coordinates": [ -79.59374445, 43.7568552 ] } },
{ "type": "Feature", "properties": { "PERMIT ID": "23 200592 BLD", "DATE OF ISSUE": "25/9/2023", "DATE OF COMPLETION": "4/6/2024", "STATUS": "1", "ADDRESS": "59 McKnight Dr" }, "geometry": { "type": "Point", "coordinates": [ -79.2055147, 43.81227644 ] } },
{ "type": "Feature", "properties": { "PERMIT ID": "23 192566 BLD", "DATE OF ISSUE": "22/9/2023", "DATE OF COMPLETION": "", "STATUS": "0", "ADDRESS": "29 Samya Crt" }, "geometry": { "type": "Point", "coordinates": [ -79.29684915, 43.74062347 ] } },
{ "type": "Feature", "properties": { "PERMIT ID": "23 204315 BLD", "DATE OF ISSUE": "21/9/2023", "DATE OF COMPLETION": "", "STATUS": "0", "ADDRESS": "15 Medici Crt" }, "geometry": { "type": "Point", "coordinates": [ -79.25527065, 43.75018201 ] } },
{ "type": "Feature", "properties": { "PERMIT ID": "21 181823 BLD", "DATE OF ISSUE": "19/9/2023", "DATE OF COMPLETION": "11/1/2024", "STATUS": "1", "ADDRESS": "3165 Weston Rd" }, "geometry": { "type": "Point", "coordinates": [ -79.53838587, 43.73588398 ] } },
{ "type": "Feature", "properties": { "PERMIT ID": "23 175519 BLD", "DATE OF ISSUE": "18/9/2023", "DATE OF COMPLETION": "", "STATUS": "0", "ADDRESS": "1 Bartonville Ave W" }, "geometry": { "type": "Point", "coordinates": [ -79.49665343, 43.68910429 ] } },
{ "type": "Feature", "properties": { "PERMIT ID": "23 198615 BLD", "DATE OF ISSUE": "8/9/2023", "DATE OF COMPLETION": "4/12/2023", "STATUS": "1", "ADDRESS": "44 Holswade Rd" }, "geometry": { "type": "Point", "coordinates": [ -79.29567086, 43.7199652 ] } },
{ "type": "Feature", "properties": { "PERMIT ID": "23 188195 BLD", "DATE OF ISSUE": "7/9/2023", "DATE OF COMPLETION": "22/11/2023", "STATUS": "1", "ADDRESS": "33 Royal Rouge Trl" }, "geometry": { "type": "Point", "coordinates": [ -79.14996743, 43.80141503 ] } },
{ "type": "Feature", "properties": { "PERMIT ID": "23 198194 BLD", "DATE OF ISSUE": "7/9/2023", "DATE OF COMPLETION": "27/11/2023", "STATUS": "1", "ADDRESS": "14 Massie St" }, "geometry": { "type": "Point", "coordinates": [ -79.24442538, 43.78964129 ] } },
{ "type": "Feature", "properties": { "PERMIT ID": "23 196442 BLD", "DATE OF ISSUE": "6/9/2023", "DATE OF COMPLETION": "7/5/2024", "STATUS": "1", "ADDRESS": "1 Ffolkes Crt" }, "geometry": { "type": "Point", "coordinates": [ -79.61142692, 43.73186997 ] } },
{ "type": "Feature", "properties": { "PERMIT ID": "23 195879 BLD", "DATE OF ISSUE": "5/9/2023", "DATE OF COMPLETION": "", "STATUS": "0", "ADDRESS": "7 Tait Crt" }, "geometry": { "type": "Point", "coordinates": [ -79.23249176, 43.84034109 ] } },
{ "type": "Feature", "properties": { "PERMIT ID": "23 185652 BLD", "DATE OF ISSUE": "5/9/2023", "DATE OF COMPLETION": "14/6/2024", "STATUS": "1", "ADDRESS": "310 Pharmacy Ave" }, "geometry": { "type": "Point", "coordinates": [ -79.28791269, 43.70210003 ] } },
{ "type": "Feature", "properties": { "PERMIT ID": "23 195250 BLD", "DATE OF ISSUE": "5/9/2023", "DATE OF COMPLETION": "7/2/2024", "STATUS": "1", "ADDRESS": "94 August Ave" }, "geometry": { "type": "Point", "coordinates": [ -79.28208088, 43.6942752 ] } },
{ "type": "Feature", "properties": { "PERMIT ID": "23 197884 BLD", "DATE OF ISSUE": "5/9/2023", "DATE OF COMPLETION": "20/10/2023", "STATUS": "1", "ADDRESS": "41 Langfield Cres" }, "geometry": { "type": "Point", "coordinates": [ -79.59032946, 43.74833154 ] } },
{ "type": "Feature", "properties": { "PERMIT ID": "23 194134 BLD", "DATE OF ISSUE": "1/9/2023", "DATE OF COMPLETION": "17/10/2023", "STATUS": "1", "ADDRESS": "7 Helmsdale Cres" }, "geometry": { "type": "Point", "coordinates": [ -79.60288492, 43.74732423 ] } },
{ "type": "Feature", "properties": { "PERMIT ID": "23 145773 BLD", "DATE OF ISSUE": "31/8/2023", "DATE OF COMPLETION": "", "STATUS": "0", "ADDRESS": "6 Larkhall Ave" }, "geometry": { "type": "Point", "coordinates": [ -79.25356292, 43.75130726 ] } },
{ "type": "Feature", "properties": { "PERMIT ID": "23 180951 BLD", "DATE OF ISSUE": "31/8/2023", "DATE OF COMPLETION": "", "STATUS": "0", "ADDRESS": "27 McAdam Ave" }, "geometry": { "type": "Point", "coordinates": [ -79.45803273, 43.72222205 ] } },
{ "type": "Feature", "properties": { "PERMIT ID": "23 193572 BLD", "DATE OF ISSUE": "31/8/2023", "DATE OF COMPLETION": "21/9/2023", "STATUS": "1", "ADDRESS": "19 Elmbrook Cres" }, "geometry": { "type": "Point", "coordinates": [ -79.58558662, 43.65858596 ] } },
{ "type": "Feature", "properties": { "PERMIT ID": "23 180463 BLD", "DATE OF ISSUE": "29/8/2023", "DATE OF COMPLETION": "31/1/2024", "STATUS": "1", "ADDRESS": "96 Waterton Rd" }, "geometry": { "type": "Point", "coordinates": [ -79.51818658, 43.69592032 ] } },
{ "type": "Feature", "properties": { "PERMIT ID": "23 171944 BLD", "DATE OF ISSUE": "23/8/2023", "DATE OF COMPLETION": "6/2/2024", "STATUS": "1", "ADDRESS": "411 Margueretta St" }, "geometry": { "type": "Point", "coordinates": [ -79.44028205, 43.66100276 ] } },
{ "type": "Feature", "properties": { "PERMIT ID": "23 189683 BLD", "DATE OF ISSUE": "21/8/2023", "DATE OF COMPLETION": "", "STATUS": "0", "ADDRESS": "22 Picola Crt" }, "geometry": { "type": "Point", "coordinates": [ -79.34921556, 43.8022107 ] } },
{ "type": "Feature", "properties": { "PERMIT ID": "23 181466 BLD", "DATE OF ISSUE": "21/8/2023", "DATE OF COMPLETION": "7/3/2024", "STATUS": "1", "ADDRESS": "60 Edenmills Dr" }, "geometry": { "type": "Point", "coordinates": [ -79.20821022, 43.79352455 ] } },
{ "type": "Feature", "properties": { "PERMIT ID": "22 213641 BLD", "DATE OF ISSUE": "18/8/2023", "DATE OF COMPLETION": "", "STATUS": "0", "ADDRESS": "41 Glenthorne Dr" }, "geometry": { "type": "Point", "coordinates": [ -79.17690214, 43.78432785 ] } },
{ "type": "Feature", "properties": { "PERMIT ID": "23 182539 BLD", "DATE OF ISSUE": "18/8/2023", "DATE OF COMPLETION": "12/1/2024", "STATUS": "1", "ADDRESS": "1 Coverdale Cres" }, "geometry": { "type": "Point", "coordinates": [ -79.31302715, 43.81793672 ] } },
{ "type": "Feature", "properties": { "PERMIT ID": "23 189424 BLD", "DATE OF ISSUE": "18/8/2023", "DATE OF COMPLETION": "15/12/2023", "STATUS": "1", "ADDRESS": "29 Stanwell Dr" }, "geometry": { "type": "Point", "coordinates": [ -79.25194871, 43.76928407 ] } },
{ "type": "Feature", "properties": { "PERMIT ID": "23 158785 BLD", "DATE OF ISSUE": "16/8/2023", "DATE OF COMPLETION": "9/4/2024", "STATUS": "1", "ADDRESS": "7 Richland Cres" }, "geometry": { "type": "Point", "coordinates": [ -79.57821626, 43.65676705 ] } },
{ "type": "Feature", "properties": { "PERMIT ID": "23 186352 BLD", "DATE OF ISSUE": "14/8/2023", "DATE OF COMPLETION": "19/9/2023", "STATUS": "1", "ADDRESS": "119 Perth Ave" }, "geometry": { "type": "Point", "coordinates": [ -79.44912438, 43.65805098 ] } },
{ "type": "Feature", "properties": { "PERMIT ID": "23 182527 BLD", "DATE OF ISSUE": "10/8/2023", "DATE OF COMPLETION": "15/11/2023", "STATUS": "1", "ADDRESS": "46 Starry Cres" }, "geometry": { "type": "Point", "coordinates": [ -79.22736736, 43.83497455 ] } },
{ "type": "Feature", "properties": { "PERMIT ID": "23 182241 BLD", "DATE OF ISSUE": "8/8/2023", "DATE OF COMPLETION": "23/2/2024", "STATUS": "1", "ADDRESS": "3 Bowring Walk" }, "geometry": { "type": "Point", "coordinates": [ -79.45065952, 43.74690726 ] } },
{ "type": "Feature", "properties": { "PERMIT ID": "23 160892 BLD", "DATE OF ISSUE": "4/8/2023", "DATE OF COMPLETION": "", "STATUS": "0", "ADDRESS": "1573 Dundas St E" }, "geometry": { "type": "Point", "coordinates": [ -79.32975548, 43.66700544 ] } },
{ "type": "Feature", "properties": { "PERMIT ID": "23 182002 BLD", "DATE OF ISSUE": "3/8/2023", "DATE OF COMPLETION": "7/3/2024", "STATUS": "1", "ADDRESS": "12 Valmount Ave" }, "geometry": { "type": "Point", "coordinates": [ -79.15637692, 43.79136711 ] } },
{ "type": "Feature", "properties": { "PERMIT ID": "23 152128 BLD", "DATE OF ISSUE": "2/8/2023", "DATE OF COMPLETION": "17/10/2023", "STATUS": "1", "ADDRESS": "10 Garden Park Ave" }, "geometry": { "type": "Point", "coordinates": [ -79.27125668, 43.78326077 ] } },
{ "type": "Feature", "properties": { "PERMIT ID": "23 180362 BLD", "DATE OF ISSUE": "1/8/2023", "DATE OF COMPLETION": "", "STATUS": "0", "ADDRESS": "119 Lippincott St" }, "geometry": { "type": "Point", "coordinates": [ -79.40682369, 43.65815752 ] } },
{ "type": "Feature", "properties": { "PERMIT ID": "23 143256 BLD", "DATE OF ISSUE": "1/8/2023", "DATE OF COMPLETION": "31/1/2024", "STATUS": "1", "ADDRESS": "59 Goldberry Sq" }, "geometry": { "type": "Point", "coordinates": [ -79.15302616, 43.77678884 ] } },
{ "type": "Feature", "properties": { "PERMIT ID": "23 181322 BLD", "DATE OF ISSUE": "1/8/2023", "DATE OF COMPLETION": "30/10/2023", "STATUS": "1", "ADDRESS": "4 Hollingworth Dr" }, "geometry": { "type": "Point", "coordinates": [ -79.28290291, 43.74495831 ] } },
{ "type": "Feature", "properties": { "PERMIT ID": "23 181330 BLD", "DATE OF ISSUE": "1/8/2023", "DATE OF COMPLETION": "17/1/2024", "STATUS": "1", "ADDRESS": "165 Silverstone Dr" }, "geometry": { "type": "Point", "coordinates": [ -79.59172485, 43.75292269 ] } },
{ "type": "Feature", "properties": { "PERMIT ID": "22 232991 BLD", "DATE OF ISSUE": "31/7/2023", "DATE OF COMPLETION": "8/3/2024", "STATUS": "1", "ADDRESS": "17 Benstrow Ave" }, "geometry": { "type": "Point", "coordinates": [ -79.5759237, 43.74145402 ] } },
{ "type": "Feature", "properties": { "PERMIT ID": "23 179567 BLD", "DATE OF ISSUE": "31/7/2023", "DATE OF COMPLETION": "23/11/2023", "STATUS": "1", "ADDRESS": "68 Silverstone Dr" }, "geometry": { "type": "Point", "coordinates": [ -79.58860973, 43.74698677 ] } },
{ "type": "Feature", "properties": { "PERMIT ID": "23 174016 BLD", "DATE OF ISSUE": "27/7/2023", "DATE OF COMPLETION": "", "STATUS": "0", "ADDRESS": "17 Wonderland Dr" }, "geometry": { "type": "Point", "coordinates": [ -79.21668838, 43.77165311 ] } },
{ "type": "Feature", "properties": { "PERMIT ID": "22 146489 BLD", "DATE OF ISSUE": "27/7/2023", "DATE OF COMPLETION": "3/8/2023", "STATUS": "1", "ADDRESS": "4 Puckeridge Cres" }, "geometry": { "type": "Point", "coordinates": [ -79.56225151, 43.66476885 ] } },
{ "type": "Feature", "properties": { "PERMIT ID": "23 143130 BLD", "DATE OF ISSUE": "27/7/2023", "DATE OF COMPLETION": "15/11/2023", "STATUS": "1", "ADDRESS": "4 Comrie Ter" }, "geometry": { "type": "Point", "coordinates": [ -79.24339453, 43.72466785 ] } },
{ "type": "Feature", "properties": { "PERMIT ID": "23 174264 BLD", "DATE OF ISSUE": "25/7/2023", "DATE OF COMPLETION": "", "STATUS": "0", "ADDRESS": "51 Fairlin Dr" }, "geometry": { "type": "Point", "coordinates": [ -79.5436835, 43.64123234 ] } },
{ "type": "Feature", "properties": { "PERMIT ID": "22 121660 BLD", "DATE OF ISSUE": "24/7/2023", "DATE OF COMPLETION": "8/12/2023", "STATUS": "1", "ADDRESS": "22 Martini Dr" }, "geometry": { "type": "Point", "coordinates": [ -79.50208722, 43.70255441 ] } },
{ "type": "Feature", "properties": { "PERMIT ID": "23 144919 BLD", "DATE OF ISSUE": "24/7/2023", "DATE OF COMPLETION": "21/5/2024", "STATUS": "1", "ADDRESS": "124 Dorcot Ave" }, "geometry": { "type": "Point", "coordinates": [ -79.25778698, 43.75906832 ] } },
{ "type": "Feature", "properties": { "PERMIT ID": "23 154748 BLD", "DATE OF ISSUE": "24/7/2023", "DATE OF COMPLETION": "29/9/2023", "STATUS": "1", "ADDRESS": "58 Bellman Ave" }, "geometry": { "type": "Point", "coordinates": [ -79.53225232, 43.6110113 ] } },
{ "type": "Feature", "properties": { "PERMIT ID": "23 156406 BLD", "DATE OF ISSUE": "24/7/2023", "DATE OF COMPLETION": "22/11/2023", "STATUS": "1", "ADDRESS": "40 Summerfield Cres" }, "geometry": { "type": "Point", "coordinates": [ -79.57313294, 43.65995333 ] } },
{ "type": "Feature", "properties": { "PERMIT ID": "23 119369 BLD", "DATE OF ISSUE": "21/7/2023", "DATE OF COMPLETION": "", "STATUS": "0", "ADDRESS": "476 Gerrard St E" }, "geometry": { "type": "Point", "coordinates": [ -79.35962918, 43.66371037 ] } },
{ "type": "Feature", "properties": { "PERMIT ID": "23 147006 BLD", "DATE OF ISSUE": "17/7/2023", "DATE OF COMPLETION": "", "STATUS": "0", "ADDRESS": "182 Finch Ave E" }, "geometry": { "type": "Point", "coordinates": [ -79.4025107, 43.78289643 ] } },
{ "type": "Feature", "properties": { "PERMIT ID": "23 156338 BLD", "DATE OF ISSUE": "14/7/2023", "DATE OF COMPLETION": "", "STATUS": "0", "ADDRESS": "708 Logan Ave" }, "geometry": { "type": "Point", "coordinates": [ -79.3479895, 43.67325857 ] } },
{ "type": "Feature", "properties": { "PERMIT ID": "23 154072 BLD", "DATE OF ISSUE": "14/7/2023", "DATE OF COMPLETION": "4/10/2023", "STATUS": "1", "ADDRESS": "73 Morning Dew Rd" }, "geometry": { "type": "Point", "coordinates": [ -79.16851625, 43.77201756 ] } },
{ "type": "Feature", "properties": { "PERMIT ID": "23 155664 BLD", "DATE OF ISSUE": "13/7/2023", "DATE OF COMPLETION": "25/4/2024", "STATUS": "1", "ADDRESS": "14 Regatta Cres" }, "geometry": { "type": "Point", "coordinates": [ -79.44326348, 43.79030381 ] } },
{ "type": "Feature", "properties": { "PERMIT ID": "23 159700 BLD", "DATE OF ISSUE": "13/7/2023", "DATE OF COMPLETION": "26/10/2023", "STATUS": "1", "ADDRESS": "60 Meldazy Dr" }, "geometry": { "type": "Point", "coordinates": [ -79.25265314, 43.76192287 ] } },
{ "type": "Feature", "properties": { "PERMIT ID": "23 161496 BLD", "DATE OF ISSUE": "13/7/2023", "DATE OF COMPLETION": "24/1/2024", "STATUS": "1", "ADDRESS": "29 Isaac Devins Blvd" }, "geometry": { "type": "Point", "coordinates": [ -79.5328688, 43.72946573 ] } },
{ "type": "Feature", "properties": { "PERMIT ID": "23 160312 BLD", "DATE OF ISSUE": "12/7/2023", "DATE OF COMPLETION": "23/8/2023", "STATUS": "1", "ADDRESS": "260 Centennial Rd" }, "geometry": { "type": "Point", "coordinates": [ -79.15077173, 43.78644449 ] } },
{ "type": "Feature", "properties": { "PERMIT ID": "23 161221 BLD", "DATE OF ISSUE": "12/7/2023", "DATE OF COMPLETION": "19/1/2024", "STATUS": "1", "ADDRESS": "119 Lascelles Blvd" }, "geometry": { "type": "Point", "coordinates": [ -79.40243437, 43.70326526 ] } },
{ "type": "Feature", "properties": { "PERMIT ID": "23 121081 BLD", "DATE OF ISSUE": "10/7/2023", "DATE OF COMPLETION": "", "STATUS": "0", "ADDRESS": "130 Combe Ave" }, "geometry": { "type": "Point", "coordinates": [ -79.45665012, 43.75964412 ] } },
{ "type": "Feature", "properties": { "PERMIT ID": "23 157778 BLD", "DATE OF ISSUE": "10/7/2023", "DATE OF COMPLETION": "", "STATUS": "0", "ADDRESS": "228 St Clarens Ave" }, "geometry": { "type": "Point", "coordinates": [ -79.43963243, 43.65296678 ] } },
{ "type": "Feature", "properties": { "PERMIT ID": "23 157487 BLD", "DATE OF ISSUE": "10/7/2023", "DATE OF COMPLETION": "24/8/2023", "STATUS": "1", "ADDRESS": "34 Birchard St" }, "geometry": { "type": "Point", "coordinates": [ -79.29963943, 43.77537051 ] } },
{ "type": "Feature", "properties": { "PERMIT ID": "23 155227 BLD", "DATE OF ISSUE": "7/7/2023", "DATE OF COMPLETION": "11/12/2023", "STATUS": "1", "ADDRESS": "19 Lochinvar Cres" }, "geometry": { "type": "Point", "coordinates": [ -79.33792392, 43.75834323 ] } },
{ "type": "Feature", "properties": { "PERMIT ID": "23 165215 BLD", "DATE OF ISSUE": "7/7/2023", "DATE OF COMPLETION": "8/4/2024", "STATUS": "1", "ADDRESS": "28-30 Strathgowan Ave" }, "geometry": { "type": "Point", "coordinates": [ -79.39967689, 43.71923015 ] } },
{ "type": "Feature", "properties": { "PERMIT ID": "23 135372 BLD", "DATE OF ISSUE": "6/7/2023", "DATE OF COMPLETION": "6/11/2023", "STATUS": "1", "ADDRESS": "149 Centennial Rd" }, "geometry": { "type": "Point", "coordinates": [ -79.14751434, 43.78064533 ] } },
{ "type": "Feature", "properties": { "PERMIT ID": "23 166762 BLD", "DATE OF ISSUE": "6/7/2023", "DATE OF COMPLETION": "25/9/2023", "STATUS": "1", "ADDRESS": "62 Briarscross Blvd" }, "geometry": { "type": "Point", "coordinates": [ -79.2738245, 43.8055385 ] } },
{ "type": "Feature", "properties": { "PERMIT ID": "23 164186 BLD", "DATE OF ISSUE": "28/6/2023", "DATE OF COMPLETION": "3/5/2024", "STATUS": "1", "ADDRESS": "89 Badgerow Ave" }, "geometry": { "type": "Point", "coordinates": [ -79.33728785, 43.66647083 ] } },
{ "type": "Feature", "properties": { "PERMIT ID": "23 165433 BLD", "DATE OF ISSUE": "28/6/2023", "DATE OF COMPLETION": "27/10/2023", "STATUS": "1", "ADDRESS": "12 Netherly Dr" }, "geometry": { "type": "Point", "coordinates": [ -79.59158983, 43.74967062 ] } },
{ "type": "Feature", "properties": { "PERMIT ID": "23 164903 BLD", "DATE OF ISSUE": "27/6/2023", "DATE OF COMPLETION": "", "STATUS": "0", "ADDRESS": "46 Monmouth Crt" }, "geometry": { "type": "Point", "coordinates": [ -79.24221624, 43.77119299 ] } },
{ "type": "Feature", "properties": { "PERMIT ID": "22 212609 BLD", "DATE OF ISSUE": "26/6/2023", "DATE OF COMPLETION": "", "STATUS": "0", "ADDRESS": "36 Carslake Cres" }, "geometry": { "type": "Point", "coordinates": [ -79.24285495, 43.74656679 ] } },
{ "type": "Feature", "properties": { "PERMIT ID": "23 125782 BLD", "DATE OF ISSUE": "20/6/2023", "DATE OF COMPLETION": "", "STATUS": "0", "ADDRESS": "100 Wallasey Ave" }, "geometry": { "type": "Point", "coordinates": [ -79.52939706, 43.72098115 ] } },
{ "type": "Feature", "properties": { "PERMIT ID": "22 148603 BLD", "DATE OF ISSUE": "20/6/2023", "DATE OF COMPLETION": "18/10/2023", "STATUS": "1", "ADDRESS": "170 Greyabbey Trl" }, "geometry": { "type": "Point", "coordinates": [ -79.17528804, 43.75530217 ] } },
{ "type": "Feature", "properties": { "PERMIT ID": "23 156135 BLD", "DATE OF ISSUE": "14/6/2023", "DATE OF COMPLETION": "", "STATUS": "0", "ADDRESS": "181 Habitant Dr" }, "geometry": { "type": "Point", "coordinates": [ -79.53906063, 43.746582 ] } },
{ "type": "Feature", "properties": { "PERMIT ID": "23 140970 BLD", "DATE OF ISSUE": "13/6/2023", "DATE OF COMPLETION": "13/11/2023", "STATUS": "1", "ADDRESS": "101 Toynbee Trl" }, "geometry": { "type": "Point", "coordinates": [ -79.19184718, 43.75155381 ] } },
{ "type": "Feature", "properties": { "PERMIT ID": "23 142251 BLD", "DATE OF ISSUE": "9/6/2023", "DATE OF COMPLETION": "", "STATUS": "0", "ADDRESS": "12 Victoria Park Ave" }, "geometry": { "type": "Point", "coordinates": [ -79.2808045, 43.6749923 ] } },
{ "type": "Feature", "properties": { "PERMIT ID": "23 148402 BLD", "DATE OF ISSUE": "8/6/2023", "DATE OF COMPLETION": "15/4/2024", "STATUS": "1", "ADDRESS": "28 Stillbrook Crt" }, "geometry": { "type": "Point", "coordinates": [ -79.16869729, 43.77018788 ] } },
{ "type": "Feature", "properties": { "PERMIT ID": "23 157119 BLD", "DATE OF ISSUE": "8/6/2023", "DATE OF COMPLETION": "12/10/2023", "STATUS": "1", "ADDRESS": "4 Carsbrooke Rd" }, "geometry": { "type": "Point", "coordinates": [ -79.57531939, 43.64601087 ] } },
{ "type": "Feature", "properties": { "PERMIT ID": "23 114301 BLD", "DATE OF ISSUE": "7/6/2023", "DATE OF COMPLETION": "5/9/2023", "STATUS": "1", "ADDRESS": "437 Bathurst St" }, "geometry": { "type": "Point", "coordinates": [ -79.40682697, 43.65497036 ] } },
{ "type": "Feature", "properties": { "PERMIT ID": "23 142557 BLD", "DATE OF ISSUE": "6/6/2023", "DATE OF COMPLETION": "", "STATUS": "0", "ADDRESS": "2744 Victoria Park Ave" }, "geometry": { "type": "Point", "coordinates": [ -79.3286349, 43.78640559 ] } },
{ "type": "Feature", "properties": { "PERMIT ID": "23 148804 BLD", "DATE OF ISSUE": "6/6/2023", "DATE OF COMPLETION": "19/9/2023", "STATUS": "1", "ADDRESS": "41 Dromore Cres" }, "geometry": { "type": "Point", "coordinates": [ -79.4424763, 43.77643847 ] } },
{ "type": "Feature", "properties": { "PERMIT ID": "23 140882 BLD", "DATE OF ISSUE": "5/6/2023", "DATE OF COMPLETION": "13/9/2023", "STATUS": "1", "ADDRESS": "269 Glen Park Ave" }, "geometry": { "type": "Point", "coordinates": [ -79.4462775, 43.70920107 ] } },
{ "type": "Feature", "properties": { "PERMIT ID": "23 146484 BLD", "DATE OF ISSUE": "24/5/2023", "DATE OF COMPLETION": "", "STATUS": "0", "ADDRESS": "32 Minerva Ave" }, "geometry": { "type": "Point", "coordinates": [ -79.25067278, 43.72080458 ] } },
{ "type": "Feature", "properties": { "PERMIT ID": "23 126730 BLD", "DATE OF ISSUE": "23/5/2023", "DATE OF COMPLETION": "", "STATUS": "0", "ADDRESS": "6245 Kingston Rd" }, "geometry": { "type": "Point", "coordinates": [ -79.16396083, 43.78721399 ] } },
{ "type": "Feature", "properties": { "PERMIT ID": "23 135324 BLD", "DATE OF ISSUE": "23/5/2023", "DATE OF COMPLETION": "30/11/2023", "STATUS": "1", "ADDRESS": "30 Gunton Dr" }, "geometry": { "type": "Point", "coordinates": [ -79.57507547, 43.72655472 ] } },
{ "type": "Feature", "properties": { "PERMIT ID": "23 120486 BLD", "DATE OF ISSUE": "19/5/2023", "DATE OF COMPLETION": "", "STATUS": "0", "ADDRESS": "50 Birkdale Rd" }, "geometry": { "type": "Point", "coordinates": [ -79.26174044, 43.75772389 ] } },
{ "type": "Feature", "properties": { "PERMIT ID": "23 133124 BLD", "DATE OF ISSUE": "16/5/2023", "DATE OF COMPLETION": "14/9/2023", "STATUS": "1", "ADDRESS": "2 Hagersville Crt" }, "geometry": { "type": "Point", "coordinates": [ -79.57836667, 43.66476557 ] } },
{ "type": "Feature", "properties": { "PERMIT ID": "23 132961 BLD", "DATE OF ISSUE": "15/5/2023", "DATE OF COMPLETION": "", "STATUS": "0", "ADDRESS": "3 Amberjack Blvd" }, "geometry": { "type": "Point", "coordinates": [ -79.23815756, 43.76643827 ] } },
{ "type": "Feature", "properties": { "PERMIT ID": "23 137710 BLD", "DATE OF ISSUE": "15/5/2023", "DATE OF COMPLETION": "", "STATUS": "0", "ADDRESS": "217 McAllister Rd" }, "geometry": { "type": "Point", "coordinates": [ -79.453265, 43.74994161 ] } },
{ "type": "Feature", "properties": { "PERMIT ID": "23 144819 BLD", "DATE OF ISSUE": "15/5/2023", "DATE OF COMPLETION": "11/7/2023", "STATUS": "1", "ADDRESS": "30 Tedford Dr" }, "geometry": { "type": "Point", "coordinates": [ -79.29769811, 43.73727695 ] } },
{ "type": "Feature", "properties": { "PERMIT ID": "23 136537 BLD", "DATE OF ISSUE": "9/5/2023", "DATE OF COMPLETION": "4/3/2024", "STATUS": "1", "ADDRESS": "54 Camwood Cres" }, "geometry": { "type": "Point", "coordinates": [ -79.3382867, 43.76089937 ] } },
{ "type": "Feature", "properties": { "PERMIT ID": "23 117263 BLD", "DATE OF ISSUE": "5/5/2023", "DATE OF COMPLETION": "17/1/2024", "STATUS": "1", "ADDRESS": "29 Dewlane Dr" }, "geometry": { "type": "Point", "coordinates": [ -79.44279899, 43.78645947 ] } },
{ "type": "Feature", "properties": { "PERMIT ID": "23 134103 BLD", "DATE OF ISSUE": "5/5/2023", "DATE OF COMPLETION": "16/2/2024", "STATUS": "1", "ADDRESS": "280 Thirtieth St" }, "geometry": { "type": "Point", "coordinates": [ -79.53631254, 43.60965894 ] } },
{ "type": "Feature", "properties": { "PERMIT ID": "23 131545 BLD", "DATE OF ISSUE": "2/5/2023", "DATE OF COMPLETION": "", "STATUS": "0", "ADDRESS": "18 Huntington Ave" }, "geometry": { "type": "Point", "coordinates": [ -79.25328126, 43.72861077 ] } },
{ "type": "Feature", "properties": { "PERMIT ID": "23 129996 BLD", "DATE OF ISSUE": "1/5/2023", "DATE OF COMPLETION": "7/3/2024", "STATUS": "1", "ADDRESS": "7 Vauxhall Dr" }, "geometry": { "type": "Point", "coordinates": [ -79.28290798, 43.74956025 ] } },
{ "type": "Feature", "properties": { "PERMIT ID": "23 130524 BLD", "DATE OF ISSUE": "28/4/2023", "DATE OF COMPLETION": "23/4/2024", "STATUS": "1", "ADDRESS": "16 John Best Ave" }, "geometry": { "type": "Point", "coordinates": [ -79.50389086, 43.6983897 ] } },
{ "type": "Feature", "properties": { "PERMIT ID": "23 132349 BLD", "DATE OF ISSUE": "28/4/2023", "DATE OF COMPLETION": "18/9/2023", "STATUS": "1", "ADDRESS": "19 Bernadine St" }, "geometry": { "type": "Point", "coordinates": [ -79.25911882, 43.76847572 ] } },
{ "type": "Feature", "properties": { "PERMIT ID": "23 132802 BLD", "DATE OF ISSUE": "27/4/2023", "DATE OF COMPLETION": "20/7/2023", "STATUS": "1", "ADDRESS": "104 Pinery Trl" }, "geometry": { "type": "Point", "coordinates": [ -79.22587481, 43.80871704 ] } },
{ "type": "Feature", "properties": { "PERMIT ID": "23 132421 BLD", "DATE OF ISSUE": "26/4/2023", "DATE OF COMPLETION": "2/10/2023", "STATUS": "1", "ADDRESS": "143 Broadlands Blvd" }, "geometry": { "type": "Point", "coordinates": [ -79.31308037, 43.74667082 ] } },
{ "type": "Feature", "properties": { "PERMIT ID": "23 132826 BLD", "DATE OF ISSUE": "24/4/2023", "DATE OF COMPLETION": "", "STATUS": "0", "ADDRESS": "30 Berkham Rd" }, "geometry": { "type": "Point", "coordinates": [ -79.24190395, 43.7713007 ] } },
{ "type": "Feature", "properties": { "PERMIT ID": "22 184820 BLD", "DATE OF ISSUE": "21/4/2023", "DATE OF COMPLETION": "", "STATUS": "0", "ADDRESS": "176 Empress Ave" }, "geometry": { "type": "Point", "coordinates": [ -79.40443839, 43.77135317 ] } },
{ "type": "Feature", "properties": { "PERMIT ID": "23 128071 BLD", "DATE OF ISSUE": "21/4/2023", "DATE OF COMPLETION": "23/5/2023", "STATUS": "1", "ADDRESS": "44 Massey St" }, "geometry": { "type": "Point", "coordinates": [ -79.41352371, 43.64332231 ] } },
{ "type": "Feature", "properties": { "PERMIT ID": "23 128553 BLD", "DATE OF ISSUE": "21/4/2023", "DATE OF COMPLETION": "29/5/2023", "STATUS": "1", "ADDRESS": "18 Hawksbury Dr" }, "geometry": { "type": "Point", "coordinates": [ -79.38357684, 43.7729859 ] } },
{ "type": "Feature", "properties": { "PERMIT ID": "23 131101 BLD", "DATE OF ISSUE": "19/4/2023", "DATE OF COMPLETION": "24/7/2023", "STATUS": "1", "ADDRESS": "16 Furness Cres" }, "geometry": { "type": "Point", "coordinates": [ -79.59939898, 43.74661518 ] } },
{ "type": "Feature", "properties": { "PERMIT ID": "22 227390 BLD", "DATE OF ISSUE": "17/4/2023", "DATE OF COMPLETION": "31/7/2023", "STATUS": "1", "ADDRESS": "75 Cronin Dr" }, "geometry": { "type": "Point", "coordinates": [ -79.55537932, 43.64464871 ] } },
{ "type": "Feature", "properties": { "PERMIT ID": "23 125928 BLD", "DATE OF ISSUE": "17/4/2023", "DATE OF COMPLETION": "27/11/2023", "STATUS": "1", "ADDRESS": "2 Payzac Ave" }, "geometry": { "type": "Point", "coordinates": [ -79.19649317, 43.75585983 ] } },
{ "type": "Feature", "properties": { "PERMIT ID": "23 126486 BLD", "DATE OF ISSUE": "17/4/2023", "DATE OF COMPLETION": "28/11/2023", "STATUS": "1", "ADDRESS": "695 Gladstone Ave" }, "geometry": { "type": "Point", "coordinates": [ -79.435799, 43.66459586 ] } },
{ "type": "Feature", "properties": { "PERMIT ID": "21 198259 BLD", "DATE OF ISSUE": "13/4/2023", "DATE OF COMPLETION": "27/7/2023", "STATUS": "1", "ADDRESS": "67 Harold St" }, "geometry": { "type": "Point", "coordinates": [ -79.50139398, 43.61775407 ] } },
{ "type": "Feature", "properties": { "PERMIT ID": "22 184122 BLD", "DATE OF ISSUE": "11/4/2023", "DATE OF COMPLETION": "9/8/2023", "STATUS": "1", "ADDRESS": "11 Wallington Ave" }, "geometry": { "type": "Point", "coordinates": [ -79.30999705, 43.69458304 ] } },
{ "type": "Feature", "properties": { "PERMIT ID": "22 238523 BLD", "DATE OF ISSUE": "11/4/2023", "DATE OF COMPLETION": "26/10/2023", "STATUS": "1", "ADDRESS": "260 Beechgrove Dr" }, "geometry": { "type": "Point", "coordinates": [ -79.16273581, 43.77397664 ] } },
{ "type": "Feature", "properties": { "PERMIT ID": "23 116694 BLD", "DATE OF ISSUE": "11/4/2023", "DATE OF COMPLETION": "15/9/2023", "STATUS": "1", "ADDRESS": "115A Harrison St" }, "geometry": { "type": "Point", "coordinates": [ -79.42210359, 43.65066377 ] } },
{ "type": "Feature", "properties": { "PERMIT ID": "22 205141 BLD", "DATE OF ISSUE": "5/4/2023", "DATE OF COMPLETION": "", "STATUS": "0", "ADDRESS": "18 La Peer Blvd" }, "geometry": { "type": "Point", "coordinates": [ -79.31438646, 43.80263136 ] } },
{ "type": "Feature", "properties": { "PERMIT ID": "23 118395 BLD", "DATE OF ISSUE": "5/4/2023", "DATE OF COMPLETION": "12/6/2023", "STATUS": "1", "ADDRESS": "96 Fishery Rd" }, "geometry": { "type": "Point", "coordinates": [ -79.17613753, 43.79011467 ] } },
{ "type": "Feature", "properties": { "PERMIT ID": "22 211637 BLD", "DATE OF ISSUE": "4/4/2023", "DATE OF COMPLETION": "13/12/2023", "STATUS": "1", "ADDRESS": "23 Bornholm Dr" }, "geometry": { "type": "Point", "coordinates": [ -79.12581294, 43.7884863 ] } },
{ "type": "Feature", "properties": { "PERMIT ID": "22 237162 BLD", "DATE OF ISSUE": "3/4/2023", "DATE OF COMPLETION": "8/5/2023", "STATUS": "1", "ADDRESS": "400 Rouge Hills Dr" }, "geometry": { "type": "Point", "coordinates": [ -79.13198488, 43.79591065 ] } },
{ "type": "Feature", "properties": { "PERMIT ID": "22 241305 BLD", "DATE OF ISSUE": "3/4/2023", "DATE OF COMPLETION": "4/10/2023", "STATUS": "1", "ADDRESS": "5294 Lawrence Ave E" }, "geometry": { "type": "Point", "coordinates": [ -79.15002193, 43.77692014 ] } },
{ "type": "Feature", "properties": { "PERMIT ID": "22 234490 BLD", "DATE OF ISSUE": "31/3/2023", "DATE OF COMPLETION": "21/8/2023", "STATUS": "1", "ADDRESS": "378 Lauder Ave" }, "geometry": { "type": "Point", "coordinates": [ -79.44279519, 43.68562669 ] } },
{ "type": "Feature", "properties": { "PERMIT ID": "23 122146 BLD", "DATE OF ISSUE": "31/3/2023", "DATE OF COMPLETION": "16/8/2023", "STATUS": "1", "ADDRESS": "133 Lauder Ave" }, "geometry": { "type": "Point", "coordinates": [ -79.43933538, 43.67818726 ] } },
{ "type": "Feature", "properties": { "PERMIT ID": "22 197911 BLD", "DATE OF ISSUE": "29/3/2023", "DATE OF COMPLETION": "23/8/2023", "STATUS": "1", "ADDRESS": "168 Fulton Ave" }, "geometry": { "type": "Point", "coordinates": [ -79.35074957, 43.68346895 ] } },
{ "type": "Feature", "properties": { "PERMIT ID": "23 120653 BLD", "DATE OF ISSUE": "29/3/2023", "DATE OF COMPLETION": "26/3/2024", "STATUS": "1", "ADDRESS": "269 Borden St" }, "geometry": { "type": "Point", "coordinates": [ -79.40825402, 43.665248 ] } },
{ "type": "Feature", "properties": { "PERMIT ID": "23 121200 BLD", "DATE OF ISSUE": "29/3/2023", "DATE OF COMPLETION": "6/6/2023", "STATUS": "1", "ADDRESS": "22 Kamloops Dr" }, "geometry": { "type": "Point", "coordinates": [ -79.33649737, 43.78552386 ] } },
{ "type": "Feature", "properties": { "PERMIT ID": "23 119600 BLD", "DATE OF ISSUE": "23/3/2023", "DATE OF COMPLETION": "22/8/2023", "STATUS": "1", "ADDRESS": "1 Riverlea Dr" }, "geometry": { "type": "Point", "coordinates": [ -79.52754462, 43.69800403 ] } },
{ "type": "Feature", "properties": { "PERMIT ID": "23 120945 BLD", "DATE OF ISSUE": "21/3/2023", "DATE OF COMPLETION": "18/9/2023", "STATUS": "1", "ADDRESS": "179 Empress Ave" }, "geometry": { "type": "Point", "coordinates": [ -79.40372311, 43.77106293 ] } },
{ "type": "Feature", "properties": { "PERMIT ID": "23 118363 BLD", "DATE OF ISSUE": "20/3/2023", "DATE OF COMPLETION": "18/9/2023", "STATUS": "1", "ADDRESS": "19 Nobert Rd" }, "geometry": { "type": "Point", "coordinates": [ -79.31960108, 43.7730222 ] } },
{ "type": "Feature", "properties": { "PERMIT ID": "23 116075 BLD", "DATE OF ISSUE": "17/3/2023", "DATE OF COMPLETION": "12/4/2024", "STATUS": "1", "ADDRESS": "52 Sunbird Cres" }, "geometry": { "type": "Point", "coordinates": [ -79.31493224, 43.81813732 ] } },
{ "type": "Feature", "properties": { "PERMIT ID": "22 239095 BLD", "DATE OF ISSUE": "15/3/2023", "DATE OF COMPLETION": "7/2/2024", "STATUS": "1", "ADDRESS": "189 Toynbee Trl" }, "geometry": { "type": "Point", "coordinates": [ -79.19766496, 43.75384466 ] } },
{ "type": "Feature", "properties": { "PERMIT ID": "23 115060 BLD", "DATE OF ISSUE": "9/3/2023", "DATE OF COMPLETION": "13/7/2023", "STATUS": "1", "ADDRESS": "25 Hazelnut Cres" }, "geometry": { "type": "Point", "coordinates": [ -79.32754624, 43.77588445 ] } },
{ "type": "Feature", "properties": { "PERMIT ID": "22 238198 BLD", "DATE OF ISSUE": "8/3/2023", "DATE OF COMPLETION": "18/8/2023", "STATUS": "1", "ADDRESS": "41 Sugarbush Sq" }, "geometry": { "type": "Point", "coordinates": [ -79.17074429, 43.7896159 ] } },
{ "type": "Feature", "properties": { "PERMIT ID": "23 115124 BLD", "DATE OF ISSUE": "8/3/2023", "DATE OF COMPLETION": "25/7/2023", "STATUS": "1", "ADDRESS": "10049 Sheppard Ave E" }, "geometry": { "type": "Point", "coordinates": [ -79.16461623, 43.80787171 ] } },
{ "type": "Feature", "properties": { "PERMIT ID": "23 113364 BLD", "DATE OF ISSUE": "7/3/2023", "DATE OF COMPLETION": "6/9/2023", "STATUS": "1", "ADDRESS": "36 Jansusie Rd" }, "geometry": { "type": "Point", "coordinates": [ -79.57728809, 43.73050434 ] } },
{ "type": "Feature", "properties": { "PERMIT ID": "23 112737 BLD", "DATE OF ISSUE": "3/3/2023", "DATE OF COMPLETION": "15/6/2023", "STATUS": "1", "ADDRESS": "30 Hernshaw Cres" }, "geometry": { "type": "Point", "coordinates": [ -79.57382867, 43.6464555 ] } },
{ "type": "Feature", "properties": { "PERMIT ID": "23 111245 BLD", "DATE OF ISSUE": "1/3/2023", "DATE OF COMPLETION": "16/5/2023", "STATUS": "1", "ADDRESS": "110 Riverhead Dr" }, "geometry": { "type": "Point", "coordinates": [ -79.57131096, 43.7338512 ] } },
{ "type": "Feature", "properties": { "PERMIT ID": "22 189273 BLD", "DATE OF ISSUE": "28/2/2023", "DATE OF COMPLETION": "16/6/2023", "STATUS": "1", "ADDRESS": "29 Brantford Dr" }, "geometry": { "type": "Point", "coordinates": [ -79.32486538, 43.79116941 ] } },
{ "type": "Feature", "properties": { "PERMIT ID": "23 111214 BLD", "DATE OF ISSUE": "28/2/2023", "DATE OF COMPLETION": "24/8/2023", "STATUS": "1", "ADDRESS": "51 Tilley Dr" }, "geometry": { "type": "Point", "coordinates": [ -79.14406603, 43.78778842 ] } },
{ "type": "Feature", "properties": { "PERMIT ID": "23 112646 BLD", "DATE OF ISSUE": "28/2/2023", "DATE OF COMPLETION": "30/8/2023", "STATUS": "1", "ADDRESS": "168 Fairglen Ave" }, "geometry": { "type": "Point", "coordinates": [ -79.32616845, 43.78582318 ] } },
{ "type": "Feature", "properties": { "PERMIT ID": "23 107037 BLD", "DATE OF ISSUE": "24/2/2023", "DATE OF COMPLETION": "29/4/2024", "STATUS": "1", "ADDRESS": "54 Banstock Dr" }, "geometry": { "type": "Point", "coordinates": [ -79.38360907, 43.7879387 ] } },
{ "type": "Feature", "properties": { "PERMIT ID": "23 109730 BLD", "DATE OF ISSUE": "24/2/2023", "DATE OF COMPLETION": "24/7/2023", "STATUS": "1", "ADDRESS": "116 Benjamin Blvd" }, "geometry": { "type": "Point", "coordinates": [ -79.26091974, 43.72970046 ] } },
{ "type": "Feature", "properties": { "PERMIT ID": "22 227624 BLD", "DATE OF ISSUE": "23/2/2023", "DATE OF COMPLETION": "20/6/2023", "STATUS": "1", "ADDRESS": "65 Upper Humber Dr" }, "geometry": { "type": "Point", "coordinates": [ -79.62514006, 43.72875531 ] } },
{ "type": "Feature", "properties": { "PERMIT ID": "22 233938 BLD", "DATE OF ISSUE": "22/2/2023", "DATE OF COMPLETION": "", "STATUS": "0", "ADDRESS": "12 Erie St" }, "geometry": { "type": "Point", "coordinates": [ -79.48118054, 43.71528376 ] } },
{ "type": "Feature", "properties": { "PERMIT ID": "23 108832 BLD", "DATE OF ISSUE": "22/2/2023", "DATE OF COMPLETION": "25/7/2023", "STATUS": "1", "ADDRESS": "6 Rivendell Trl" }, "geometry": { "type": "Point", "coordinates": [ -79.22593876, 43.83363097 ] } },
{ "type": "Feature", "properties": { "PERMIT ID": "23 100263 BLD", "DATE OF ISSUE": "17/2/2023", "DATE OF COMPLETION": "15/5/2023", "STATUS": "1", "ADDRESS": "12 North Heights Rd" }, "geometry": { "type": "Point", "coordinates": [ -79.54665089, 43.66472841 ] } },
{ "type": "Feature", "properties": { "PERMIT ID": "23 108461 BLD", "DATE OF ISSUE": "16/2/2023", "DATE OF COMPLETION": "10/1/2024", "STATUS": "1", "ADDRESS": "37 Collahie St" }, "geometry": { "type": "Point", "coordinates": [ -79.4293186, 43.64867879 ] } },
{ "type": "Feature", "properties": { "PERMIT ID": "22 240977 BLD", "DATE OF ISSUE": "13/2/2023", "DATE OF COMPLETION": "8/12/2023", "STATUS": "1", "ADDRESS": "288 Jeffcoat Dr" }, "geometry": { "type": "Point", "coordinates": [ -79.58907183, 43.71907392 ] } },
{ "type": "Feature", "properties": { "PERMIT ID": "22 227617 BLD", "DATE OF ISSUE": "10/2/2023", "DATE OF COMPLETION": "", "STATUS": "0", "ADDRESS": "75 Ellington Dr" }, "geometry": { "type": "Point", "coordinates": [ -79.29195249, 43.75104601 ] } },
{ "type": "Feature", "properties": { "PERMIT ID": "22 201118 BLD", "DATE OF ISSUE": "8/2/2023", "DATE OF COMPLETION": "9/8/2023", "STATUS": "1", "ADDRESS": "398 Albion Rd" }, "geometry": { "type": "Point", "coordinates": [ -79.55108386, 43.72605485 ] } },
{ "type": "Feature", "properties": { "PERMIT ID": "23 106479 BLD", "DATE OF ISSUE": "8/2/2023", "DATE OF COMPLETION": "17/11/2023", "STATUS": "1", "ADDRESS": "73 Emmeline Cres" }, "geometry": { "type": "Point", "coordinates": [ -79.28471336, 43.79576828 ] } },
{ "type": "Feature", "properties": { "PERMIT ID": "23 105392 BLD", "DATE OF ISSUE": "6/2/2023", "DATE OF COMPLETION": "6/10/2023", "STATUS": "1", "ADDRESS": "274 Boon Ave" }, "geometry": { "type": "Point", "coordinates": [ -79.4493986, 43.68441302 ] } },
{ "type": "Feature", "properties": { "PERMIT ID": "22 219984 BLD", "DATE OF ISSUE": "3/2/2023", "DATE OF COMPLETION": "20/12/2023", "STATUS": "1", "ADDRESS": "43 Quietbrook Cres" }, "geometry": { "type": "Point", "coordinates": [ -79.23437485, 43.83699466 ] } },
{ "type": "Feature", "properties": { "PERMIT ID": "23 101971 BLD", "DATE OF ISSUE": "3/2/2023", "DATE OF COMPLETION": "18/10/2023", "STATUS": "1", "ADDRESS": "56 Arkley Cres" }, "geometry": { "type": "Point", "coordinates": [ -79.56647421, 43.69142529 ] } },
{ "type": "Feature", "properties": { "PERMIT ID": "20 133132 BLD", "DATE OF ISSUE": "2/2/2023", "DATE OF COMPLETION": "20/12/2023", "STATUS": "1", "ADDRESS": "137 Cherokee Blvd" }, "geometry": { "type": "Point", "coordinates": [ -79.33607791, 43.79093414 ] } },
{ "type": "Feature", "properties": { "PERMIT ID": "22 224664 BLD", "DATE OF ISSUE": "1/2/2023", "DATE OF COMPLETION": "29/2/2024", "STATUS": "1", "ADDRESS": "77 Norman Wesley Way" }, "geometry": { "type": "Point", "coordinates": [ -79.48963709, 43.74347097 ] } },
{ "type": "Feature", "properties": { "PERMIT ID": "23 104857 BLD", "DATE OF ISSUE": "31/1/2023", "DATE OF COMPLETION": "21/5/2024", "STATUS": "1", "ADDRESS": "198 Woodmount Ave" }, "geometry": { "type": "Point", "coordinates": [ -79.31844862, 43.6920538 ] } },
{ "type": "Feature", "properties": { "PERMIT ID": "22 148336 BLD", "DATE OF ISSUE": "30/1/2023", "DATE OF COMPLETION": "6/6/2023", "STATUS": "1", "ADDRESS": "17 Ryecliffe Crt" }, "geometry": { "type": "Point", "coordinates": [ -79.15272865, 43.80101994 ] } },
{ "type": "Feature", "properties": { "PERMIT ID": "23 104859 BLD", "DATE OF ISSUE": "27/1/2023", "DATE OF COMPLETION": "27/7/2023", "STATUS": "1", "ADDRESS": "68 Millview Cres" }, "geometry": { "type": "Point", "coordinates": [ -79.5902556, 43.72444986 ] } },
{ "type": "Feature", "properties": { "PERMIT ID": "23 105085 BLD", "DATE OF ISSUE": "26/1/2023", "DATE OF COMPLETION": "11/9/2023", "STATUS": "1", "ADDRESS": "40 Elder Ave" }, "geometry": { "type": "Point", "coordinates": [ -79.526648, 43.59895279 ] } },
{ "type": "Feature", "properties": { "PERMIT ID": "22 230609 BLD", "DATE OF ISSUE": "25/1/2023", "DATE OF COMPLETION": "", "STATUS": "0", "ADDRESS": "100 Westbourne Ave" }, "geometry": { "type": "Point", "coordinates": [ -79.29165044, 43.70573756 ] } },
{ "type": "Feature", "properties": { "PERMIT ID": "23 104051 BLD", "DATE OF ISSUE": "24/1/2023", "DATE OF COMPLETION": "2/6/2023", "STATUS": "1", "ADDRESS": "14 Shoreview Dr" }, "geometry": { "type": "Point", "coordinates": [ -79.1786433, 43.76039028 ] } },
{ "type": "Feature", "properties": { "PERMIT ID": "23 104541 BLD", "DATE OF ISSUE": "24/1/2023", "DATE OF COMPLETION": "14/9/2023", "STATUS": "1", "ADDRESS": "35 Adencliff Rd" }, "geometry": { "type": "Point", "coordinates": [ -79.32108521, 43.79216896 ] } },
{ "type": "Feature", "properties": { "PERMIT ID": "22 223149 BLD", "DATE OF ISSUE": "23/1/2023", "DATE OF COMPLETION": "21/3/2024", "STATUS": "1", "ADDRESS": "46 Ecker Dr" }, "geometry": { "type": "Point", "coordinates": [ -79.55201138, 43.60713115 ] } },
{ "type": "Feature", "properties": { "PERMIT ID": "23 101467 BLD", "DATE OF ISSUE": "16/1/2023", "DATE OF COMPLETION": "26/6/2023", "STATUS": "1", "ADDRESS": "432 Mortimer Ave" }, "geometry": { "type": "Point", "coordinates": [ -79.33407078, 43.6891474 ] } },
{ "type": "Feature", "properties": { "PERMIT ID": "22 217040 BLD", "DATE OF ISSUE": "13/1/2023", "DATE OF COMPLETION": "6/10/2023", "STATUS": "1", "ADDRESS": "27 Kingsview Blvd" }, "geometry": { "type": "Point", "coordinates": [ -79.55179034, 43.69862939 ] } },
{ "type": "Feature", "properties": { "PERMIT ID": "22 224410 BLD", "DATE OF ISSUE": "13/1/2023", "DATE OF COMPLETION": "3/5/2023", "STATUS": "1", "ADDRESS": "16 Dittmer Cres" }, "geometry": { "type": "Point", "coordinates": [ -79.58150706, 43.72105457 ] } },
{ "type": "Feature", "properties": { "PERMIT ID": "22 230526 BLD", "DATE OF ISSUE": "11/1/2023", "DATE OF COMPLETION": "25/4/2023", "STATUS": "1", "ADDRESS": "154 Sheldon Ave" }, "geometry": { "type": "Point", "coordinates": [ -79.5435032, 43.60276634 ] } },
{ "type": "Feature", "properties": { "PERMIT ID": "22 218610 BLD", "DATE OF ISSUE": "9/1/2023", "DATE OF COMPLETION": "25/7/2023", "STATUS": "1", "ADDRESS": "31 Blackbush Dr" }, "geometry": { "type": "Point", "coordinates": [ -79.59252406, 43.75061853 ] } },
{ "type": "Feature", "properties": { "PERMIT ID": "22 231369 BLD", "DATE OF ISSUE": "9/1/2023", "DATE OF COMPLETION": "21/12/2023", "STATUS": "1", "ADDRESS": "34 Torrance Rd" }, "geometry": { "type": "Point", "coordinates": [ -79.23654359, 43.74158915 ] } },
{ "type": "Feature", "properties": { "PERMIT ID": "22 204431 BLD", "DATE OF ISSUE": "5/1/2023", "DATE OF COMPLETION": "29/8/2023", "STATUS": "1", "ADDRESS": "21 Braymore Blvd" }, "geometry": { "type": "Point", "coordinates": [ -79.17595726, 43.80275345 ] } },
{ "type": "Feature", "properties": { "PERMIT ID": "22 233883 BLD", "DATE OF ISSUE": "4/1/2023", "DATE OF COMPLETION": "", "STATUS": "0", "ADDRESS": "7 Blandford St" }, "geometry": { "type": "Point", "coordinates": [ -79.43957396, 43.68727377 ] } },
{ "type": "Feature", "properties": { "PERMIT ID": "22 237582 BLD", "DATE OF ISSUE": "4/1/2023", "DATE OF COMPLETION": "11/4/2023", "STATUS": "1", "ADDRESS": "65 Bogert Ave" }, "geometry": { "type": "Point", "coordinates": [ -79.41386433, 43.75987234 ] } },
{ "type": "Feature", "properties": { "PERMIT ID": "22 241977 BLD", "DATE OF ISSUE": "4/1/2023", "DATE OF COMPLETION": "3/2/2023", "STATUS": "1", "ADDRESS": "39 Henry St" }, "geometry": { "type": "Point", "coordinates": [ -79.39399343, 43.65776659 ] } },
{ "type": "Feature", "properties": { "PERMIT ID": "22 235183 BLD", "DATE OF ISSUE": "23/12/2022", "DATE OF COMPLETION": "", "STATUS": "0", "ADDRESS": "6 Manaham Rd" }, "geometry": { "type": "Point", "coordinates": [ -79.16351832, 43.76883854 ] } },
{ "type": "Feature", "properties": { "PERMIT ID": "22 233832 BLD", "DATE OF ISSUE": "21/12/2022", "DATE OF COMPLETION": "28/6/2023", "STATUS": "1", "ADDRESS": "38 Lissom Cres" }, "geometry": { "type": "Point", "coordinates": [ -79.44410246, 43.78564879 ] } },
{ "type": "Feature", "properties": { "PERMIT ID": "22 219744 BLD", "DATE OF ISSUE": "19/12/2022", "DATE OF COMPLETION": "", "STATUS": "0", "ADDRESS": "3 Roblocke Ave" }, "geometry": { "type": "Point", "coordinates": [ -79.42422195, 43.66331423 ] } },
{ "type": "Feature", "properties": { "PERMIT ID": "16 141239 BLD", "DATE OF ISSUE": "15/12/2022", "DATE OF COMPLETION": "5/8/2023", "STATUS": "1", "ADDRESS": "253 Woodsworth Rd" }, "geometry": { "type": "Point", "coordinates": [ -79.36724149, 43.76480189 ] } },
{ "type": "Feature", "properties": { "PERMIT ID": "22 234777 BLD", "DATE OF ISSUE": "15/12/2022", "DATE OF COMPLETION": "1/3/2023", "STATUS": "1", "ADDRESS": "72 Houston Cres" }, "geometry": { "type": "Point", "coordinates": [ -79.34776463, 43.78707545 ] } },
{ "type": "Feature", "properties": { "PERMIT ID": "22 177992 BLD", "DATE OF ISSUE": "12/12/2022", "DATE OF COMPLETION": "1/3/2023", "STATUS": "1", "ADDRESS": "16 Eringate Dr" }, "geometry": { "type": "Point", "coordinates": [ -79.5735082, 43.66333655 ] } },
{ "type": "Feature", "properties": { "PERMIT ID": "22 169085 BLD", "DATE OF ISSUE": "8/12/2022", "DATE OF COMPLETION": "2/1/2024", "STATUS": "1", "ADDRESS": "7 Firebrace Rd" }, "geometry": { "type": "Point", "coordinates": [ -79.33147164, 43.81717717 ] } },
{ "type": "Feature", "properties": { "PERMIT ID": "22 218458 BLD", "DATE OF ISSUE": "5/12/2022", "DATE OF COMPLETION": "20/9/2023", "STATUS": "1", "ADDRESS": "6 John Garland Blvd" }, "geometry": { "type": "Point", "coordinates": [ -79.57916717, 43.73556963 ] } },
{ "type": "Feature", "properties": { "PERMIT ID": "22 219497 BLD", "DATE OF ISSUE": "5/12/2022", "DATE OF COMPLETION": "5/9/2023", "STATUS": "1", "ADDRESS": "63 Clearbrooke Crcl" }, "geometry": { "type": "Point", "coordinates": [ -79.56303135, 43.71973737 ] } },
{ "type": "Feature", "properties": { "PERMIT ID": "22 222768 BLD", "DATE OF ISSUE": "3/12/2022", "DATE OF COMPLETION": "21/2/2023", "STATUS": "1", "ADDRESS": "25 Whaley Dr" }, "geometry": { "type": "Point", "coordinates": [ -79.54953597, 43.60587969 ] } },
{ "type": "Feature", "properties": { "PERMIT ID": "22 206128 BLD", "DATE OF ISSUE": "1/12/2022", "DATE OF COMPLETION": "13/1/2023", "STATUS": "1", "ADDRESS": "7 Belmore Ave" }, "geometry": { "type": "Point", "coordinates": [ -79.30960471, 43.74440506 ] } },
{ "type": "Feature", "properties": { "PERMIT ID": "22 203365 BLD", "DATE OF ISSUE": "30/11/2022", "DATE OF COMPLETION": "28/3/2023", "STATUS": "1", "ADDRESS": "580 McCowan Rd" }, "geometry": { "type": "Point", "coordinates": [ -79.24376651, 43.75051224 ] } },
{ "type": "Feature", "properties": { "PERMIT ID": "22 191733 BLD", "DATE OF ISSUE": "28/11/2022", "DATE OF COMPLETION": "7/3/2023", "STATUS": "1", "ADDRESS": "50 Panmure Cres" }, "geometry": { "type": "Point", "coordinates": [ -79.25489825, 43.74641193 ] } },
{ "type": "Feature", "properties": { "PERMIT ID": "22 210933 BLD", "DATE OF ISSUE": "25/11/2022", "DATE OF COMPLETION": "17/1/2023", "STATUS": "1", "ADDRESS": "3 Fairway Dr" }, "geometry": { "type": "Point", "coordinates": [ -79.23393289, 43.74969751 ] } },
{ "type": "Feature", "properties": { "PERMIT ID": "22 217187 BLD", "DATE OF ISSUE": "25/11/2022", "DATE OF COMPLETION": "21/3/2023", "STATUS": "1", "ADDRESS": "24 Beveridge Dr" }, "geometry": { "type": "Point", "coordinates": [ -79.32359251, 43.74855023 ] } },
{ "type": "Feature", "properties": { "PERMIT ID": "22 227360 BLD", "DATE OF ISSUE": "21/11/2022", "DATE OF COMPLETION": "24/7/2023", "STATUS": "1", "ADDRESS": "37 Marcella St" }, "geometry": { "type": "Point", "coordinates": [ -79.212171, 43.75928133 ] } },
{ "type": "Feature", "properties": { "PERMIT ID": "22 207866 BLD", "DATE OF ISSUE": "18/11/2022", "DATE OF COMPLETION": "16/8/2023", "STATUS": "1", "ADDRESS": "38 Dashwood Cres" }, "geometry": { "type": "Point", "coordinates": [ -79.55550939, 43.73982027 ] } },
{ "type": "Feature", "properties": { "PERMIT ID": "22 208729 BLD", "DATE OF ISSUE": "17/11/2022", "DATE OF COMPLETION": "29/11/2022", "STATUS": "1", "ADDRESS": "701 Shaw St" }, "geometry": { "type": "Point", "coordinates": [ -79.42245749, 43.66116847 ] } },
{ "type": "Feature", "properties": { "PERMIT ID": "22 151376 BLD", "DATE OF ISSUE": "16/11/2022", "DATE OF COMPLETION": "", "STATUS": "0", "ADDRESS": "157 Shropshire Dr" }, "geometry": { "type": "Point", "coordinates": [ -79.28033843, 43.75787709 ] } },
{ "type": "Feature", "properties": { "PERMIT ID": "22 214120 BLD", "DATE OF ISSUE": "16/11/2022", "DATE OF COMPLETION": "15/5/2023", "STATUS": "1", "ADDRESS": "622 Davenport Rd" }, "geometry": { "type": "Point", "coordinates": [ -79.41289073, 43.67704522 ] } },
{ "type": "Feature", "properties": { "PERMIT ID": "22 207764 BLD", "DATE OF ISSUE": "14/11/2022", "DATE OF COMPLETION": "29/2/2024", "STATUS": "1", "ADDRESS": "15 Shadowbrook Dr" }, "geometry": { "type": "Point", "coordinates": [ -79.54876897, 43.65982069 ] } },
{ "type": "Feature", "properties": { "PERMIT ID": "22 186635 BLD", "DATE OF ISSUE": "8/11/2022", "DATE OF COMPLETION": "3/2/2023", "STATUS": "1", "ADDRESS": "16 Minto St" }, "geometry": { "type": "Point", "coordinates": [ -79.3244903, 43.66371727 ] } },
{ "type": "Feature", "properties": { "PERMIT ID": "22 217227 BLD", "DATE OF ISSUE": "8/11/2022", "DATE OF COMPLETION": "12/4/2023", "STATUS": "1", "ADDRESS": "8 Orleans Dr" }, "geometry": { "type": "Point", "coordinates": [ -79.16133151, 43.79520304 ] } },
{ "type": "Feature", "properties": { "PERMIT ID": "22 223895 BLD", "DATE OF ISSUE": "7/11/2022", "DATE OF COMPLETION": "3/3/2023", "STATUS": "1", "ADDRESS": "26 Alice Cres" }, "geometry": { "type": "Point", "coordinates": [ -79.31008253, 43.76061343 ] } },
{ "type": "Feature", "properties": { "PERMIT ID": "22 214633 BLD", "DATE OF ISSUE": "3/11/2022", "DATE OF COMPLETION": "30/3/2023", "STATUS": "1", "ADDRESS": "42 Aspendale Dr" }, "geometry": { "type": "Point", "coordinates": [ -79.25388689, 43.77072183 ] } },
{ "type": "Feature", "properties": { "PERMIT ID": "22 200975 BLD", "DATE OF ISSUE": "2/11/2022", "DATE OF COMPLETION": "21/3/2023", "STATUS": "1", "ADDRESS": "39 Aspendale Dr" }, "geometry": { "type": "Point", "coordinates": [ -79.25447042, 43.77057545 ] } },
{ "type": "Feature", "properties": { "PERMIT ID": "22 215292 BLD", "DATE OF ISSUE": "2/11/2022", "DATE OF COMPLETION": "28/3/2023", "STATUS": "1", "ADDRESS": "7 Silver Spruce Dr" }, "geometry": { "type": "Point", "coordinates": [ -79.32349855, 43.79990519 ] } },
{ "type": "Feature", "properties": { "PERMIT ID": "21 207383 BLD", "DATE OF ISSUE": "1/11/2022", "DATE OF COMPLETION": "11/10/2023", "STATUS": "1", "ADDRESS": "1 Bathgate Dr" }, "geometry": { "type": "Point", "coordinates": [ -79.15045683, 43.77687522 ] } },
{ "type": "Feature", "properties": { "PERMIT ID": "22 191195 BLD", "DATE OF ISSUE": "27/10/2022", "DATE OF COMPLETION": "27/2/2023", "STATUS": "1", "ADDRESS": "14 Willowhurst Cres" }, "geometry": { "type": "Point", "coordinates": [ -79.29635415, 43.75435168 ] } },
{ "type": "Feature", "properties": { "PERMIT ID": "22 195042 BLD", "DATE OF ISSUE": "27/10/2022", "DATE OF COMPLETION": "20/11/2023", "STATUS": "1", "ADDRESS": "11 Lesterwood Cres" }, "geometry": { "type": "Point", "coordinates": [ -79.2655683, 43.75899584 ] } },
{ "type": "Feature", "properties": { "PERMIT ID": "22 147469 BLD", "DATE OF ISSUE": "26/10/2022", "DATE OF COMPLETION": "27/3/2023", "STATUS": "1", "ADDRESS": "10 Sealcove Dr" }, "geometry": { "type": "Point", "coordinates": [ -79.56912507, 43.63924629 ] } },
{ "type": "Feature", "properties": { "PERMIT ID": "22 212580 BLD", "DATE OF ISSUE": "26/10/2022", "DATE OF COMPLETION": "6/4/2023", "STATUS": "1", "ADDRESS": "33 Armstrong Ave" }, "geometry": { "type": "Point", "coordinates": [ -79.43910158, 43.6641321 ] } },
{ "type": "Feature", "properties": { "PERMIT ID": "22 214385 BLD", "DATE OF ISSUE": "25/10/2022", "DATE OF COMPLETION": "", "STATUS": "0", "ADDRESS": "50 Carslake Cres" }, "geometry": { "type": "Point", "coordinates": [ -79.24328223, 43.74685538 ] } },
{ "type": "Feature", "properties": { "PERMIT ID": "22 108046 BLD", "DATE OF ISSUE": "25/10/2022", "DATE OF COMPLETION": "22/6/2023", "STATUS": "1", "ADDRESS": "18 Stornoway Crt" }, "geometry": { "type": "Point", "coordinates": [ -79.17693217, 43.77682607 ] } },
{ "type": "Feature", "properties": { "PERMIT ID": "22 214566 BLD", "DATE OF ISSUE": "25/10/2022", "DATE OF COMPLETION": "11/5/2023", "STATUS": "1", "ADDRESS": "32 Haileybury Dr" }, "geometry": { "type": "Point", "coordinates": [ -79.25865078, 43.74573477 ] } },
{ "type": "Feature", "properties": { "PERMIT ID": "22 215560 BLD", "DATE OF ISSUE": "25/10/2022", "DATE OF COMPLETION": "29/8/2023", "STATUS": "1", "ADDRESS": "36 Ronway Cres" }, "geometry": { "type": "Point", "coordinates": [ -79.229561, 43.74536622 ] } },
{ "type": "Feature", "properties": { "PERMIT ID": "22 217170 BLD", "DATE OF ISSUE": "24/10/2022", "DATE OF COMPLETION": "", "STATUS": "0", "ADDRESS": "450 Melrose Ave" }, "geometry": { "type": "Point", "coordinates": [ -79.42308804, 43.72920038 ] } },
{ "type": "Feature", "properties": { "PERMIT ID": "22 121664 BLD", "DATE OF ISSUE": "24/10/2022", "DATE OF COMPLETION": "12/7/2023", "STATUS": "1", "ADDRESS": "77 Robert St" }, "geometry": { "type": "Point", "coordinates": [ -79.40265626, 43.66038478 ] } },
{ "type": "Feature", "properties": { "PERMIT ID": "22 207228 BLD", "DATE OF ISSUE": "24/10/2022", "DATE OF COMPLETION": "8/2/2023", "STATUS": "1", "ADDRESS": "101 Glen Long Ave" }, "geometry": { "type": "Point", "coordinates": [ -79.46257463, 43.70773411 ] } },
{ "type": "Feature", "properties": { "PERMIT ID": "22 214596 BLD", "DATE OF ISSUE": "21/10/2022", "DATE OF COMPLETION": "", "STATUS": "0", "ADDRESS": "42 Bardwell Cres" }, "geometry": { "type": "Point", "coordinates": [ -79.302644, 43.7360708 ] } },
{ "type": "Feature", "properties": { "PERMIT ID": "20 212326 BLD", "DATE OF ISSUE": "19/10/2022", "DATE OF COMPLETION": "17/1/2023", "STATUS": "1", "ADDRESS": "9 Spruce Hill Rd" }, "geometry": { "type": "Point", "coordinates": [ -79.28877222, 43.67303164 ] } },
{ "type": "Feature", "properties": { "PERMIT ID": "21 183034 BLD", "DATE OF ISSUE": "17/10/2022", "DATE OF COMPLETION": "24/6/2024", "STATUS": "1", "ADDRESS": "26 Elinor Ave" }, "geometry": { "type": "Point", "coordinates": [ -79.30175306, 43.74613476 ] } },
{ "type": "Feature", "properties": { "PERMIT ID": "22 174281 BLD", "DATE OF ISSUE": "17/10/2022", "DATE OF COMPLETION": "5/9/2023", "STATUS": "1", "ADDRESS": "96 Glenshephard Dr" }, "geometry": { "type": "Point", "coordinates": [ -79.24709434, 43.72945694 ] } },
{ "type": "Feature", "properties": { "PERMIT ID": "22 208939 BLD", "DATE OF ISSUE": "17/10/2022", "DATE OF COMPLETION": "22/3/2023", "STATUS": "1", "ADDRESS": "16 Pannahill Rd" }, "geometry": { "type": "Point", "coordinates": [ -79.4512533, 43.76338525 ] } },
{ "type": "Feature", "properties": { "PERMIT ID": "22 178511 BLD", "DATE OF ISSUE": "12/10/2022", "DATE OF COMPLETION": "14/2/2023", "STATUS": "1", "ADDRESS": "10 Brigadoon Cres" }, "geometry": { "type": "Point", "coordinates": [ -79.30227849, 43.79808142 ] } },
{ "type": "Feature", "properties": { "PERMIT ID": "22 196200 BLD", "DATE OF ISSUE": "11/10/2022", "DATE OF COMPLETION": "18/8/2023", "STATUS": "1", "ADDRESS": "404 Huntingwood Dr" }, "geometry": { "type": "Point", "coordinates": [ -79.31975353, 43.78198529 ] } },
{ "type": "Feature", "properties": { "PERMIT ID": "21 226176 BLD", "DATE OF ISSUE": "7/10/2022", "DATE OF COMPLETION": "26/4/2023", "STATUS": "1", "ADDRESS": "78 Boulderbrook Dr" }, "geometry": { "type": "Point", "coordinates": [ -79.23074922, 43.8338782 ] } },
{ "type": "Feature", "properties": { "PERMIT ID": "21 134979 BLD", "DATE OF ISSUE": "6/10/2022", "DATE OF COMPLETION": "15/4/2024", "STATUS": "1", "ADDRESS": "244 Rosemount Ave" }, "geometry": { "type": "Point", "coordinates": [ -79.44719235, 43.67544674 ] } },
{ "type": "Feature", "properties": { "PERMIT ID": "22 191516 BLD", "DATE OF ISSUE": "5/10/2022", "DATE OF COMPLETION": "", "STATUS": "0", "ADDRESS": "37 Lord Roberts Dr" }, "geometry": { "type": "Point", "coordinates": [ -79.26197164, 43.73525522 ] } },
{ "type": "Feature", "properties": { "PERMIT ID": "22 161832 BLD", "DATE OF ISSUE": "5/10/2022", "DATE OF COMPLETION": "13/2/2024", "STATUS": "1", "ADDRESS": "166 Kingsview Blvd" }, "geometry": { "type": "Point", "coordinates": [ -79.5659046, 43.69463713 ] } },
{ "type": "Feature", "properties": { "PERMIT ID": "22 181231 BLD", "DATE OF ISSUE": "5/10/2022", "DATE OF COMPLETION": "1/11/2022", "STATUS": "1", "ADDRESS": "869 Cosburn Ave" }, "geometry": { "type": "Point", "coordinates": [ -79.31639003, 43.69648076 ] } },
{ "type": "Feature", "properties": { "PERMIT ID": "22 194787 BLD", "DATE OF ISSUE": "5/10/2022", "DATE OF COMPLETION": "23/3/2023", "STATUS": "1", "ADDRESS": "39 Terraview Blvd" }, "geometry": { "type": "Point", "coordinates": [ -79.31500737, 43.76501132 ] } },
{ "type": "Feature", "properties": { "PERMIT ID": "22 173422 BLD", "DATE OF ISSUE": "4/10/2022", "DATE OF COMPLETION": "7/9/2023", "STATUS": "1", "ADDRESS": "461 Manning Ave" }, "geometry": { "type": "Point", "coordinates": [ -79.41362992, 43.65863683 ] } },
{ "type": "Feature", "properties": { "PERMIT ID": "22 188668 BLD", "DATE OF ISSUE": "3/10/2022", "DATE OF COMPLETION": "4/12/2023", "STATUS": "1", "ADDRESS": "30 Moynes Ave" }, "geometry": { "type": "Point", "coordinates": [ -79.49957417, 43.62877579 ] } },
{ "type": "Feature", "properties": { "PERMIT ID": "22 205764 BLD", "DATE OF ISSUE": "3/10/2022", "DATE OF COMPLETION": "24/1/2023", "STATUS": "1", "ADDRESS": "139 Flora Dr" }, "geometry": { "type": "Point", "coordinates": [ -79.2740117, 43.74451634 ] } },
{ "type": "Feature", "properties": { "PERMIT ID": "22 205864 BLD", "DATE OF ISSUE": "3/10/2022", "DATE OF COMPLETION": "21/3/2023", "STATUS": "1", "ADDRESS": "26 Densgrove Rd" }, "geometry": { "type": "Point", "coordinates": [ -79.22249289, 43.76656571 ] } },
{ "type": "Feature", "properties": { "PERMIT ID": "22 172417 BLD", "DATE OF ISSUE": "30/9/2022", "DATE OF COMPLETION": "", "STATUS": "0", "ADDRESS": "24 Madrid St" }, "geometry": { "type": "Point", "coordinates": [ -79.25534626, 43.76887596 ] } },
{ "type": "Feature", "properties": { "PERMIT ID": "22 174977 BLD", "DATE OF ISSUE": "30/9/2022", "DATE OF COMPLETION": "", "STATUS": "0", "ADDRESS": "199 Pellatt Ave" }, "geometry": { "type": "Point", "coordinates": [ -79.52133189, 43.71410803 ] } },
{ "type": "Feature", "properties": { "PERMIT ID": "22 188872 BLD", "DATE OF ISSUE": "29/9/2022", "DATE OF COMPLETION": "27/1/2023", "STATUS": "1", "ADDRESS": "6 Goodless Crt" }, "geometry": { "type": "Point", "coordinates": [ -79.22753717, 43.79777941 ] } },
{ "type": "Feature", "properties": { "PERMIT ID": "21 225433 BLD", "DATE OF ISSUE": "27/9/2022", "DATE OF COMPLETION": "31/8/2023", "STATUS": "1", "ADDRESS": "78 Tedford Dr" }, "geometry": { "type": "Point", "coordinates": [ -79.29895232, 43.74039861 ] } },
{ "type": "Feature", "properties": { "PERMIT ID": "22 154441 BLD", "DATE OF ISSUE": "27/9/2022", "DATE OF COMPLETION": "31/1/2023", "STATUS": "1", "ADDRESS": "114 Earlscourt Ave" }, "geometry": { "type": "Point", "coordinates": [ -79.44904001, 43.68029091 ] } },
{ "type": "Feature", "properties": { "PERMIT ID": "22 179193 BLD", "DATE OF ISSUE": "27/9/2022", "DATE OF COMPLETION": "27/11/2023", "STATUS": "1", "ADDRESS": "24 Clifford Crt" }, "geometry": { "type": "Point", "coordinates": [ -79.30235913, 43.75940748 ] } },
{ "type": "Feature", "properties": { "PERMIT ID": "22 179009 BLD", "DATE OF ISSUE": "20/9/2022", "DATE OF COMPLETION": "13/2/2023", "STATUS": "1", "ADDRESS": "82 Tourmaline Dr" }, "geometry": { "type": "Point", "coordinates": [ -79.29608175, 43.77345839 ] } },
{ "type": "Feature", "properties": { "PERMIT ID": "22 203098 BLD", "DATE OF ISSUE": "20/9/2022", "DATE OF COMPLETION": "19/4/2024", "STATUS": "1", "ADDRESS": "89 Picola Crt" }, "geometry": { "type": "Point", "coordinates": [ -79.34700949, 43.80358154 ] } },
{ "type": "Feature", "properties": { "PERMIT ID": "22 203037 BLD", "DATE OF ISSUE": "19/9/2022", "DATE OF COMPLETION": "2/6/2023", "STATUS": "1", "ADDRESS": "47 Glentworth Rd" }, "geometry": { "type": "Point", "coordinates": [ -79.35740561, 43.77616644 ] } },
{ "type": "Feature", "properties": { "PERMIT ID": "20 107053 BLD", "DATE OF ISSUE": "16/9/2022", "DATE OF COMPLETION": "9/5/2024", "STATUS": "1", "ADDRESS": "14 Fieldstone Rd" }, "geometry": { "type": "Point", "coordinates": [ -79.57837407, 43.63416793 ] } },
{ "type": "Feature", "properties": { "PERMIT ID": "22 157017 BLD", "DATE OF ISSUE": "16/9/2022", "DATE OF COMPLETION": "15/11/2022", "STATUS": "1", "ADDRESS": "43 Firwood Cres" }, "geometry": { "type": "Point", "coordinates": [ -79.55035127, 43.66521111 ] } },
{ "type": "Feature", "properties": { "PERMIT ID": "22 199192 BLD", "DATE OF ISSUE": "15/9/2022", "DATE OF COMPLETION": "13/10/2023", "STATUS": "1", "ADDRESS": "3766 Ellesmere Rd" }, "geometry": { "type": "Point", "coordinates": [ -79.16857477, 43.79157299 ] } },
{ "type": "Feature", "properties": { "PERMIT ID": "22 199928 BLD", "DATE OF ISSUE": "15/9/2022", "DATE OF COMPLETION": "7/12/2022", "STATUS": "1", "ADDRESS": "989 Old Cummer Ave" }, "geometry": { "type": "Point", "coordinates": [ -79.36965749, 43.79355994 ] } },
{ "type": "Feature", "properties": { "PERMIT ID": "21 216347 BLD", "DATE OF ISSUE": "14/9/2022", "DATE OF COMPLETION": "20/6/2023", "STATUS": "1", "ADDRESS": "76 Chestermere Blvd" }, "geometry": { "type": "Point", "coordinates": [ -79.22378593, 43.74920648 ] } },
{ "type": "Feature", "properties": { "PERMIT ID": "22 176971 BLD", "DATE OF ISSUE": "13/9/2022", "DATE OF COMPLETION": "30/12/2022", "STATUS": "1", "ADDRESS": "65 Scoville Sq" }, "geometry": { "type": "Point", "coordinates": [ -79.28852331, 43.82773752 ] } },
{ "type": "Feature", "properties": { "PERMIT ID": "22 185755 BLD", "DATE OF ISSUE": "12/9/2022", "DATE OF COMPLETION": "26/10/2023", "STATUS": "1", "ADDRESS": "89 Marble Arch Cres" }, "geometry": { "type": "Point", "coordinates": [ -79.29364808, 43.73493149 ] } },
{ "type": "Feature", "properties": { "PERMIT ID": "22 194121 BLD", "DATE OF ISSUE": "8/9/2022", "DATE OF COMPLETION": "10/5/2023", "STATUS": "1", "ADDRESS": "1 Mornington Gt" }, "geometry": { "type": "Point", "coordinates": [ -79.22655849, 43.76856885 ] } },
{ "type": "Feature", "properties": { "PERMIT ID": "22 151030 BLD", "DATE OF ISSUE": "2/9/2022", "DATE OF COMPLETION": "4/11/2022", "STATUS": "1", "ADDRESS": "7A Connorvale Ave" }, "geometry": { "type": "Point", "coordinates": [ -79.52896164, 43.60607703 ] } },
{ "type": "Feature", "properties": { "PERMIT ID": "22 173161 BLD", "DATE OF ISSUE": "1/9/2022", "DATE OF COMPLETION": "", "STATUS": "0", "ADDRESS": "26 Pinecone Dr" }, "geometry": { "type": "Point", "coordinates": [ -79.62201636, 43.72941352 ] } },
{ "type": "Feature", "properties": { "PERMIT ID": "22 192680 BLD", "DATE OF ISSUE": "31/8/2022", "DATE OF COMPLETION": "29/3/2023", "STATUS": "1", "ADDRESS": "17 Willsteven Dr" }, "geometry": { "type": "Point", "coordinates": [ -79.2210146, 43.75672548 ] } },
{ "type": "Feature", "properties": { "PERMIT ID": "22 137277 BLD", "DATE OF ISSUE": "30/8/2022", "DATE OF COMPLETION": "24/11/2022", "STATUS": "1", "ADDRESS": "54 Deanscroft Sq" }, "geometry": { "type": "Point", "coordinates": [ -79.17700715, 43.76472696 ] } },
{ "type": "Feature", "properties": { "PERMIT ID": "22 172687 BLD", "DATE OF ISSUE": "29/8/2022", "DATE OF COMPLETION": "13/4/2023", "STATUS": "1", "ADDRESS": "76 Densgrove Rd" }, "geometry": { "type": "Point", "coordinates": [ -79.21864065, 43.76754651 ] } },
{ "type": "Feature", "properties": { "PERMIT ID": "22 176533 BLD", "DATE OF ISSUE": "29/8/2022", "DATE OF COMPLETION": "21/11/2022", "STATUS": "1", "ADDRESS": "25 Oldborough Crcl" }, "geometry": { "type": "Point", "coordinates": [ -79.34267497, 43.78690702 ] } },
{ "type": "Feature", "properties": { "PERMIT ID": "22 192103 BLD", "DATE OF ISSUE": "29/8/2022", "DATE OF COMPLETION": "26/7/2023", "STATUS": "1", "ADDRESS": "1 Belyea Cres" }, "geometry": { "type": "Point", "coordinates": [ -79.25419569, 43.75158207 ] } },
{ "type": "Feature", "properties": { "PERMIT ID": "21 242872 BLD", "DATE OF ISSUE": "23/8/2022", "DATE OF COMPLETION": "18/1/2023", "STATUS": "1", "ADDRESS": "221 Hupfield Trl" }, "geometry": { "type": "Point", "coordinates": [ -79.21437047, 43.81517858 ] } },
{ "type": "Feature", "properties": { "PERMIT ID": "22 180243 BLD", "DATE OF ISSUE": "19/8/2022", "DATE OF COMPLETION": "21/2/2023", "STATUS": "1", "ADDRESS": "312 Spring Garden Ave" }, "geometry": { "type": "Point", "coordinates": [ -79.39631064, 43.7675594 ] } },
{ "type": "Feature", "properties": { "PERMIT ID": "21 216832 BLD", "DATE OF ISSUE": "18/8/2022", "DATE OF COMPLETION": "29/12/2023", "STATUS": "1", "ADDRESS": "1340 Avenue Rd" }, "geometry": { "type": "Point", "coordinates": [ -79.41275774, 43.71605109 ] } },
{ "type": "Feature", "properties": { "PERMIT ID": "22 171920 BLD", "DATE OF ISSUE": "17/8/2022", "DATE OF COMPLETION": "18/5/2023", "STATUS": "1", "ADDRESS": "173 Hounslow Ave" }, "geometry": { "type": "Point", "coordinates": [ -79.42261984, 43.77353808 ] } },
{ "type": "Feature", "properties": { "PERMIT ID": "22 172359 BLD", "DATE OF ISSUE": "12/8/2022", "DATE OF COMPLETION": "10/11/2022", "STATUS": "1", "ADDRESS": "717 Pharmacy Ave" }, "geometry": { "type": "Point", "coordinates": [ -79.29321288, 43.71593557 ] } },
{ "type": "Feature", "properties": { "PERMIT ID": "22 106191 BLD", "DATE OF ISSUE": "10/8/2022", "DATE OF COMPLETION": "23/12/2022", "STATUS": "1", "ADDRESS": "38 Conference Blvd" }, "geometry": { "type": "Point", "coordinates": [ -79.14572588, 43.7832573 ] } },
{ "type": "Feature", "properties": { "PERMIT ID": "22 111656 BLD", "DATE OF ISSUE": "8/8/2022", "DATE OF COMPLETION": "22/11/2022", "STATUS": "1", "ADDRESS": "37 Deerbrook Trl" }, "geometry": { "type": "Point", "coordinates": [ -79.32785592, 43.80043127 ] } },
{ "type": "Feature", "properties": { "PERMIT ID": "22 156112 BLD", "DATE OF ISSUE": "4/8/2022", "DATE OF COMPLETION": "", "STATUS": "0", "ADDRESS": "31 Flintwick Dr" }, "geometry": { "type": "Point", "coordinates": [ -79.25011327, 43.76694864 ] } },
{ "type": "Feature", "properties": { "PERMIT ID": "22 134177 BLD", "DATE OF ISSUE": "4/8/2022", "DATE OF COMPLETION": "28/2/2023", "STATUS": "1", "ADDRESS": "51 Porterfield Rd" }, "geometry": { "type": "Point", "coordinates": [ -79.58221599, 43.72262819 ] } },
{ "type": "Feature", "properties": { "PERMIT ID": "22 151473 BLD", "DATE OF ISSUE": "4/8/2022", "DATE OF COMPLETION": "17/3/2023", "STATUS": "1", "ADDRESS": "252 Thistle Down Blvd" }, "geometry": { "type": "Point", "coordinates": [ -79.55614625, 43.73863978 ] } },
{ "type": "Feature", "properties": { "PERMIT ID": "22 149515 BLD", "DATE OF ISSUE": "3/8/2022", "DATE OF COMPLETION": "", "STATUS": "0", "ADDRESS": "26 Riverhead Dr" }, "geometry": { "type": "Point", "coordinates": [ -79.56532721, 43.73003298 ] } },