{
"type": "FeatureCollection",
"name": "Winnipeg_ss",
"crs": { "type": "name", "properties": { "name": "urn:ogc:def:crs:OGC:1.3:CRS84" } },
"features": [
{ "type": "Feature", "properties": { "PERMIT ID": "23-253086 HO", "DATE OF ISSUE": "12/2/2024", "DATE OF COMPLETION": null, "STATUS": 0, "ADDRESS": "584 Deniset ST " }, "geometry": { "type": "Point", "coordinates": [ -97.09870284, 49.8785232 ] } },
{ "type": "Feature", "properties": { "PERMIT ID": "20-132257 HO", "DATE OF ISSUE": "18/6/2020", "DATE OF COMPLETION": "19/2/2021", "STATUS": 1, "ADDRESS": "829 Dufferin AVE " }, "geometry": { "type": "Point", "coordinates": [ -97.15943391, 49.91738853 ] } },
{ "type": "Feature", "properties": { "PERMIT ID": "20-133685 HO", "DATE OF ISSUE": "4/5/2020", "DATE OF COMPLETION": "28/5/2020", "STATUS": 1, "ADDRESS": "488 Walker AVE " }, "geometry": { "type": "Point", "coordinates": [ -97.13358757, 49.86223551 ] } },
{ "type": "Feature", "properties": { "PERMIT ID": "20-139878 HO", "DATE OF ISSUE": "3/6/2020", "DATE OF COMPLETION": "26/8/2020", "STATUS": 1, "ADDRESS": "301 Ferry RD " }, "geometry": { "type": "Point", "coordinates": [ -97.21810114, 49.88260555 ] } },
{ "type": "Feature", "properties": { "PERMIT ID": "20-142783 HO", "DATE OF ISSUE": "27/7/2020", "DATE OF COMPLETION": null, "STATUS": 0, "ADDRESS": "308 Ferry RD " }, "geometry": { "type": "Point", "coordinates": [ -97.21895365, 49.88306692 ] } },
{ "type": "Feature", "properties": { "PERMIT ID": "20-152873 HO", "DATE OF ISSUE": "20/7/2020", "DATE OF COMPLETION": "15/1/2021", "STATUS": 1, "ADDRESS": "481 Craig ST " }, "geometry": { "type": "Point", "coordinates": [ -97.18941184, 49.88012968 ] } },
{ "type": "Feature", "properties": { "PERMIT ID": "20-167382 HO", "DATE OF ISSUE": "26/8/2020", "DATE OF COMPLETION": "16/2/2021", "STATUS": 1, "ADDRESS": "334 Nightingale RD " }, "geometry": { "type": "Point", "coordinates": [ -97.26860285, 49.88216371 ] } },
{ "type": "Feature", "properties": { "PERMIT ID": "20-169168 HO", "DATE OF ISSUE": "11/9/2020", "DATE OF COMPLETION": "21/7/2021", "STATUS": 1, "ADDRESS": "610 Beverley ST " }, "geometry": { "type": "Point", "coordinates": [ -97.16540539, 49.8974442 ] } },
{ "type": "Feature", "properties": { "PERMIT ID": "20-182738 HO", "DATE OF ISSUE": "15/9/2020", "DATE OF COMPLETION": "7/1/2021", "STATUS": 1, "ADDRESS": "283 Helmsdale AVE " }, "geometry": { "type": "Point", "coordinates": [ -97.09957976, 49.92755628 ] } },
{ "type": "Feature", "properties": { "PERMIT ID": "20-184189 HO", "DATE OF ISSUE": "14/10/2020", "DATE OF COMPLETION": "25/3/2022", "STATUS": 1, "ADDRESS": "192 Rupertsland BLVD " }, "geometry": { "type": "Point", "coordinates": [ -97.12101272, 49.93133214 ] } },
{ "type": "Feature", "properties": { "PERMIT ID": "20-185282 HO", "DATE OF ISSUE": "28/9/2020", "DATE OF COMPLETION": "25/8/2023", "STATUS": 1, "ADDRESS": "720 Oakenwald AVE " }, "geometry": { "type": "Point", "coordinates": [ -97.14395448, 49.8442959 ] } },
{ "type": "Feature", "properties": { "PERMIT ID": "20-193275 HO", "DATE OF ISSUE": "14/10/2020", "DATE OF COMPLETION": "2/12/2021", "STATUS": 1, "ADDRESS": "78 Essex AVE " }, "geometry": { "type": "Point", "coordinates": [ -97.10649952, 49.86844539 ] } },
{ "type": "Feature", "properties": { "PERMIT ID": "20-198364 HO", "DATE OF ISSUE": "2/11/2020", "DATE OF COMPLETION": "23/8/2022", "STATUS": 1, "ADDRESS": "615 Johnson AVE E" }, "geometry": { "type": "Point", "coordinates": [ -97.09260298, 49.90736793 ] } },
{ "type": "Feature", "properties": { "PERMIT ID": "20-209515 HO", "DATE OF ISSUE": "26/11/2020", "DATE OF COMPLETION": "21/5/2021", "STATUS": 1, "ADDRESS": "329 Helmsdale AVE " }, "geometry": { "type": "Point", "coordinates": [ -97.09746973, 49.92684305 ] } },
{ "type": "Feature", "properties": { "PERMIT ID": "20-211660 HO", "DATE OF ISSUE": "22/11/2020", "DATE OF COMPLETION": "23/2/2021", "STATUS": 1, "ADDRESS": "723 Regent AVE W" }, "geometry": { "type": "Point", "coordinates": [ -97.02415041, 49.89550393 ] } },
{ "type": "Feature", "properties": { "PERMIT ID": "20-212523 HO", "DATE OF ISSUE": "3/5/2021", "DATE OF COMPLETION": "13/6/2022", "STATUS": 1, "ADDRESS": "819 McPhillips ST " }, "geometry": { "type": "Point", "coordinates": [ -97.16841601, 49.92887632 ] } },
{ "type": "Feature", "properties": { "PERMIT ID": "20-218928 HO", "DATE OF ISSUE": "27/11/2020", "DATE OF COMPLETION": "14/4/2022", "STATUS": 1, "ADDRESS": "553 Melrose AVE E" }, "geometry": { "type": "Point", "coordinates": [ -96.98950624, 49.89459881 ] } },
{ "type": "Feature", "properties": { "PERMIT ID": "20-221006 HO", "DATE OF ISSUE": "8/12/2020", "DATE OF COMPLETION": "3/5/2021", "STATUS": 1, "ADDRESS": "342 Mandeville ST " }, "geometry": { "type": "Point", "coordinates": [ -97.23199834, 49.88285535 ] } },
{ "type": "Feature", "properties": { "PERMIT ID": "20-227731 HO", "DATE OF ISSUE": "4/1/2021", "DATE OF COMPLETION": "4/11/2021", "STATUS": 1, "ADDRESS": "40 Paddington RD " }, "geometry": { "type": "Point", "coordinates": [ -97.10008393, 49.81491344 ] } },
{ "type": "Feature", "properties": { "PERMIT ID": "20-230279 HO", "DATE OF ISSUE": "18/1/2021", "DATE OF COMPLETION": "18/6/2021", "STATUS": 1, "ADDRESS": "222 Polson AVE " }, "geometry": { "type": "Point", "coordinates": [ -97.12618649, 49.92645178 ] } },
{ "type": "Feature", "properties": { "PERMIT ID": "20-230768 HO", "DATE OF ISSUE": "26/1/2021", "DATE OF COMPLETION": "26/7/2022", "STATUS": 1, "ADDRESS": "161 Princeton BLVD " }, "geometry": { "type": "Point", "coordinates": [ -97.25993022, 49.86947893 ] } },
{ "type": "Feature", "properties": { "PERMIT ID": "21-105786 HO", "DATE OF ISSUE": "5/2/2021", "DATE OF COMPLETION": "15/4/2021", "STATUS": 1, "ADDRESS": "434 Davidson ST " }, "geometry": { "type": "Point", "coordinates": [ -97.24965621, 49.8845945 ] } },
{ "type": "Feature", "properties": { "PERMIT ID": "21-111535 HO", "DATE OF ISSUE": "21/7/2021", "DATE OF COMPLETION": null, "STATUS": 0, "ADDRESS": "5730 Roblin BLVD " }, "geometry": { "type": "Point", "coordinates": [ -97.29760568, 49.85998192 ] } },
{ "type": "Feature", "properties": { "PERMIT ID": "21-112467 HO", "DATE OF ISSUE": "9/3/2021", "DATE OF COMPLETION": "6/7/2021", "STATUS": 1, "ADDRESS": "800 Consol AVE " }, "geometry": { "type": "Point", "coordinates": [ -97.07843659, 49.91509714 ] } },
{ "type": "Feature", "properties": { "PERMIT ID": "21-113661 HO", "DATE OF ISSUE": "19/7/2021", "DATE OF COMPLETION": null, "STATUS": 0, "ADDRESS": "19 Cranlea PATH " }, "geometry": { "type": "Point", "coordinates": [ -97.06544682, 49.94606516 ] } },
{ "type": "Feature", "properties": { "PERMIT ID": "21-118584 HO", "DATE OF ISSUE": "1/2/2022", "DATE OF COMPLETION": "28/5/2024", "STATUS": 1, "ADDRESS": "63 Delisle CRT " }, "geometry": { "type": "Point", "coordinates": [ -97.1981473, 49.77822607 ] } },
{ "type": "Feature", "properties": { "PERMIT ID": "21-118943 HO", "DATE OF ISSUE": "7/4/2021", "DATE OF COMPLETION": null, "STATUS": 0, "ADDRESS": "127 Pilgrim AVE " }, "geometry": { "type": "Point", "coordinates": [ -97.1020848, 49.86364298 ] } },
{ "type": "Feature", "properties": { "PERMIT ID": "21-118990 HO", "DATE OF ISSUE": "6/4/2021", "DATE OF COMPLETION": "25/4/2022", "STATUS": 1, "ADDRESS": "129 Pilgrim AVE " }, "geometry": { "type": "Point", "coordinates": [ -97.10199255, 49.86367205 ] } },
{ "type": "Feature", "properties": { "PERMIT ID": "21-123015 HO", "DATE OF ISSUE": "6/4/2021", "DATE OF COMPLETION": "9/1/2023", "STATUS": 1, "ADDRESS": "67 Philip Lee DR " }, "geometry": { "type": "Point", "coordinates": [ -97.05407799, 49.90889356 ] } },
{ "type": "Feature", "properties": { "PERMIT ID": "21-125271 HO", "DATE OF ISSUE": "12/5/2021", "DATE OF COMPLETION": null, "STATUS": 0, "ADDRESS": "62 Picardy PL " }, "geometry": { "type": "Point", "coordinates": [ -97.16575784, 49.88544954 ] } },
{ "type": "Feature", "properties": { "PERMIT ID": "21-125754 HO", "DATE OF ISSUE": "15/4/2021", "DATE OF COMPLETION": null, "STATUS": 0, "ADDRESS": "957 Minto ST " }, "geometry": { "type": "Point", "coordinates": [ -97.17946557, 49.89587617 ] } },
{ "type": "Feature", "properties": { "PERMIT ID": "21-129612 HO", "DATE OF ISSUE": "10/5/2021", "DATE OF COMPLETION": "14/5/2024", "STATUS": 1, "ADDRESS": "454 Ritchot ST " }, "geometry": { "type": "Point", "coordinates": [ -97.11522441, 49.88696126 ] } },
{ "type": "Feature", "properties": { "PERMIT ID": "21-151789 HO", "DATE OF ISSUE": "24/6/2021", "DATE OF COMPLETION": "10/2/2022", "STATUS": 1, "ADDRESS": "139 Clonard AVE " }, "geometry": { "type": "Point", "coordinates": [ -97.10329089, 49.86578078 ] } },
{ "type": "Feature", "properties": { "PERMIT ID": "21-155219 HO", "DATE OF ISSUE": "3/6/2021", "DATE OF COMPLETION": null, "STATUS": 0, "ADDRESS": "380 Old Commonwealth PATH " }, "geometry": { "type": "Point", "coordinates": [ -97.20644148, 49.95687913 ] } },
{ "type": "Feature", "properties": { "PERMIT ID": "21-160368 HO", "DATE OF ISSUE": "3/9/2021", "DATE OF COMPLETION": "10/6/2022", "STATUS": 1, "ADDRESS": "192 Perth AVE " }, "geometry": { "type": "Point", "coordinates": [ -97.11801351, 49.93517388 ] } },
{ "type": "Feature", "properties": { "PERMIT ID": "21-170891 HO", "DATE OF ISSUE": "6/8/2021", "DATE OF COMPLETION": null, "STATUS": 0, "ADDRESS": "285 Milton ST " }, "geometry": { "type": "Point", "coordinates": [ -97.18810197, 49.91982752 ] } },
{ "type": "Feature", "properties": { "PERMIT ID": "21-170901 HO", "DATE OF ISSUE": "6/8/2021", "DATE OF COMPLETION": null, "STATUS": 0, "ADDRESS": "287 Milton ST " }, "geometry": { "type": "Point", "coordinates": [ -97.18804498, 49.91988304 ] } },
{ "type": "Feature", "properties": { "PERMIT ID": "21-172522 HO", "DATE OF ISSUE": "27/7/2021", "DATE OF COMPLETION": "16/8/2022", "STATUS": 1, "ADDRESS": "884 Archibald ST " }, "geometry": { "type": "Point", "coordinates": [ -97.09380503, 49.87332015 ] } },
{ "type": "Feature", "properties": { "PERMIT ID": "21-172804 HO", "DATE OF ISSUE": "26/7/2021", "DATE OF COMPLETION": "21/6/2022", "STATUS": 1, "ADDRESS": "650 Dudley AVE " }, "geometry": { "type": "Point", "coordinates": [ -97.14783943, 49.86691011 ] } },
{ "type": "Feature", "properties": { "PERMIT ID": "21-176973 HO", "DATE OF ISSUE": "5/10/2021", "DATE OF COMPLETION": "16/10/2023", "STATUS": 1, "ADDRESS": "96 Guay AVE " }, "geometry": { "type": "Point", "coordinates": [ -97.10652983, 49.8717588 ] } },
{ "type": "Feature", "properties": { "PERMIT ID": "21-179034 HO", "DATE OF ISSUE": "25/11/2021", "DATE OF COMPLETION": "23/5/2024", "STATUS": 1, "ADDRESS": "968 Winnipeg AVE " }, "geometry": { "type": "Point", "coordinates": [ -97.1704981, 49.9056268 ] } },
{ "type": "Feature", "properties": { "PERMIT ID": "21-180987 HO", "DATE OF ISSUE": "4/8/2021", "DATE OF COMPLETION": "30/11/2021", "STATUS": 1, "ADDRESS": "123 Colebrook DR " }, "geometry": { "type": "Point", "coordinates": [ -97.16667544, 49.79346156 ] } },
{ "type": "Feature", "properties": { "PERMIT ID": "21-191348 HO", "DATE OF ISSUE": "18/10/2021", "DATE OF COMPLETION": null, "STATUS": 0, "ADDRESS": "301 Atlantic AVE " }, "geometry": { "type": "Point", "coordinates": [ -97.1294916, 49.92724315 ] } },
{ "type": "Feature", "properties": { "PERMIT ID": "21-201762 HO", "DATE OF ISSUE": "18/10/2021", "DATE OF COMPLETION": "28/1/2022", "STATUS": 1, "ADDRESS": "108 Champlain ST " }, "geometry": { "type": "Point", "coordinates": [ -97.11382751, 49.87500543 ] } },
{ "type": "Feature", "properties": { "PERMIT ID": "21-206846 HO", "DATE OF ISSUE": "17/11/2021", "DATE OF COMPLETION": null, "STATUS": 0, "ADDRESS": "118 Dalemore LANE " }, "geometry": { "type": "Point", "coordinates": [ -97.16649967, 49.79206393 ] } },
{ "type": "Feature", "properties": { "PERMIT ID": "21-211088 HO", "DATE OF ISSUE": "15/11/2021", "DATE OF COMPLETION": "22/9/2022", "STATUS": 1, "ADDRESS": "645 Valour RD " }, "geometry": { "type": "Point", "coordinates": [ -97.18865432, 49.88520533 ] } },
{ "type": "Feature", "properties": { "PERMIT ID": "21-212563 HO", "DATE OF ISSUE": "14/10/2021", "DATE OF COMPLETION": "1/3/2022", "STATUS": 1, "ADDRESS": "66 Wapta CRES " }, "geometry": { "type": "Point", "coordinates": [ -97.06458297, 49.82243708 ] } },
{ "type": "Feature", "properties": { "PERMIT ID": "21-230506 HO", "DATE OF ISSUE": "1/12/2021", "DATE OF COMPLETION": "16/9/2022", "STATUS": 1, "ADDRESS": "252 Alex Taylor DR " }, "geometry": { "type": "Point", "coordinates": [ -96.96308991, 49.90348325 ] } },
{ "type": "Feature", "properties": { "PERMIT ID": "21-230523 HO", "DATE OF ISSUE": "19/11/2021", "DATE OF COMPLETION": "3/11/2022", "STATUS": 1, "ADDRESS": "220 Bredin DR " }, "geometry": { "type": "Point", "coordinates": [ -97.11333771, 49.91847811 ] } },
{ "type": "Feature", "properties": { "PERMIT ID": "21-230659 HO", "DATE OF ISSUE": "25/11/2021", "DATE OF COMPLETION": "17/8/2022", "STATUS": 1, "ADDRESS": "375 Union AVE W" }, "geometry": { "type": "Point", "coordinates": [ -97.10429145, 49.91286045 ] } },
{ "type": "Feature", "properties": { "PERMIT ID": "21-230946 HO", "DATE OF ISSUE": "9/12/2021", "DATE OF COMPLETION": "27/10/2022", "STATUS": 1, "ADDRESS": "84 Woodydell AVE " }, "geometry": { "type": "Point", "coordinates": [ -97.10906699, 49.82263138 ] } },
{ "type": "Feature", "properties": { "PERMIT ID": "21-230977 HO", "DATE OF ISSUE": "17/1/2022", "DATE OF COMPLETION": null, "STATUS": 0, "ADDRESS": "537 Atlantic AVE " }, "geometry": { "type": "Point", "coordinates": [ -97.13889457, 49.93026703 ] } },
{ "type": "Feature", "properties": { "PERMIT ID": "21-232492 HO", "DATE OF ISSUE": "17/1/2022", "DATE OF COMPLETION": "24/2/2022", "STATUS": 1, "ADDRESS": "427 Simcoe ST " }, "geometry": { "type": "Point", "coordinates": [ -97.1661942, 49.89235195 ] } },
{ "type": "Feature", "properties": { "PERMIT ID": "21-236090 HO", "DATE OF ISSUE": "21/12/2021", "DATE OF COMPLETION": "11/8/2022", "STATUS": 1, "ADDRESS": "511 Hay ST " }, "geometry": { "type": "Point", "coordinates": [ -97.13281727, 49.86748693 ] } },
{ "type": "Feature", "properties": { "PERMIT ID": "21-238516 HO", "DATE OF ISSUE": "15/12/2021", "DATE OF COMPLETION": "16/5/2022", "STATUS": 1, "ADDRESS": "74 Langside ST " }, "geometry": { "type": "Point", "coordinates": [ -97.15710186, 49.88085021 ] } },
{ "type": "Feature", "properties": { "PERMIT ID": "21-240526 HO", "DATE OF ISSUE": "16/12/2021", "DATE OF COMPLETION": "20/5/2022", "STATUS": 1, "ADDRESS": "438 Tinniswood ST " }, "geometry": { "type": "Point", "coordinates": [ -97.16452744, 49.93272448 ] } },
{ "type": "Feature", "properties": { "PERMIT ID": "21-240624 HO", "DATE OF ISSUE": "13/12/2021", "DATE OF COMPLETION": "2/11/2023", "STATUS": 1, "ADDRESS": "1521 Ross AVE W" }, "geometry": { "type": "Point", "coordinates": [ -97.1894332, 49.91728413 ] } },
{ "type": "Feature", "properties": { "PERMIT ID": "21-243441 HO", "DATE OF ISSUE": "25/1/2022", "DATE OF COMPLETION": "26/7/2022", "STATUS": 1, "ADDRESS": "40 Grove ST " }, "geometry": { "type": "Point", "coordinates": [ -97.12495341, 49.90900067 ] } },
{ "type": "Feature", "properties": { "PERMIT ID": "21-244487 HO", "DATE OF ISSUE": "7/3/2022", "DATE OF COMPLETION": "19/7/2023", "STATUS": 1, "ADDRESS": "6 Westgrove WAY " }, "geometry": { "type": "Point", "coordinates": [ -97.31500107, 49.86053053 ] } },
{ "type": "Feature", "properties": { "PERMIT ID": "21-246754 HO", "DATE OF ISSUE": "10/1/2022", "DATE OF COMPLETION": null, "STATUS": 0, "ADDRESS": "14 Lincrest RD " }, "geometry": { "type": "Point", "coordinates": [ -97.13221184, 49.94417574 ] } },
{ "type": "Feature", "properties": { "PERMIT ID": "21-251305 HO", "DATE OF ISSUE": "22/6/2022", "DATE OF COMPLETION": "18/8/2023", "STATUS": 1, "ADDRESS": "223 Tennant GATE " }, "geometry": { "type": "Point", "coordinates": [ -97.15449258, 49.96269666 ] } },
{ "type": "Feature", "properties": { "PERMIT ID": "22-104932 HO", "DATE OF ISSUE": "11/2/2022", "DATE OF COMPLETION": "23/9/2022", "STATUS": 1, "ADDRESS": "362 Martin AVE W" }, "geometry": { "type": "Point", "coordinates": [ -97.10483921, 49.91337071 ] } },
{ "type": "Feature", "properties": { "PERMIT ID": "22-108854 HO", "DATE OF ISSUE": "17/2/2022", "DATE OF COMPLETION": "26/5/2023", "STATUS": 1, "ADDRESS": "687 Kildare AVE E" }, "geometry": { "type": "Point", "coordinates": [ -96.98381315, 49.90118802 ] } },
{ "type": "Feature", "properties": { "PERMIT ID": "22-112256 HO", "DATE OF ISSUE": "11/4/2022", "DATE OF COMPLETION": "8/5/2023", "STATUS": 1, "ADDRESS": "134 Winston RD " }, "geometry": { "type": "Point", "coordinates": [ -97.21110986, 49.87651234 ] } },
{ "type": "Feature", "properties": { "PERMIT ID": "22-113854 HO", "DATE OF ISSUE": "17/5/2022", "DATE OF COMPLETION": "8/2/2023", "STATUS": 1, "ADDRESS": "99 Newton AVE " }, "geometry": { "type": "Point", "coordinates": [ -97.10775868, 49.94166548 ] } },
{ "type": "Feature", "properties": { "PERMIT ID": "22-116412 HO", "DATE OF ISSUE": "25/3/2022", "DATE OF COMPLETION": "26/9/2022", "STATUS": 1, "ADDRESS": "1194 Hector BAY W" }, "geometry": { "type": "Point", "coordinates": [ -97.16490948, 49.85520681 ] } },
{ "type": "Feature", "properties": { "PERMIT ID": "22-122193 HO", "DATE OF ISSUE": "25/3/2022", "DATE OF COMPLETION": "24/11/2023", "STATUS": 1, "ADDRESS": "136 Ralph AVE W" }, "geometry": { "type": "Point", "coordinates": [ -97.00518706, 49.90206006 ] } },
{ "type": "Feature", "properties": { "PERMIT ID": "22-122253 HO", "DATE OF ISSUE": "30/5/2022", "DATE OF COMPLETION": null, "STATUS": 0, "ADDRESS": "326 Manitoba AVE " }, "geometry": { "type": "Point", "coordinates": [ -97.13689565, 49.91460632 ] } },
{ "type": "Feature", "properties": { "PERMIT ID": "22-124679 HO", "DATE OF ISSUE": "1/12/2022", "DATE OF COMPLETION": "28/7/2023", "STATUS": 1, "ADDRESS": "962 Manitoba AVE " }, "geometry": { "type": "Point", "coordinates": [ -97.16369429, 49.92320718 ] } },
{ "type": "Feature", "properties": { "PERMIT ID": "22-134387 HO", "DATE OF ISSUE": "1/6/2022", "DATE OF COMPLETION": "13/9/2023", "STATUS": 1, "ADDRESS": "104 Tangle Ridge CRES " }, "geometry": { "type": "Point", "coordinates": [ -97.18188256, 49.8250922 ] } },
{ "type": "Feature", "properties": { "PERMIT ID": "22-143124 HO", "DATE OF ISSUE": "6/6/2022", "DATE OF COMPLETION": "1/9/2023", "STATUS": 1, "ADDRESS": "185 Parkville DR " }, "geometry": { "type": "Point", "coordinates": [ -97.12779239, 49.83211575 ] } },
{ "type": "Feature", "properties": { "PERMIT ID": "22-156872 HO", "DATE OF ISSUE": "6/7/2022", "DATE OF COMPLETION": "10/2/2023", "STATUS": 1, "ADDRESS": "344 Oakland AVE " }, "geometry": { "type": "Point", "coordinates": [ -97.08881424, 49.93590959 ] } },
{ "type": "Feature", "properties": { "PERMIT ID": "22-157043 HO", "DATE OF ISSUE": "14/7/2022", "DATE OF COMPLETION": null, "STATUS": 0, "ADDRESS": "957 Oakenwald AVE " }, "geometry": { "type": "Point", "coordinates": [ -97.15254361, 49.84193722 ] } },
{ "type": "Feature", "properties": { "PERMIT ID": "22-175999 HO", "DATE OF ISSUE": "16/8/2022", "DATE OF COMPLETION": "2/5/2023", "STATUS": 1, "ADDRESS": "1339 Selkirk AVE " }, "geometry": { "type": "Point", "coordinates": [ -97.17791458, 49.92645961 ] } },
{ "type": "Feature", "properties": { "PERMIT ID": "22-183368 HO", "DATE OF ISSUE": "23/8/2022", "DATE OF COMPLETION": null, "STATUS": 0, "ADDRESS": "1846 Elgin AVE W" }, "geometry": { "type": "Point", "coordinates": [ -97.19795927, 49.9186556 ] } },
{ "type": "Feature", "properties": { "PERMIT ID": "22-185226 HO", "DATE OF ISSUE": "1/9/2022", "DATE OF COMPLETION": "2/5/2023", "STATUS": 1, "ADDRESS": "820 Prince Rupert AVE " }, "geometry": { "type": "Point", "coordinates": [ -97.07699475, 49.91302079 ] } },
{ "type": "Feature", "properties": { "PERMIT ID": "22-190406 HO", "DATE OF ISSUE": "15/9/2022", "DATE OF COMPLETION": "26/6/2023", "STATUS": 1, "ADDRESS": "537 Mark Pearce AVE " }, "geometry": { "type": "Point", "coordinates": [ -97.07429824, 49.93325766 ] } },
{ "type": "Feature", "properties": { "PERMIT ID": "22-194036 HO", "DATE OF ISSUE": "6/10/2022", "DATE OF COMPLETION": null, "STATUS": 0, "ADDRESS": "445 Marjorie ST " }, "geometry": { "type": "Point", "coordinates": [ -97.21285086, 49.88803169 ] } },
{ "type": "Feature", "properties": { "PERMIT ID": "22-203638 HO", "DATE OF ISSUE": "26/10/2022", "DATE OF COMPLETION": null, "STATUS": 0, "ADDRESS": "24 Merkel Manza BLVD " }, "geometry": { "type": "Point", "coordinates": [ -96.96694582, 49.89114427 ] } },
{ "type": "Feature", "properties": { "PERMIT ID": "22-205850 HO", "DATE OF ISSUE": "19/10/2022", "DATE OF COMPLETION": null, "STATUS": 0, "ADDRESS": "27 Peony AVE " }, "geometry": { "type": "Point", "coordinates": [ -97.14386082, 49.94763715 ] } },
{ "type": "Feature", "properties": { "PERMIT ID": "22-206365 HO", "DATE OF ISSUE": "4/10/2022", "DATE OF COMPLETION": null, "STATUS": 0, "ADDRESS": "393 Horace ST " }, "geometry": { "type": "Point", "coordinates": [ -97.10897313, 49.88136787 ] } },
{ "type": "Feature", "properties": { "PERMIT ID": "22-208167 HO", "DATE OF ISSUE": "12/12/2022", "DATE OF COMPLETION": null, "STATUS": 0, "ADDRESS": "643 Sherburn ST " }, "geometry": { "type": "Point", "coordinates": [ -97.1752823, 49.88983531 ] } },
{ "type": "Feature", "properties": { "PERMIT ID": "23-108251 HO", "DATE OF ISSUE": "13/7/2023", "DATE OF COMPLETION": null, "STATUS": 0, "ADDRESS": "575 Mountain AVE " }, "geometry": { "type": "Point", "coordinates": [ -97.14275373, 49.92398375 ] } },
{ "type": "Feature", "properties": { "PERMIT ID": "23-115577 HO", "DATE OF ISSUE": "16/5/2023", "DATE OF COMPLETION": "16/2/2024", "STATUS": 1, "ADDRESS": "353 Carpathia RD " }, "geometry": { "type": "Point", "coordinates": [ -97.20488428, 49.86484152 ] } },
{ "type": "Feature", "properties": { "PERMIT ID": "23-124864 HO", "DATE OF ISSUE": "17/4/2023", "DATE OF COMPLETION": "12/10/2023", "STATUS": 1, "ADDRESS": "74 Collingham BAY " }, "geometry": { "type": "Point", "coordinates": [ -97.31986937, 49.85311462 ] } },
{ "type": "Feature", "properties": { "PERMIT ID": "23-190807 HO", "DATE OF ISSUE": "31/10/2023", "DATE OF COMPLETION": null, "STATUS": 0, "ADDRESS": "1173 Jefferson AVE " }, "geometry": { "type": "Point", "coordinates": [ -97.16784976, 49.94996995 ] } },
{ "type": "Feature", "properties": { "PERMIT ID": "23-202094 HO", "DATE OF ISSUE": "3/10/2023", "DATE OF COMPLETION": null, "STATUS": 0, "ADDRESS": "35 Larry Vickar DR E" }, "geometry": { "type": "Point", "coordinates": [ -97.04187865, 49.90198043 ] } },
{ "type": "Feature", "properties": { "PERMIT ID": "23-205644 HO", "DATE OF ISSUE": "19/10/2023", "DATE OF COMPLETION": null, "STATUS": 0, "ADDRESS": "50 Burnaby BAY " }, "geometry": { "type": "Point", "coordinates": [ -97.02243436, 49.90225076 ] } },
{ "type": "Feature", "properties": { "PERMIT ID": "23-226150 HO", "DATE OF ISSUE": "4/12/2023", "DATE OF COMPLETION": null, "STATUS": 0, "ADDRESS": "325 Belmont AVE " }, "geometry": { "type": "Point", "coordinates": [ -97.12388394, 49.9391764 ] } },
{ "type": "Feature", "properties": { "PERMIT ID": "23-236593 HO", "DATE OF ISSUE": "14/2/2024", "DATE OF COMPLETION": null, "STATUS": 0, "ADDRESS": "37 Triton BAY " }, "geometry": { "type": "Point", "coordinates": [ -97.12723153, 49.83373769 ] } },
{ "type": "Feature", "properties": { "PERMIT ID": "23-253924 HO", "DATE OF ISSUE": "17/1/2024", "DATE OF COMPLETION": null, "STATUS": 0, "ADDRESS": "642 Government AVE " }, "geometry": { "type": "Point", "coordinates": [ -97.08593249, 49.91517387 ] } },
{ "type": "Feature", "properties": { "PERMIT ID": "24-113696 HO", "DATE OF ISSUE": "11/3/2024", "DATE OF COMPLETION": null, "STATUS": 0, "ADDRESS": "726 Melrose AVE W" }, "geometry": { "type": "Point", "coordinates": [ -97.02436963, 49.89414181 ] } },
{ "type": "Feature", "properties": { "PERMIT ID": "24-122512 HO", "DATE OF ISSUE": "30/4/2024", "DATE OF COMPLETION": null, "STATUS": 0, "ADDRESS": "16 Fireweed LANE " }, "geometry": { "type": "Point", "coordinates": [ -97.03590562, 49.82610719 ] } },
{ "type": "Feature", "properties": { "PERMIT ID": "24-140857 HO", "DATE OF ISSUE": "8/5/2024", "DATE OF COMPLETION": null, "STATUS": 0, "ADDRESS": "465 Dunrobin AVE " }, "geometry": { "type": "Point", "coordinates": [ -97.09115474, 49.92564807 ] } },
{ "type": "Feature", "properties": { "PERMIT ID": "24-138405 HO", "DATE OF ISSUE": "10/5/2024", "DATE OF COMPLETION": null, "STATUS": 0, "ADDRESS": "21 Mager DR " }, "geometry": { "type": "Point", "coordinates": [ -97.11364414, 49.86136506 ] } },
{ "type": "Feature", "properties": { "PERMIT ID": "24-146368 HO", "DATE OF ISSUE": "9/5/2024", "DATE OF COMPLETION": null, "STATUS": 0, "ADDRESS": "31 Mutchmor CLOSE " }, "geometry": { "type": "Point", "coordinates": [ -97.06925013, 49.92459904 ] } },
{ "type": "Feature", "properties": { "PERMIT ID": "14-126437 HO", "DATE OF ISSUE": "27/6/2014", "DATE OF COMPLETION": "4/4/2019", "STATUS": 1, "ADDRESS": "492 Walker AVE " }, "geometry": { "type": "Point", "coordinates": [ -97.13376023, 49.86217568 ] } },
{ "type": "Feature", "properties": { "PERMIT ID": "14-128939 HO", "DATE OF ISSUE": "24/10/2014", "DATE OF COMPLETION": "9/3/2022", "STATUS": 1, "ADDRESS": "34 St Vital RD " }, "geometry": { "type": "Point", "coordinates": [ -97.11482258, 49.84153524 ] } },
{ "type": "Feature", "properties": { "PERMIT ID": "14-134314 HO", "DATE OF ISSUE": "10/12/2014", "DATE OF COMPLETION": "31/7/2015", "STATUS": 1, "ADDRESS": "797 Carter AVE " }, "geometry": { "type": "Point", "coordinates": [ -97.15306715, 49.86167105 ] } },
{ "type": "Feature", "properties": { "PERMIT ID": "14-152413 HO", "DATE OF ISSUE": "28/11/2014", "DATE OF COMPLETION": "4/8/2015", "STATUS": 1, "ADDRESS": "511 Tremblay ST " }, "geometry": { "type": "Point", "coordinates": [ -97.10262767, 49.87972234 ] } },
{ "type": "Feature", "properties": { "PERMIT ID": "14-154738 HO", "DATE OF ISSUE": "23/10/2014", "DATE OF COMPLETION": "5/6/2015", "STATUS": 1, "ADDRESS": "71 Regal AVE " }, "geometry": { "type": "Point", "coordinates": [ -97.10807377, 49.85790046 ] } },
{ "type": "Feature", "properties": { "PERMIT ID": "14-173447 HO", "DATE OF ISSUE": "10/4/2015", "DATE OF COMPLETION": "17/5/2019", "STATUS": 1, "ADDRESS": "608 Silverstone AVE " }, "geometry": { "type": "Point", "coordinates": [ -97.13318176, 49.80063341 ] } },
{ "type": "Feature", "properties": { "PERMIT ID": "15-115888 HO", "DATE OF ISSUE": "26/5/2015", "DATE OF COMPLETION": "5/5/2016", "STATUS": 1, "ADDRESS": "652 Kylemore AVE " }, "geometry": { "type": "Point", "coordinates": [ -97.14078146, 49.86067825 ] } },
{ "type": "Feature", "properties": { "PERMIT ID": "15-118426 HO", "DATE OF ISSUE": "31/7/2015", "DATE OF COMPLETION": "3/4/2018", "STATUS": 1, "ADDRESS": "71 Eagleview RD " }, "geometry": { "type": "Point", "coordinates": [ -97.21143781, 49.79996058 ] } },
{ "type": "Feature", "properties": { "PERMIT ID": "15-120331 HO", "DATE OF ISSUE": "5/5/2015", "DATE OF COMPLETION": "1/2/2016", "STATUS": 1, "ADDRESS": "73 Regal AVE " }, "geometry": { "type": "Point", "coordinates": [ -97.10790078, 49.85787031 ] } },
{ "type": "Feature", "properties": { "PERMIT ID": "15-123711 HO", "DATE OF ISSUE": "9/6/2015", "DATE OF COMPLETION": "20/12/2016", "STATUS": 1, "ADDRESS": "165 Royal AVE " }, "geometry": { "type": "Point", "coordinates": [ -97.11275873, 49.93996591 ] } },
{ "type": "Feature", "properties": { "PERMIT ID": "15-123716 HO", "DATE OF ISSUE": "9/6/2015", "DATE OF COMPLETION": "20/12/2016", "STATUS": 1, "ADDRESS": "165 Royal AVE " }, "geometry": { "type": "Point", "coordinates": [ -97.11284783, 49.93999375 ] } },
{ "type": "Feature", "properties": { "PERMIT ID": "15-127152 HO", "DATE OF ISSUE": "28/7/2015", "DATE OF COMPLETION": "18/6/2018", "STATUS": 1, "ADDRESS": "1003 Isbister ST " }, "geometry": { "type": "Point", "coordinates": [ -97.31749918, 49.895228 ] } },
{ "type": "Feature", "properties": { "PERMIT ID": "15-140356 HO", "DATE OF ISSUE": "5/10/2015", "DATE OF COMPLETION": null, "STATUS": 0, "ADDRESS": "235 Jefferson AVE " }, "geometry": { "type": "Point", "coordinates": [ -97.12167101, 49.93472866 ] } },
{ "type": "Feature", "properties": { "PERMIT ID": "15-145535 HO", "DATE OF ISSUE": "25/8/2015", "DATE OF COMPLETION": "10/2/2020", "STATUS": 1, "ADDRESS": "104 Moore AVE " }, "geometry": { "type": "Point", "coordinates": [ -97.11909151, 49.83763004 ] } },
{ "type": "Feature", "properties": { "PERMIT ID": "18-101348 HO", "DATE OF ISSUE": "7/3/2018", "DATE OF COMPLETION": "29/10/2018", "STATUS": 1, "ADDRESS": "29 Crystal AVE " }, "geometry": { "type": "Point", "coordinates": [ -97.11039116, 49.85614168 ] } },
{ "type": "Feature", "properties": { "PERMIT ID": "15-167703 HO", "DATE OF ISSUE": "8/8/2016", "DATE OF COMPLETION": "14/9/2017", "STATUS": 1, "ADDRESS": "66 Crystal AVE " }, "geometry": { "type": "Point", "coordinates": [ -97.10796909, 49.8564379 ] } },
{ "type": "Feature", "properties": { "PERMIT ID": "15-167704 HO", "DATE OF ISSUE": "8/8/2016", "DATE OF COMPLETION": "14/9/2017", "STATUS": 1, "ADDRESS": "68 Crystal AVE " }, "geometry": { "type": "Point", "coordinates": [ -97.10787944, 49.85646233 ] } },
{ "type": "Feature", "properties": { "PERMIT ID": "15-173044 HO", "DATE OF ISSUE": "11/1/2016", "DATE OF COMPLETION": "17/1/2017", "STATUS": 1, "ADDRESS": "910 Garwood AVE " }, "geometry": { "type": "Point", "coordinates": [ -97.15948852, 49.86391714 ] } },
{ "type": "Feature", "properties": { "PERMIT ID": "15-173045 HO", "DATE OF ISSUE": "14/3/2016", "DATE OF COMPLETION": "17/1/2017", "STATUS": 1, "ADDRESS": "928 Carter AVE " }, "geometry": { "type": "Point", "coordinates": [ -97.15817736, 49.8595818 ] } },
{ "type": "Feature", "properties": { "PERMIT ID": "15-174456 HO", "DATE OF ISSUE": "11/1/2016", "DATE OF COMPLETION": "17/1/2017", "STATUS": 1, "ADDRESS": "912 Garwood AVE " }, "geometry": { "type": "Point", "coordinates": [ -97.15958654, 49.86388445 ] } },
{ "type": "Feature", "properties": { "PERMIT ID": "16-107596 HO", "DATE OF ISSUE": "2/5/2016", "DATE OF COMPLETION": "20/9/2017", "STATUS": 1, "ADDRESS": "153 Bertrand ST " }, "geometry": { "type": "Point", "coordinates": [ -97.12210843, 49.88435674 ] } },
{ "type": "Feature", "properties": { "PERMIT ID": "16-109917 HO", "DATE OF ISSUE": "17/5/2016", "DATE OF COMPLETION": "14/11/2016", "STATUS": 1, "ADDRESS": "435 Jamison AVE " }, "geometry": { "type": "Point", "coordinates": [ -97.10224138, 49.91610311 ] } },
{ "type": "Feature", "properties": { "PERMIT ID": "16-116583 HO", "DATE OF ISSUE": "7/4/2017", "DATE OF COMPLETION": "29/6/2018", "STATUS": 1, "ADDRESS": "48 Frederick AVE " }, "geometry": { "type": "Point", "coordinates": [ -97.10850463, 49.84674856 ] } },
{ "type": "Feature", "properties": { "PERMIT ID": "16-116611 HO", "DATE OF ISSUE": "3/8/2016", "DATE OF COMPLETION": "11/10/2017", "STATUS": 1, "ADDRESS": "1579 McCreary RD " }, "geometry": { "type": "Point", "coordinates": [ -97.23107879, 49.83185754 ] } },
{ "type": "Feature", "properties": { "PERMIT ID": "16-116644 HO", "DATE OF ISSUE": "8/12/2016", "DATE OF COMPLETION": "15/8/2018", "STATUS": 1, "ADDRESS": "368 Roberta AVE " }, "geometry": { "type": "Point", "coordinates": [ -97.09308112, 49.9299909 ] } },
{ "type": "Feature", "properties": { "PERMIT ID": "16-122830 HO", "DATE OF ISSUE": "12/7/2016", "DATE OF COMPLETION": "14/12/2017", "STATUS": 1, "ADDRESS": "861 Jubilee AVE " }, "geometry": { "type": "Point", "coordinates": [ -97.14752841, 49.85408423 ] } },
{ "type": "Feature", "properties": { "PERMIT ID": "16-122869 HO", "DATE OF ISSUE": "13/6/2016", "DATE OF COMPLETION": "28/3/2023", "STATUS": 1, "ADDRESS": "861 Jubilee AVE " }, "geometry": { "type": "Point", "coordinates": [ -97.14762732, 49.85405373 ] } },
{ "type": "Feature", "properties": { "PERMIT ID": "16-129238 HO", "DATE OF ISSUE": "20/7/2016", "DATE OF COMPLETION": "7/4/2020", "STATUS": 1, "ADDRESS": "665 Lyndale DR " }, "geometry": { "type": "Point", "coordinates": [ -97.11707342, 49.87253813 ] } },
{ "type": "Feature", "properties": { "PERMIT ID": "16-131109 HO", "DATE OF ISSUE": "12/8/2016", "DATE OF COMPLETION": "15/3/2017", "STATUS": 1, "ADDRESS": "494 Hethrington AVE " }, "geometry": { "type": "Point", "coordinates": [ -97.13725553, 49.86566945 ] } },
{ "type": "Feature", "properties": { "PERMIT ID": "16-131114 HO", "DATE OF ISSUE": "12/8/2016", "DATE OF COMPLETION": "15/3/2017", "STATUS": 1, "ADDRESS": "496 Hethrington AVE " }, "geometry": { "type": "Point", "coordinates": [ -97.13734202, 49.86564099 ] } },
{ "type": "Feature", "properties": { "PERMIT ID": "16-131828 HO", "DATE OF ISSUE": "8/12/2016", "DATE OF COMPLETION": "15/8/2018", "STATUS": 1, "ADDRESS": "366 Roberta AVE " }, "geometry": { "type": "Point", "coordinates": [ -97.0931727, 49.93001791 ] } },
{ "type": "Feature", "properties": { "PERMIT ID": "16-132147 HO", "DATE OF ISSUE": "11/8/2016", "DATE OF COMPLETION": "13/6/2017", "STATUS": 1, "ADDRESS": "420 Ferry RD " }, "geometry": { "type": "Point", "coordinates": [ -97.21841419, 49.88708928 ] } },
{ "type": "Feature", "properties": { "PERMIT ID": "16-132189 HO", "DATE OF ISSUE": "11/8/2016", "DATE OF COMPLETION": "13/6/2017", "STATUS": 1, "ADDRESS": "422 Ferry RD " }, "geometry": { "type": "Point", "coordinates": [ -97.21840797, 49.88716595 ] } },
{ "type": "Feature", "properties": { "PERMIT ID": "16-132310 HO", "DATE OF ISSUE": "15/9/2016", "DATE OF COMPLETION": "26/9/2017", "STATUS": 1, "ADDRESS": "33 Nichol AVE " }, "geometry": { "type": "Point", "coordinates": [ -97.11584034, 49.84960414 ] } },
{ "type": "Feature", "properties": { "PERMIT ID": "16-133115 HO", "DATE OF ISSUE": "12/8/2016", "DATE OF COMPLETION": "19/7/2019", "STATUS": 1, "ADDRESS": "936 Crescent DR " }, "geometry": { "type": "Point", "coordinates": [ -97.14772633, 49.83249604 ] } },
{ "type": "Feature", "properties": { "PERMIT ID": "16-136241 HO", "DATE OF ISSUE": "1/9/2016", "DATE OF COMPLETION": "10/7/2018", "STATUS": 1, "ADDRESS": "176 Lindsay ST " }, "geometry": { "type": "Point", "coordinates": [ -97.19253483, 49.8736875 ] } },
{ "type": "Feature", "properties": { "PERMIT ID": "16-143962 HO", "DATE OF ISSUE": "15/7/2016", "DATE OF COMPLETION": "6/1/2017", "STATUS": 1, "ADDRESS": "1579 McCreary RD " }, "geometry": { "type": "Point", "coordinates": [ -97.23107879, 49.83185754 ] } },
{ "type": "Feature", "properties": { "PERMIT ID": "16-144559 HO", "DATE OF ISSUE": "22/8/2017", "DATE OF COMPLETION": "29/6/2018", "STATUS": 1, "ADDRESS": "782 Carter AVE " }, "geometry": { "type": "Point", "coordinates": [ -97.15273115, 49.86139063 ] } },
{ "type": "Feature", "properties": { "PERMIT ID": "16-144562 HO", "DATE OF ISSUE": "22/8/2017", "DATE OF COMPLETION": "29/6/2018", "STATUS": 1, "ADDRESS": "784 Carter AVE " }, "geometry": { "type": "Point", "coordinates": [ -97.15281887, 49.86136727 ] } },
{ "type": "Feature", "properties": { "PERMIT ID": "16-145902 HO", "DATE OF ISSUE": "6/12/2016", "DATE OF COMPLETION": "26/1/2018", "STATUS": 1, "ADDRESS": "3066 Ness AVE " }, "geometry": { "type": "Point", "coordinates": [ -97.28212415, 49.8877459 ] } },
{ "type": "Feature", "properties": { "PERMIT ID": "16-146023 HO", "DATE OF ISSUE": "13/10/2016", "DATE OF COMPLETION": "17/2/2022", "STATUS": 1, "ADDRESS": "658 Harbison AVE E" }, "geometry": { "type": "Point", "coordinates": [ -97.09009742, 49.9091626 ] } },
{ "type": "Feature", "properties": { "PERMIT ID": "16-148024 HO", "DATE OF ISSUE": "23/1/2017", "DATE OF COMPLETION": "23/5/2017", "STATUS": 1, "ADDRESS": "134 Horace ST " }, "geometry": { "type": "Point", "coordinates": [ -97.12264919, 49.88018503 ] } },
{ "type": "Feature", "properties": { "PERMIT ID": "16-155654 HO", "DATE OF ISSUE": "20/7/2017", "DATE OF COMPLETION": "6/2/2019", "STATUS": 1, "ADDRESS": "113 Chandos AVE " }, "geometry": { "type": "Point", "coordinates": [ -97.12074578, 49.87494656 ] } },
{ "type": "Feature", "properties": { "PERMIT ID": "16-155717 HO", "DATE OF ISSUE": "20/7/2017", "DATE OF COMPLETION": "6/2/2019", "STATUS": 1, "ADDRESS": "111 Chandos AVE " }, "geometry": { "type": "Point", "coordinates": [ -97.12074827, 49.87488235 ] } },
{ "type": "Feature", "properties": { "PERMIT ID": "16-156972 HO", "DATE OF ISSUE": "21/10/2016", "DATE OF COMPLETION": "21/3/2017", "STATUS": 1, "ADDRESS": "258 Cathedral AVE " }, "geometry": { "type": "Point", "coordinates": [ -97.12864171, 49.92443145 ] } },
{ "type": "Feature", "properties": { "PERMIT ID": "16-163688 HO", "DATE OF ISSUE": "12/1/2017", "DATE OF COMPLETION": "13/11/2019", "STATUS": 1, "ADDRESS": "739 Lorette AVE " }, "geometry": { "type": "Point", "coordinates": [ -97.14988296, 49.86593024 ] } },
{ "type": "Feature", "properties": { "PERMIT ID": "16-167848 HO", "DATE OF ISSUE": "16/3/2017", "DATE OF COMPLETION": "14/2/2018", "STATUS": 1, "ADDRESS": "24 Morier AVE " }, "geometry": { "type": "Point", "coordinates": [ -97.10940552, 49.87005626 ] } },
{ "type": "Feature", "properties": { "PERMIT ID": "16-170818 HO", "DATE OF ISSUE": "6/12/2016", "DATE OF COMPLETION": "2/5/2018", "STATUS": 1, "ADDRESS": "6 Massena CRES " }, "geometry": { "type": "Point", "coordinates": [ -97.17263193, 49.95001379 ] } },
{ "type": "Feature", "properties": { "PERMIT ID": "16-171838 HO", "DATE OF ISSUE": "14/12/2016", "DATE OF COMPLETION": "31/5/2017", "STATUS": 1, "ADDRESS": "60 Whitehall BLVD " }, "geometry": { "type": "Point", "coordinates": [ -96.98537006, 49.90219461 ] } },
{ "type": "Feature", "properties": { "PERMIT ID": "16-174657 HO", "DATE OF ISSUE": "28/12/2016", "DATE OF COMPLETION": "30/8/2019", "STATUS": 1, "ADDRESS": "690 Hugo ST S" }, "geometry": { "type": "Point", "coordinates": [ -97.14403217, 49.8617467 ] } },
{ "type": "Feature", "properties": { "PERMIT ID": "16-174972 HO", "DATE OF ISSUE": "8/3/2017", "DATE OF COMPLETION": "16/9/2020", "STATUS": 1, "ADDRESS": "676 Anderson AVE " }, "geometry": { "type": "Point", "coordinates": [ -97.14601682, 49.92672145 ] } },
{ "type": "Feature", "properties": { "PERMIT ID": "16-178683 HO", "DATE OF ISSUE": "20/4/2017", "DATE OF COMPLETION": "29/8/2018", "STATUS": 1, "ADDRESS": "932 Aberdeen AVE " }, "geometry": { "type": "Point", "coordinates": [ -97.15999739, 49.92542586 ] } },
{ "type": "Feature", "properties": { "PERMIT ID": "16-178688 HO", "DATE OF ISSUE": "20/4/2017", "DATE OF COMPLETION": "29/8/2018", "STATUS": 1, "ADDRESS": "930 Aberdeen AVE " }, "geometry": { "type": "Point", "coordinates": [ -97.1598735, 49.9253858 ] } },
{ "type": "Feature", "properties": { "PERMIT ID": "16-179908 HO", "DATE OF ISSUE": "24/4/2017", "DATE OF COMPLETION": "30/1/2018", "STATUS": 1, "ADDRESS": "220 Havelock AVE " }, "geometry": { "type": "Point", "coordinates": [ -97.10026174, 49.84859882 ] } },
{ "type": "Feature", "properties": { "PERMIT ID": "16-180069 HO", "DATE OF ISSUE": "27/4/2017", "DATE OF COMPLETION": "27/2/2018", "STATUS": 1, "ADDRESS": "266 Grassie BLVD " }, "geometry": { "type": "Point", "coordinates": [ -97.04949096, 49.92218276 ] } },
{ "type": "Feature", "properties": { "PERMIT ID": "16-180311 HO", "DATE OF ISSUE": "27/2/2017", "DATE OF COMPLETION": "17/10/2017", "STATUS": 1, "ADDRESS": "719 Scotland AVE " }, "geometry": { "type": "Point", "coordinates": [ -97.14949391, 49.86544849 ] } },
{ "type": "Feature", "properties": { "PERMIT ID": "16-180328 HO", "DATE OF ISSUE": "27/2/2017", "DATE OF COMPLETION": "15/9/2017", "STATUS": 1, "ADDRESS": "773 Scotland AVE " }, "geometry": { "type": "Point", "coordinates": [ -97.15182924, 49.86467006 ] } },
{ "type": "Feature", "properties": { "PERMIT ID": "17-101112 HO", "DATE OF ISSUE": "2/5/2017", "DATE OF COMPLETION": "18/1/2018", "STATUS": 1, "ADDRESS": "1135 Parker AVE " }, "geometry": { "type": "Point", "coordinates": [ -97.15859321, 49.84964797 ] } },
{ "type": "Feature", "properties": { "PERMIT ID": "17-101115 HO", "DATE OF ISSUE": "2/5/2017", "DATE OF COMPLETION": "10/1/2018", "STATUS": 1, "ADDRESS": "1137 Parker AVE " }, "geometry": { "type": "Point", "coordinates": [ -97.15868375, 49.84961719 ] } },
{ "type": "Feature", "properties": { "PERMIT ID": "17-107655 HO", "DATE OF ISSUE": "5/7/2017", "DATE OF COMPLETION": "23/11/2017", "STATUS": 1, "ADDRESS": "690 Hugo ST S" }, "geometry": { "type": "Point", "coordinates": [ -97.14429071, 49.86166144 ] } },
{ "type": "Feature", "properties": { "PERMIT ID": "17-107799 HO", "DATE OF ISSUE": "27/6/2017", "DATE OF COMPLETION": "21/9/2017", "STATUS": 1, "ADDRESS": "641 Garfield ST N" }, "geometry": { "type": "Point", "coordinates": [ -97.17647836, 49.88858479 ] } },
{ "type": "Feature", "properties": { "PERMIT ID": "17-108251 HO", "DATE OF ISSUE": "13/7/2017", "DATE OF COMPLETION": "29/6/2020", "STATUS": 1, "ADDRESS": "639 St Anne's RD " }, "geometry": { "type": "Point", "coordinates": [ -97.08609699, 49.82998196 ] } },
{ "type": "Feature", "properties": { "PERMIT ID": "17-110120 HO", "DATE OF ISSUE": "1/3/2017", "DATE OF COMPLETION": "4/1/2019", "STATUS": 1, "ADDRESS": "182 Lyndale DR " }, "geometry": { "type": "Point", "coordinates": [ -97.1353716, 49.87634394 ] } },
{ "type": "Feature", "properties": { "PERMIT ID": "17-113605 HO", "DATE OF ISSUE": "23/3/2017", "DATE OF COMPLETION": "3/11/2017", "STATUS": 1, "ADDRESS": "541 St Jean Baptiste ST " }, "geometry": { "type": "Point", "coordinates": [ -97.11514196, 49.88988288 ] } },
{ "type": "Feature", "properties": { "PERMIT ID": "17-113856 HO", "DATE OF ISSUE": "17/3/2017", "DATE OF COMPLETION": null, "STATUS": 0, "ADDRESS": "423 Edgewood ST " }, "geometry": { "type": "Point", "coordinates": [ -97.10711278, 49.87955654 ] } },
{ "type": "Feature", "properties": { "PERMIT ID": "17-115395 HO", "DATE OF ISSUE": "26/5/2017", "DATE OF COMPLETION": "25/7/2018", "STATUS": 1, "ADDRESS": "26 Frederick AVE " }, "geometry": { "type": "Point", "coordinates": [ -97.11051405, 49.84606197 ] } },
{ "type": "Feature", "properties": { "PERMIT ID": "17-115407 HO", "DATE OF ISSUE": "26/5/2017", "DATE OF COMPLETION": "29/5/2020", "STATUS": 1, "ADDRESS": "26 Frederick AVE " }, "geometry": { "type": "Point", "coordinates": [ -97.11060743, 49.84603078 ] } },
{ "type": "Feature", "properties": { "PERMIT ID": "17-115772 HO", "DATE OF ISSUE": "13/4/2017", "DATE OF COMPLETION": "21/4/2017", "STATUS": 1, "ADDRESS": "26 Summerfield WAY " }, "geometry": { "type": "Point", "coordinates": [ -97.07360245, 49.94899398 ] } },
{ "type": "Feature", "properties": { "PERMIT ID": "17-116760 HO", "DATE OF ISSUE": "13/4/2017", "DATE OF COMPLETION": "7/5/2018", "STATUS": 1, "ADDRESS": "48 Frederick AVE " }, "geometry": { "type": "Point", "coordinates": [ -97.10859846, 49.84671712 ] } },
{ "type": "Feature", "properties": { "PERMIT ID": "17-120196 HO", "DATE OF ISSUE": "5/5/2017", "DATE OF COMPLETION": "15/9/2022", "STATUS": 1, "ADDRESS": "1021 Scotland AVE " }, "geometry": { "type": "Point", "coordinates": [ -97.16233608, 49.86119887 ] } },
{ "type": "Feature", "properties": { "PERMIT ID": "17-120940 HO", "DATE OF ISSUE": "3/5/2017", "DATE OF COMPLETION": "8/2/2018", "STATUS": 1, "ADDRESS": "1836 Pacific AVE W" }, "geometry": { "type": "Point", "coordinates": [ -97.19755587, 49.92013852 ] } },
{ "type": "Feature", "properties": { "PERMIT ID": "17-121798 HO", "DATE OF ISSUE": "28/4/2017", "DATE OF COMPLETION": "9/11/2017", "STATUS": 1, "ADDRESS": "19 Dallinger DR " }, "geometry": { "type": "Point", "coordinates": [ -97.26057666, 49.86331474 ] } },
{ "type": "Feature", "properties": { "PERMIT ID": "17-122210 HO", "DATE OF ISSUE": "30/6/2017", "DATE OF COMPLETION": "11/5/2020", "STATUS": 1, "ADDRESS": "929 Garwood AVE " }, "geometry": { "type": "Point", "coordinates": [ -97.16015363, 49.86417528 ] } },
{ "type": "Feature", "properties": { "PERMIT ID": "17-122618 HO", "DATE OF ISSUE": "6/6/2017", "DATE OF COMPLETION": "3/1/2019", "STATUS": 1, "ADDRESS": "71 Burrowing Owl COVE " }, "geometry": { "type": "Point", "coordinates": [ -97.19807837, 49.95739665 ] } },
{ "type": "Feature", "properties": { "PERMIT ID": "17-124283 HO", "DATE OF ISSUE": "27/6/2017", "DATE OF COMPLETION": "8/3/2018", "STATUS": 1, "ADDRESS": "67 Carriage RD " }, "geometry": { "type": "Point", "coordinates": [ -97.28168578, 49.89025611 ] } },
{ "type": "Feature", "properties": { "PERMIT ID": "17-125335 HO", "DATE OF ISSUE": "26/6/2017", "DATE OF COMPLETION": null, "STATUS": 0, "ADDRESS": "878 Redwood AVE " }, "geometry": { "type": "Point", "coordinates": [ -97.15589964, 49.92493923 ] } },
{ "type": "Feature", "properties": { "PERMIT ID": "17-128152 HO", "DATE OF ISSUE": "12/6/2017", "DATE OF COMPLETION": "8/2/2018", "STATUS": 1, "ADDRESS": "68 Fifth AVE " }, "geometry": { "type": "Point", "coordinates": [ -97.1085434, 49.87201879 ] } },
{ "type": "Feature", "properties": { "PERMIT ID": "17-128308 HO", "DATE OF ISSUE": "25/10/2017", "DATE OF COMPLETION": "5/9/2019", "STATUS": 1, "ADDRESS": "151 Tennant GATE " }, "geometry": { "type": "Point", "coordinates": [ -97.15358209, 49.96446547 ] } },
{ "type": "Feature", "properties": { "PERMIT ID": "17-132794 HO", "DATE OF ISSUE": "8/8/2017", "DATE OF COMPLETION": "13/11/2019", "STATUS": 1, "ADDRESS": "426 Morley AVE " }, "geometry": { "type": "Point", "coordinates": [ -97.14048427, 49.86287674 ] } },
{ "type": "Feature", "properties": { "PERMIT ID": "17-136245 HO", "DATE OF ISSUE": "10/8/2017", "DATE OF COMPLETION": "8/9/2022", "STATUS": 1, "ADDRESS": "63 St Michael RD " }, "geometry": { "type": "Point", "coordinates": [ -97.12031994, 49.8313795 ] } },
{ "type": "Feature", "properties": { "PERMIT ID": "17-137386 HO", "DATE OF ISSUE": "15/8/2017", "DATE OF COMPLETION": "8/6/2018", "STATUS": 1, "ADDRESS": "424 Morley AVE " }, "geometry": { "type": "Point", "coordinates": [ -97.14038735, 49.86290536 ] } },
{ "type": "Feature", "properties": { "PERMIT ID": "17-139351 HO", "DATE OF ISSUE": "8/8/2017", "DATE OF COMPLETION": null, "STATUS": 0, "ADDRESS": "188 Lawndale AVE " }, "geometry": { "type": "Point", "coordinates": [ -97.12798287, 49.87782056 ] } },
{ "type": "Feature", "properties": { "PERMIT ID": "17-145677 HO", "DATE OF ISSUE": "29/9/2017", "DATE OF COMPLETION": "31/7/2018", "STATUS": 1, "ADDRESS": "352 Royal AVE " }, "geometry": { "type": "Point", "coordinates": [ -97.12229279, 49.94232588 ] } },
{ "type": "Feature", "properties": { "PERMIT ID": "17-148362 HO", "DATE OF ISSUE": "8/8/2017", "DATE OF COMPLETION": "23/8/2018", "STATUS": 1, "ADDRESS": "113 Haig AVE " }, "geometry": { "type": "Point", "coordinates": [ -97.10495117, 49.87111044 ] } },
{ "type": "Feature", "properties": { "PERMIT ID": "17-148365 HO", "DATE OF ISSUE": "8/8/2017", "DATE OF COMPLETION": "23/8/2018", "STATUS": 1, "ADDRESS": "111 Haig AVE " }, "geometry": { "type": "Point", "coordinates": [ -97.10503972, 49.87108084 ] } },
{ "type": "Feature", "properties": { "PERMIT ID": "17-148956 HO", "DATE OF ISSUE": "16/8/2017", "DATE OF COMPLETION": "10/8/2018", "STATUS": 1, "ADDRESS": "26 Vivian AVE " }, "geometry": { "type": "Point", "coordinates": [ -97.10906104, 49.86853266 ] } },
{ "type": "Feature", "properties": { "PERMIT ID": "17-148959 HO", "DATE OF ISSUE": "16/8/2017", "DATE OF COMPLETION": "10/8/2018", "STATUS": 1, "ADDRESS": "28 Vivian AVE " }, "geometry": { "type": "Point", "coordinates": [ -97.10896835, 49.86856877 ] } },
{ "type": "Feature", "properties": { "PERMIT ID": "17-149751 HO", "DATE OF ISSUE": "5/9/2017", "DATE OF COMPLETION": "22/12/2017", "STATUS": 1, "ADDRESS": "5 Kinbrace BAY " }, "geometry": { "type": "Point", "coordinates": [ -97.07645188, 49.93049602 ] } },
{ "type": "Feature", "properties": { "PERMIT ID": "17-150301 HO", "DATE OF ISSUE": "16/10/2017", "DATE OF COMPLETION": "25/10/2018", "STATUS": 1, "ADDRESS": "690 Hugo ST S" }, "geometry": { "type": "Point", "coordinates": [ -97.14547893, 49.86161577 ] } },
{ "type": "Feature", "properties": { "PERMIT ID": "17-152775 HO", "DATE OF ISSUE": "14/11/2017", "DATE OF COMPLETION": "22/10/2018", "STATUS": 1, "ADDRESS": "941 Elizabeth RD " }, "geometry": { "type": "Point", "coordinates": [ -97.07823742, 49.8712004 ] } },
{ "type": "Feature", "properties": { "PERMIT ID": "17-153078 HO", "DATE OF ISSUE": "16/10/2017", "DATE OF COMPLETION": "1/8/2018", "STATUS": 1, "ADDRESS": "540 Agnes ST " }, "geometry": { "type": "Point", "coordinates": [ -97.16213601, 49.89515501 ] } },
{ "type": "Feature", "properties": { "PERMIT ID": "17-156028 HO", "DATE OF ISSUE": "3/1/2018", "DATE OF COMPLETION": "22/11/2018", "STATUS": 1, "ADDRESS": "149 Pilgrim AVE " }, "geometry": { "type": "Point", "coordinates": [ -97.10103841, 49.86397552 ] } },
{ "type": "Feature", "properties": { "PERMIT ID": "17-156029 HO", "DATE OF ISSUE": "3/1/2018", "DATE OF COMPLETION": "22/11/2018", "STATUS": 1, "ADDRESS": "147 Pilgrim AVE " }, "geometry": { "type": "Point", "coordinates": [ -97.10113051, 49.86394526 ] } },
{ "type": "Feature", "properties": { "PERMIT ID": "17-156035 HO", "DATE OF ISSUE": "29/12/2017", "DATE OF COMPLETION": "9/1/2019", "STATUS": 1, "ADDRESS": "73 Essex AVE " }, "geometry": { "type": "Point", "coordinates": [ -97.10673703, 49.868901 ] } },
{ "type": "Feature", "properties": { "PERMIT ID": "17-156038 HO", "DATE OF ISSUE": "29/12/2017", "DATE OF COMPLETION": "9/1/2019", "STATUS": 1, "ADDRESS": "71 Essex AVE " }, "geometry": { "type": "Point", "coordinates": [ -97.10682275, 49.86887181 ] } },
{ "type": "Feature", "properties": { "PERMIT ID": "17-156268 HO", "DATE OF ISSUE": "14/9/2017", "DATE OF COMPLETION": "13/9/2018", "STATUS": 1, "ADDRESS": "340 Bertrand ST " }, "geometry": { "type": "Point", "coordinates": [ -97.11217467, 49.88417911 ] } },
{ "type": "Feature", "properties": { "PERMIT ID": "17-156610 HO", "DATE OF ISSUE": "25/1/2018", "DATE OF COMPLETION": "5/9/2019", "STATUS": 1, "ADDRESS": "15 Regal AVE " }, "geometry": { "type": "Point", "coordinates": [ -97.11121778, 49.8568178 ] } },
{ "type": "Feature", "properties": { "PERMIT ID": "17-156970 HO", "DATE OF ISSUE": "5/10/2017", "DATE OF COMPLETION": "16/6/2022", "STATUS": 1, "ADDRESS": "48 Vivian AVE " }, "geometry": { "type": "Point", "coordinates": [ -97.10801125, 49.86886019 ] } },
{ "type": "Feature", "properties": { "PERMIT ID": "17-157216 HO", "DATE OF ISSUE": "4/10/2017", "DATE OF COMPLETION": "13/10/2020", "STATUS": 1, "ADDRESS": "436 McLeod AVE " }, "geometry": { "type": "Point", "coordinates": [ -97.08682187, 49.9340442 ] } },
{ "type": "Feature", "properties": { "PERMIT ID": "17-159754 HO", "DATE OF ISSUE": "1/11/2017", "DATE OF COMPLETION": "12/3/2018", "STATUS": 1, "ADDRESS": "223 Olive ST " }, "geometry": { "type": "Point", "coordinates": [ -97.25593307, 49.87651835 ] } },
{ "type": "Feature", "properties": { "PERMIT ID": "17-161512 HO", "DATE OF ISSUE": "29/3/2018", "DATE OF COMPLETION": null, "STATUS": 0, "ADDRESS": "1413 Pritchard AVE " }, "geometry": { "type": "Point", "coordinates": [ -97.18153555, 49.9285414 ] } },
{ "type": "Feature", "properties": { "PERMIT ID": "17-161811 HO", "DATE OF ISSUE": "18/12/2017", "DATE OF COMPLETION": "5/5/2022", "STATUS": 1, "ADDRESS": "464 Ferry RD " }, "geometry": { "type": "Point", "coordinates": [ -97.21833767, 49.88866573 ] } },
{ "type": "Feature", "properties": { "PERMIT ID": "17-161854 HO", "DATE OF ISSUE": "18/12/2017", "DATE OF COMPLETION": "5/5/2022", "STATUS": 1, "ADDRESS": "462 Ferry RD " }, "geometry": { "type": "Point", "coordinates": [ -97.21834368, 49.88860703 ] } },
{ "type": "Feature", "properties": { "PERMIT ID": "17-162140 HO", "DATE OF ISSUE": "16/10/2017", "DATE OF COMPLETION": "2/11/2018", "STATUS": 1, "ADDRESS": "690 Hugo ST S" }, "geometry": { "type": "Point", "coordinates": [ -97.14578654, 49.86149199 ] } },
{ "type": "Feature", "properties": { "PERMIT ID": "17-163250 HO", "DATE OF ISSUE": "15/11/2017", "DATE OF COMPLETION": "17/7/2018", "STATUS": 1, "ADDRESS": "291 Ottawa AVE " }, "geometry": { "type": "Point", "coordinates": [ -97.10704188, 49.91933372 ] } },
{ "type": "Feature", "properties": { "PERMIT ID": "17-164682 HO", "DATE OF ISSUE": "21/11/2017", "DATE OF COMPLETION": "11/12/2018", "STATUS": 1, "ADDRESS": "253 Kimberly AVE " }, "geometry": { "type": "Point", "coordinates": [ -97.10026083, 49.92662418 ] } },
{ "type": "Feature", "properties": { "PERMIT ID": "17-165465 HO", "DATE OF ISSUE": "15/11/2017", "DATE OF COMPLETION": "11/2/2022", "STATUS": 1, "ADDRESS": "533 Manchester BLVD N" }, "geometry": { "type": "Point", "coordinates": [ -97.13713215, 49.84627736 ] } },
{ "type": "Feature", "properties": { "PERMIT ID": "17-165547 HO", "DATE OF ISSUE": "21/12/2017", "DATE OF COMPLETION": "4/9/2018", "STATUS": 1, "ADDRESS": "715 Warsaw AVE " }, "geometry": { "type": "Point", "coordinates": [ -97.15209338, 49.86948481 ] } },
{ "type": "Feature", "properties": { "PERMIT ID": "17-166942 HO", "DATE OF ISSUE": "2/11/2017", "DATE OF COMPLETION": "16/9/2019", "STATUS": 1, "ADDRESS": "220 Dollard BLVD " }, "geometry": { "type": "Point", "coordinates": [ -97.11866445, 49.88486999 ] } },
{ "type": "Feature", "properties": { "PERMIT ID": "17-169570 HO", "DATE OF ISSUE": "19/10/2017", "DATE OF COMPLETION": "25/10/2017", "STATUS": 1, "ADDRESS": "151 Tennant GATE " }, "geometry": { "type": "Point", "coordinates": [ -97.15358209, 49.96446547 ] } },
{ "type": "Feature", "properties": { "PERMIT ID": "17-170322 HO", "DATE OF ISSUE": "11/12/2017", "DATE OF COMPLETION": "1/8/2018", "STATUS": 1, "ADDRESS": "547 Jamison AVE " }, "geometry": { "type": "Point", "coordinates": [ -97.0979526, 49.91467352 ] } },
{ "type": "Feature", "properties": { "PERMIT ID": "17-170569 HO", "DATE OF ISSUE": "23/10/2017", "DATE OF COMPLETION": "13/9/2018", "STATUS": 1, "ADDRESS": "340 Bertrand ST " }, "geometry": { "type": "Point", "coordinates": [ -97.11217467, 49.88417911 ] } },
{ "type": "Feature", "properties": { "PERMIT ID": "17-171484 HO", "DATE OF ISSUE": "21/11/2017", "DATE OF COMPLETION": null, "STATUS": 0, "ADDRESS": "382 Tweed AVE " }, "geometry": { "type": "Point", "coordinates": [ -97.10544506, 49.9082052 ] } },
{ "type": "Feature", "properties": { "PERMIT ID": "17-173219 HO", "DATE OF ISSUE": "1/12/2017", "DATE OF COMPLETION": "7/6/2018", "STATUS": 1, "ADDRESS": "639 Nottingham AVE " }, "geometry": { "type": "Point", "coordinates": [ -97.0914366, 49.91092844 ] } },
{ "type": "Feature", "properties": { "PERMIT ID": "17-173747 HO", "DATE OF ISSUE": "13/3/2018", "DATE OF COMPLETION": "30/9/2019", "STATUS": 1, "ADDRESS": "217 Union AVE W" }, "geometry": { "type": "Point", "coordinates": [ -97.1106504, 49.91496705 ] } },
{ "type": "Feature", "properties": { "PERMIT ID": "17-176516 HO", "DATE OF ISSUE": "4/5/2018", "DATE OF COMPLETION": null, "STATUS": 0, "ADDRESS": "736 Walker AVE " }, "geometry": { "type": "Point", "coordinates": [ -97.14444909, 49.85860668 ] } },
{ "type": "Feature", "properties": { "PERMIT ID": "17-176808 HO", "DATE OF ISSUE": "8/1/2018", "DATE OF COMPLETION": "14/12/2018", "STATUS": 1, "ADDRESS": "250 Gilmore AVE " }, "geometry": { "type": "Point", "coordinates": [ -97.07756095, 49.94904749 ] } },
{ "type": "Feature", "properties": { "PERMIT ID": "17-177657 HO", "DATE OF ISSUE": "22/1/2018", "DATE OF COMPLETION": null, "STATUS": 0, "ADDRESS": "170 Pilgrim AVE " }, "geometry": { "type": "Point", "coordinates": [ -97.09999742, 49.8638647 ] } },
{ "type": "Feature", "properties": { "PERMIT ID": "17-177660 HO", "DATE OF ISSUE": "22/1/2018", "DATE OF COMPLETION": null, "STATUS": 0, "ADDRESS": "172 Pilgrim AVE " }, "geometry": { "type": "Point", "coordinates": [ -97.0999176, 49.86389515 ] } },
{ "type": "Feature", "properties": { "PERMIT ID": "18-102644 HO", "DATE OF ISSUE": "15/2/2018", "DATE OF COMPLETION": "7/6/2018", "STATUS": 1, "ADDRESS": "602 Winona ST " }, "geometry": { "type": "Point", "coordinates": [ -97.00749053, 49.89780141 ] } },
{ "type": "Feature", "properties": { "PERMIT ID": "18-102649 HO", "DATE OF ISSUE": "15/2/2018", "DATE OF COMPLETION": "1/6/2018", "STATUS": 1, "ADDRESS": "604 Winona ST " }, "geometry": { "type": "Point", "coordinates": [ -97.00748753, 49.89787441 ] } },
{ "type": "Feature", "properties": { "PERMIT ID": "18-105518 HO", "DATE OF ISSUE": "26/2/2018", "DATE OF COMPLETION": "19/2/2021", "STATUS": 1, "ADDRESS": "52 Bank AVE " }, "geometry": { "type": "Point", "coordinates": [ -97.10421536, 49.85998973 ] } },
{ "type": "Feature", "properties": { "PERMIT ID": "18-105521 HO", "DATE OF ISSUE": "26/2/2018", "DATE OF COMPLETION": "19/2/2021", "STATUS": 1, "ADDRESS": "54 Bank AVE " }, "geometry": { "type": "Point", "coordinates": [ -97.1041044, 49.86002648 ] } },
{ "type": "Feature", "properties": { "PERMIT ID": "18-110102 HO", "DATE OF ISSUE": "5/4/2018", "DATE OF COMPLETION": "13/10/2020", "STATUS": 1, "ADDRESS": "225 Dromore AVE " }, "geometry": { "type": "Point", "coordinates": [ -97.17094524, 49.87252571 ] } },
{ "type": "Feature", "properties": { "PERMIT ID": "18-111062 HO", "DATE OF ISSUE": "4/5/2018", "DATE OF COMPLETION": "23/3/2021", "STATUS": 1, "ADDRESS": "137 Pilgrim AVE " }, "geometry": { "type": "Point", "coordinates": [ -97.10160835, 49.86378951 ] } },
{ "type": "Feature", "properties": { "PERMIT ID": "18-111089 HO", "DATE OF ISSUE": "4/5/2018", "DATE OF COMPLETION": "23/3/2021", "STATUS": 1, "ADDRESS": "135 Pilgrim AVE " }, "geometry": { "type": "Point", "coordinates": [ -97.10169639, 49.86376047 ] } },
{ "type": "Feature", "properties": { "PERMIT ID": "18-111777 HO", "DATE OF ISSUE": "11/4/2018", "DATE OF COMPLETION": "31/3/2021", "STATUS": 1, "ADDRESS": "10 Ellesmere AVE " }, "geometry": { "type": "Point", "coordinates": [ -97.10980697, 49.86661501 ] } },
{ "type": "Feature", "properties": { "PERMIT ID": "18-111789 HO", "DATE OF ISSUE": "11/4/2018", "DATE OF COMPLETION": "31/3/2021", "STATUS": 1, "ADDRESS": "10 Ellesmere AVE " }, "geometry": { "type": "Point", "coordinates": [ -97.10971332, 49.86664415 ] } },
{ "type": "Feature", "properties": { "PERMIT ID": "18-113355 HO", "DATE OF ISSUE": "22/8/2018", "DATE OF COMPLETION": "18/1/2024", "STATUS": 1, "ADDRESS": "1024 Boston AVE " }, "geometry": { "type": "Point", "coordinates": [ -97.15237105, 49.8348918 ] } },
{ "type": "Feature", "properties": { "PERMIT ID": "18-113360 HO", "DATE OF ISSUE": "18/12/2018", "DATE OF COMPLETION": "11/12/2019", "STATUS": 1, "ADDRESS": "76 Harrowby AVE " }, "geometry": { "type": "Point", "coordinates": [ -97.10678087, 49.86670294 ] } },
{ "type": "Feature", "properties": { "PERMIT ID": "18-113565 HO", "DATE OF ISSUE": "5/7/2018", "DATE OF COMPLETION": "22/3/2024", "STATUS": 1, "ADDRESS": "4289 Ridgewood AVE " }, "geometry": { "type": "Point", "coordinates": [ -97.27343625, 49.84582321 ] } },
{ "type": "Feature", "properties": { "PERMIT ID": "18-113567 HO", "DATE OF ISSUE": "20/12/2018", "DATE OF COMPLETION": "11/2/2020", "STATUS": 1, "ADDRESS": "78 Harrowby AVE " }, "geometry": { "type": "Point", "coordinates": [ -97.10668651, 49.8667284 ] } },
{ "type": "Feature", "properties": { "PERMIT ID": "18-113576 HO", "DATE OF ISSUE": "22/8/2018", "DATE OF COMPLETION": "3/4/2020", "STATUS": 1, "ADDRESS": "1026 Boston AVE " }, "geometry": { "type": "Point", "coordinates": [ -97.15246551, 49.83486155 ] } },
{ "type": "Feature", "properties": { "PERMIT ID": "18-114118 HO", "DATE OF ISSUE": "27/4/2018", "DATE OF COMPLETION": "19/9/2019", "STATUS": 1, "ADDRESS": "1014 Southwood AVE " }, "geometry": { "type": "Point", "coordinates": [ -97.15524973, 49.84255609 ] } },
{ "type": "Feature", "properties": { "PERMIT ID": "18-114122 HO", "DATE OF ISSUE": "27/4/2018", "DATE OF COMPLETION": "29/10/2019", "STATUS": 1, "ADDRESS": "1016 Southwood AVE " }, "geometry": { "type": "Point", "coordinates": [ -97.15534209, 49.84252905 ] } },
{ "type": "Feature", "properties": { "PERMIT ID": "18-114492 HO", "DATE OF ISSUE": "3/4/2018", "DATE OF COMPLETION": "6/6/2018", "STATUS": 1, "ADDRESS": "917 Somerset AVE " }, "geometry": { "type": "Point", "coordinates": [ -97.15055924, 49.84753455 ] } },
{ "type": "Feature", "properties": { "PERMIT ID": "18-114778 HO", "DATE OF ISSUE": "6/4/2018", "DATE OF COMPLETION": "31/10/2018", "STATUS": 1, "ADDRESS": "492 Hethrington AVE " }, "geometry": { "type": "Point", "coordinates": [ -97.13715733, 49.86570484 ] } },
{ "type": "Feature", "properties": { "PERMIT ID": "18-116379 HO", "DATE OF ISSUE": "17/12/2018", "DATE OF COMPLETION": null, "STATUS": 0, "ADDRESS": "135 Seine ST " }, "geometry": { "type": "Point", "coordinates": [ -97.10450177, 49.87642012 ] } },
{ "type": "Feature", "properties": { "PERMIT ID": "18-118667 HO", "DATE OF ISSUE": "2/5/2018", "DATE OF COMPLETION": "27/11/2018", "STATUS": 1, "ADDRESS": "11 Epsom CRES " }, "geometry": { "type": "Point", "coordinates": [ -97.26103082, 49.85558222 ] } },
{ "type": "Feature", "properties": { "PERMIT ID": "18-118707 HO", "DATE OF ISSUE": "18/5/2018", "DATE OF COMPLETION": "21/12/2018", "STATUS": 1, "ADDRESS": "340 Bartlet AVE " }, "geometry": { "type": "Point", "coordinates": [ -97.13208762, 49.86464121 ] } },
{ "type": "Feature", "properties": { "PERMIT ID": "18-119005 HO", "DATE OF ISSUE": "31/5/2018", "DATE OF COMPLETION": "28/3/2022", "STATUS": 1, "ADDRESS": "177 Borebank ST " }, "geometry": { "type": "Point", "coordinates": [ -97.1920264, 49.87361654 ] } },
{ "type": "Feature", "properties": { "PERMIT ID": "18-119727 HO", "DATE OF ISSUE": "25/5/2018", "DATE OF COMPLETION": null, "STATUS": 0, "ADDRESS": "137 Seine ST " }, "geometry": { "type": "Point", "coordinates": [ -97.10451896, 49.87648839 ] } },
{ "type": "Feature", "properties": { "PERMIT ID": "18-119732 HO", "DATE OF ISSUE": "25/5/2018", "DATE OF COMPLETION": null, "STATUS": 0, "ADDRESS": "139 Seine ST " }, "geometry": { "type": "Point", "coordinates": [ -97.10453581, 49.87656014 ] } },
{ "type": "Feature", "properties": { "PERMIT ID": "18-120611 HO", "DATE OF ISSUE": "24/5/2018", "DATE OF COMPLETION": "25/9/2020", "STATUS": 1, "ADDRESS": "520 Glenway AVE " }, "geometry": { "type": "Point", "coordinates": [ -97.05278668, 49.95455353 ] } },
{ "type": "Feature", "properties": { "PERMIT ID": "18-120955 HO", "DATE OF ISSUE": "9/5/2018", "DATE OF COMPLETION": "10/12/2018", "STATUS": 1, "ADDRESS": "309 Marjorie ST " }, "geometry": { "type": "Point", "coordinates": [ -97.21318338, 49.88298094 ] } },
{ "type": "Feature", "properties": { "PERMIT ID": "18-121003 HO", "DATE OF ISSUE": "28/6/2018", "DATE OF COMPLETION": "11/3/2020", "STATUS": 1, "ADDRESS": "693 Mulvey AVE " }, "geometry": { "type": "Point", "coordinates": [ -97.15187735, 49.86862887 ] } },
{ "type": "Feature", "properties": { "PERMIT ID": "18-121980 HO", "DATE OF ISSUE": "16/5/2018", "DATE OF COMPLETION": "1/11/2019", "STATUS": 1, "ADDRESS": "268 Cherrywood RD " }, "geometry": { "type": "Point", "coordinates": [ -97.20543675, 49.78484959 ] } },
{ "type": "Feature", "properties": { "PERMIT ID": "18-122271 HO", "DATE OF ISSUE": "9/5/2018", "DATE OF COMPLETION": "12/2/2019", "STATUS": 1, "ADDRESS": "909 Nottingham AVE " }, "geometry": { "type": "Point", "coordinates": [ -97.08000342, 49.90713706 ] } },
{ "type": "Feature", "properties": { "PERMIT ID": "18-122974 HO", "DATE OF ISSUE": "22/6/2018", "DATE OF COMPLETION": "15/4/2021", "STATUS": 1, "ADDRESS": "684 Mulvey AVE " }, "geometry": { "type": "Point", "coordinates": [ -97.15103674, 49.86840116 ] } },
{ "type": "Feature", "properties": { "PERMIT ID": "18-123002 HO", "DATE OF ISSUE": "30/5/2018", "DATE OF COMPLETION": "15/4/2019", "STATUS": 1, "ADDRESS": "690 Hugo ST S" }, "geometry": { "type": "Point", "coordinates": [ -97.14327673, 49.86202636 ] } },
{ "type": "Feature", "properties": { "PERMIT ID": "18-123444 HO", "DATE OF ISSUE": "8/6/2018", "DATE OF COMPLETION": "14/2/2019", "STATUS": 1, "ADDRESS": "690 Hugo ST S" }, "geometry": { "type": "Point", "coordinates": [ -97.14577735, 49.8616071 ] } },
{ "type": "Feature", "properties": { "PERMIT ID": "18-130244 HO", "DATE OF ISSUE": "22/11/2018", "DATE OF COMPLETION": "23/3/2020", "STATUS": 1, "ADDRESS": "847 Weatherdon AVE " }, "geometry": { "type": "Point", "coordinates": [ -97.15522132, 49.86186316 ] } },
{ "type": "Feature", "properties": { "PERMIT ID": "18-130257 HO", "DATE OF ISSUE": "5/9/2018", "DATE OF COMPLETION": null, "STATUS": 0, "ADDRESS": "375 Edgewood ST " }, "geometry": { "type": "Point", "coordinates": [ -97.10979642, 49.87939183 ] } },
{ "type": "Feature", "properties": { "PERMIT ID": "18-130322 HO", "DATE OF ISSUE": "12/7/2018", "DATE OF COMPLETION": "21/1/2022", "STATUS": 1, "ADDRESS": "1028 Edderton AVE " }, "geometry": { "type": "Point", "coordinates": [ -97.15507361, 49.84907168 ] } },
{ "type": "Feature", "properties": { "PERMIT ID": "18-130325 HO", "DATE OF ISSUE": "12/7/2018", "DATE OF COMPLETION": "16/9/2020", "STATUS": 1, "ADDRESS": "1030 Edderton AVE " }, "geometry": { "type": "Point", "coordinates": [ -97.15518794, 49.84903195 ] } },
{ "type": "Feature", "properties": { "PERMIT ID": "18-131168 HO", "DATE OF ISSUE": "21/9/2018", "DATE OF COMPLETION": "21/11/2019", "STATUS": 1, "ADDRESS": "852 Lorette AVE " }, "geometry": { "type": "Point", "coordinates": [ -97.15468228, 49.86380617 ] } },
{ "type": "Feature", "properties": { "PERMIT ID": "18-131171 HO", "DATE OF ISSUE": "21/9/2018", "DATE OF COMPLETION": "21/11/2019", "STATUS": 1, "ADDRESS": "854 Lorette AVE " }, "geometry": { "type": "Point", "coordinates": [ -97.15477204, 49.8637774 ] } },
{ "type": "Feature", "properties": { "PERMIT ID": "18-132721 HO", "DATE OF ISSUE": "22/11/2018", "DATE OF COMPLETION": "16/12/2019", "STATUS": 1, "ADDRESS": "849 Weatherdon AVE " }, "geometry": { "type": "Point", "coordinates": [ -97.15531076, 49.86183433 ] } },
{ "type": "Feature", "properties": { "PERMIT ID": "18-133946 HO", "DATE OF ISSUE": "5/9/2018", "DATE OF COMPLETION": "29/9/2021", "STATUS": 1, "ADDRESS": "377 Edgewood ST " }, "geometry": { "type": "Point", "coordinates": [ -97.10969818, 49.87939023 ] } },
{ "type": "Feature", "properties": { "PERMIT ID": "18-134168 HO", "DATE OF ISSUE": "27/11/2018", "DATE OF COMPLETION": "16/11/2020", "STATUS": 1, "ADDRESS": "1046 Corydon AVE " }, "geometry": { "type": "Point", "coordinates": [ -97.16486319, 49.86667743 ] } },
{ "type": "Feature", "properties": { "PERMIT ID": "18-134171 HO", "DATE OF ISSUE": "27/11/2018", "DATE OF COMPLETION": "6/11/2020", "STATUS": 1, "ADDRESS": "1044 Corydon AVE " }, "geometry": { "type": "Point", "coordinates": [ -97.16477383, 49.86670143 ] } },
{ "type": "Feature", "properties": { "PERMIT ID": "18-134247 HO", "DATE OF ISSUE": "10/7/2018", "DATE OF COMPLETION": "10/6/2019", "STATUS": 1, "ADDRESS": "128 Yale AVE " }, "geometry": { "type": "Point", "coordinates": [ -97.16451757, 49.87086097 ] } },
{ "type": "Feature", "properties": { "PERMIT ID": "18-137321 HO", "DATE OF ISSUE": "2/8/2018", "DATE OF COMPLETION": "25/11/2019", "STATUS": 1, "ADDRESS": "54 Hull AVE " }, "geometry": { "type": "Point", "coordinates": [ -97.10714721, 49.85079119 ] } },
{ "type": "Feature", "properties": { "PERMIT ID": "18-137489 HO", "DATE OF ISSUE": "27/7/2018", "DATE OF COMPLETION": "22/4/2019", "STATUS": 1, "ADDRESS": "104 Singh TRAIL " }, "geometry": { "type": "Point", "coordinates": [ -97.20313308, 49.95530016 ] } },
{ "type": "Feature", "properties": { "PERMIT ID": "18-138602 HO", "DATE OF ISSUE": "12/7/2018", "DATE OF COMPLETION": "6/4/2021", "STATUS": 1, "ADDRESS": "26 Regal AVE " }, "geometry": { "type": "Point", "coordinates": [ -97.110303, 49.85656887 ] } },
{ "type": "Feature", "properties": { "PERMIT ID": "18-138610 HO", "DATE OF ISSUE": "12/7/2018", "DATE OF COMPLETION": "6/4/2021", "STATUS": 1, "ADDRESS": "28 Regal AVE " }, "geometry": { "type": "Point", "coordinates": [ -97.11018554, 49.85660447 ] } },
{ "type": "Feature", "properties": { "PERMIT ID": "18-139086 HO", "DATE OF ISSUE": "4/12/2018", "DATE OF COMPLETION": "22/11/2019", "STATUS": 1, "ADDRESS": "431 Melrose AVE E" }, "geometry": { "type": "Point", "coordinates": [ -96.99375732, 49.89451748 ] } },
{ "type": "Feature", "properties": { "PERMIT ID": "18-140094 HO", "DATE OF ISSUE": "20/11/2018", "DATE OF COMPLETION": "16/8/2023", "STATUS": 1, "ADDRESS": "212 Arnold AVE " }, "geometry": { "type": "Point", "coordinates": [ -97.13230018, 49.86646095 ] } },
{ "type": "Feature", "properties": { "PERMIT ID": "18-140753 HO", "DATE OF ISSUE": "13/5/2020", "DATE OF COMPLETION": "18/12/2020", "STATUS": 1, "ADDRESS": "740 McCalman AVE " }, "geometry": { "type": "Point", "coordinates": [ -97.09373632, 49.90336828 ] } },
{ "type": "Feature", "properties": { "PERMIT ID": "18-141331 HO", "DATE OF ISSUE": "20/7/2018", "DATE OF COMPLETION": "20/12/2018", "STATUS": 1, "ADDRESS": "683 Nairn AVE " }, "geometry": { "type": "Point", "coordinates": [ -97.09203292, 49.90276661 ] } },
{ "type": "Feature", "properties": { "PERMIT ID": "18-141562 HO", "DATE OF ISSUE": "17/9/2018", "DATE OF COMPLETION": "14/8/2020", "STATUS": 1, "ADDRESS": "407 Edgewood ST " }, "geometry": { "type": "Point", "coordinates": [ -97.10801569, 49.87946782 ] } },
{ "type": "Feature", "properties": { "PERMIT ID": "18-141897 HO", "DATE OF ISSUE": "14/2/2019", "DATE OF COMPLETION": "27/6/2023", "STATUS": 1, "ADDRESS": "1035 Royse AVE " }, "geometry": { "type": "Point", "coordinates": [ -97.1528912, 49.83435073 ] } },
{ "type": "Feature", "properties": { "PERMIT ID": "18-144461 HO", "DATE OF ISSUE": "23/8/2018", "DATE OF COMPLETION": "17/11/2021", "STATUS": 1, "ADDRESS": "1131 Somerville AVE " }, "geometry": { "type": "Point", "coordinates": [ -97.15690007, 49.84612934 ] } },
{ "type": "Feature", "properties": { "PERMIT ID": "18-144630 HO", "DATE OF ISSUE": "28/8/2018", "DATE OF COMPLETION": "7/9/2023", "STATUS": 1, "ADDRESS": "2665 Knowles AVE " }, "geometry": { "type": "Point", "coordinates": [ -97.00820766, 49.93367732 ] } },
{ "type": "Feature", "properties": { "PERMIT ID": "18-146065 HO", "DATE OF ISSUE": "3/8/2018", "DATE OF COMPLETION": "26/4/2019", "STATUS": 1, "ADDRESS": "54 Barkwood BAY " }, "geometry": { "type": "Point", "coordinates": [ -97.17806757, 49.77148681 ] } },
{ "type": "Feature", "properties": { "PERMIT ID": "18-147404 HO", "DATE OF ISSUE": "23/8/2018", "DATE OF COMPLETION": "31/12/2018", "STATUS": 1, "ADDRESS": "23 Cornell DR " }, "geometry": { "type": "Point", "coordinates": [ -97.14054628, 49.7973351 ] } },
{ "type": "Feature", "properties": { "PERMIT ID": "18-150067 HO", "DATE OF ISSUE": "21/9/2018", "DATE OF COMPLETION": "31/10/2019", "STATUS": 1, "ADDRESS": "400 Parkview ST " }, "geometry": { "type": "Point", "coordinates": [ -97.21484475, 49.88640478 ] } },
{ "type": "Feature", "properties": { "PERMIT ID": "18-151519 HO", "DATE OF ISSUE": "26/9/2018", "DATE OF COMPLETION": "30/4/2021", "STATUS": 1, "ADDRESS": "181 Borebank ST " }, "geometry": { "type": "Point", "coordinates": [ -97.19203256, 49.87355479 ] } },
{ "type": "Feature", "properties": { "PERMIT ID": "18-151972 HO", "DATE OF ISSUE": "27/9/2018", "DATE OF COMPLETION": "31/10/2019", "STATUS": 1, "ADDRESS": "398 Parkview ST " }, "geometry": { "type": "Point", "coordinates": [ -97.21485248, 49.88632866 ] } },
{ "type": "Feature", "properties": { "PERMIT ID": "18-152449 HO", "DATE OF ISSUE": "2/10/2018", "DATE OF COMPLETION": "12/8/2019", "STATUS": 1, "ADDRESS": "746 Prince Rupert AVE " }, "geometry": { "type": "Point", "coordinates": [ -97.08042442, 49.91416443 ] } },
{ "type": "Feature", "properties": { "PERMIT ID": "18-152456 HO", "DATE OF ISSUE": "2/10/2018", "DATE OF COMPLETION": "12/8/2019", "STATUS": 1, "ADDRESS": "748 Prince Rupert AVE " }, "geometry": { "type": "Point", "coordinates": [ -97.08031758, 49.91412854 ] } },
{ "type": "Feature", "properties": { "PERMIT ID": "18-153112 HO", "DATE OF ISSUE": "14/9/2018", "DATE OF COMPLETION": null, "STATUS": 0, "ADDRESS": "664 Riverwood AVE " }, "geometry": { "type": "Point", "coordinates": [ -97.14233348, 49.84583191 ] } },
{ "type": "Feature", "properties": { "PERMIT ID": "18-156385 HO", "DATE OF ISSUE": "17/9/2018", "DATE OF COMPLETION": "14/8/2020", "STATUS": 1, "ADDRESS": "409 Edgewood ST " }, "geometry": { "type": "Point", "coordinates": [ -97.10791701, 49.87947733 ] } },
{ "type": "Feature", "properties": { "PERMIT ID": "18-157060 HO", "DATE OF ISSUE": "26/9/2018", "DATE OF COMPLETION": "19/3/2019", "STATUS": 1, "ADDRESS": "1314 Liberty ST " }, "geometry": { "type": "Point", "coordinates": [ -97.26217215, 49.83849039 ] } },
{ "type": "Feature", "properties": { "PERMIT ID": "18-159023 HO", "DATE OF ISSUE": "5/12/2018", "DATE OF COMPLETION": "26/11/2019", "STATUS": 1, "ADDRESS": "352 Rutland ST " }, "geometry": { "type": "Point", "coordinates": [ -97.22106946, 49.88465811 ] } },
{ "type": "Feature", "properties": { "PERMIT ID": "18-159514 HO", "DATE OF ISSUE": "24/10/2018", "DATE OF COMPLETION": "14/6/2019", "STATUS": 1, "ADDRESS": "1000 Boston AVE " }, "geometry": { "type": "Point", "coordinates": [ -97.15133014, 49.83525586 ] } },
{ "type": "Feature", "properties": { "PERMIT ID": "18-159523 HO", "DATE OF ISSUE": "24/10/2018", "DATE OF COMPLETION": "16/7/2019", "STATUS": 1, "ADDRESS": "1004 Boston AVE " }, "geometry": { "type": "Point", "coordinates": [ -97.15143478, 49.83521624 ] } },
{ "type": "Feature", "properties": { "PERMIT ID": "18-159552 HO", "DATE OF ISSUE": "11/12/2018", "DATE OF COMPLETION": "3/10/2019", "STATUS": 1, "ADDRESS": "100 Guay AVE " }, "geometry": { "type": "Point", "coordinates": [ -97.10627845, 49.87189116 ] } },
{ "type": "Feature", "properties": { "PERMIT ID": "18-159562 HO", "DATE OF ISSUE": "11/12/2018", "DATE OF COMPLETION": "11/10/2019", "STATUS": 1, "ADDRESS": "98 Guay AVE " }, "geometry": { "type": "Point", "coordinates": [ -97.10636622, 49.87186278 ] } },
{ "type": "Feature", "properties": { "PERMIT ID": "18-159810 HO", "DATE OF ISSUE": "19/9/2018", "DATE OF COMPLETION": "2/3/2020", "STATUS": 1, "ADDRESS": "337 Jamison AVE " }, "geometry": { "type": "Point", "coordinates": [ -97.10616668, 49.91740564 ] } },
{ "type": "Feature", "properties": { "PERMIT ID": "18-160836 HO", "DATE OF ISSUE": "9/4/2019", "DATE OF COMPLETION": "23/4/2021", "STATUS": 1, "ADDRESS": "912 William AVE " }, "geometry": { "type": "Point", "coordinates": [ -97.16675452, 49.90731983 ] } },
{ "type": "Feature", "properties": { "PERMIT ID": "18-163203 HO", "DATE OF ISSUE": "11/10/2018", "DATE OF COMPLETION": "14/12/2019", "STATUS": 1, "ADDRESS": "128 Cherrywood RD " }, "geometry": { "type": "Point", "coordinates": [ -97.20889385, 49.78742066 ] } },
{ "type": "Feature", "properties": { "PERMIT ID": "18-170591 HO", "DATE OF ISSUE": "13/11/2018", "DATE OF COMPLETION": "5/11/2021", "STATUS": 1, "ADDRESS": "510 McAdam AVE " }, "geometry": { "type": "Point", "coordinates": [ -97.13552751, 49.93398693 ] } },
{ "type": "Feature", "properties": { "PERMIT ID": "18-172288 HO", "DATE OF ISSUE": "22/5/2019", "DATE OF COMPLETION": "16/12/2020", "STATUS": 1, "ADDRESS": "299 Wallasey ST " }, "geometry": { "type": "Point", "coordinates": [ -97.26463776, 49.87998213 ] } },
{ "type": "Feature", "properties": { "PERMIT ID": "18-173237 HO", "DATE OF ISSUE": "12/12/2018", "DATE OF COMPLETION": null, "STATUS": 0, "ADDRESS": "144 Dupont ST " }, "geometry": { "type": "Point", "coordinates": [ -97.10524652, 49.87666562 ] } },
{ "type": "Feature", "properties": { "PERMIT ID": "18-175703 HO", "DATE OF ISSUE": "5/12/2018", "DATE OF COMPLETION": "8/11/2019", "STATUS": 1, "ADDRESS": "456 Centennial ST " }, "geometry": { "type": "Point", "coordinates": [ -97.20072659, 49.8656977 ] } },
{ "type": "Feature", "properties": { "PERMIT ID": "18-175709 HO", "DATE OF ISSUE": "25/1/2019", "DATE OF COMPLETION": "17/1/2020", "STATUS": 1, "ADDRESS": "429 Jamison AVE " }, "geometry": { "type": "Point", "coordinates": [ -97.10255858, 49.91615864 ] } },
{ "type": "Feature", "properties": { "PERMIT ID": "18-177783 HO", "DATE OF ISSUE": "26/2/2019", "DATE OF COMPLETION": "12/3/2020", "STATUS": 1, "ADDRESS": "230 Thurso ST " }, "geometry": { "type": "Point", "coordinates": [ -97.17143915, 49.86347181 ] } },
{ "type": "Feature", "properties": { "PERMIT ID": "18-184034 HO", "DATE OF ISSUE": "29/3/2019", "DATE OF COMPLETION": "7/11/2019", "STATUS": 1, "ADDRESS": "47 Pilgrim AVE " }, "geometry": { "type": "Point", "coordinates": [ -97.10604072, 49.86232007 ] } },
{ "type": "Feature", "properties": { "PERMIT ID": "18-184039 HO", "DATE OF ISSUE": "29/3/2019", "DATE OF COMPLETION": "7/11/2019", "STATUS": 1, "ADDRESS": "49 Pilgrim AVE " }, "geometry": { "type": "Point", "coordinates": [ -97.10595273, 49.86234988 ] } },
{ "type": "Feature", "properties": { "PERMIT ID": "18-184317 HO", "DATE OF ISSUE": "17/4/2019", "DATE OF COMPLETION": "23/7/2020", "STATUS": 1, "ADDRESS": "776 Jessie AVE " }, "geometry": { "type": "Point", "coordinates": [ -97.15458792, 49.86908296 ] } },
{ "type": "Feature", "properties": { "PERMIT ID": "18-185642 HO", "DATE OF ISSUE": "3/1/2019", "DATE OF COMPLETION": "25/1/2021", "STATUS": 1, "ADDRESS": "36 Vivian AVE " }, "geometry": { "type": "Point", "coordinates": [ -97.10850643, 49.86858788 ] } },
{ "type": "Feature", "properties": { "PERMIT ID": "18-186838 HO", "DATE OF ISSUE": "7/1/2019", "DATE OF COMPLETION": "22/7/2019", "STATUS": 1, "ADDRESS": "501 Bronx AVE " }, "geometry": { "type": "Point", "coordinates": [ -97.09140079, 49.92281201 ] } },
{ "type": "Feature", "properties": { "PERMIT ID": "18-187760 HO", "DATE OF ISSUE": "23/1/2019", "DATE OF COMPLETION": "25/7/2019", "STATUS": 1, "ADDRESS": "575 Home ST " }, "geometry": { "type": "Point", "coordinates": [ -97.1671207, 49.89385624 ] } },
{ "type": "Feature", "properties": { "PERMIT ID": "18-188395 HO", "DATE OF ISSUE": "18/1/2019", "DATE OF COMPLETION": "6/9/2019", "STATUS": 1, "ADDRESS": "319 Chalmers AVE " }, "geometry": { "type": "Point", "coordinates": [ -97.10695269, 49.91295485 ] } },
{ "type": "Feature", "properties": { "PERMIT ID": "18-189529 HO", "DATE OF ISSUE": "21/2/2019", "DATE OF COMPLETION": "13/4/2021", "STATUS": 1, "ADDRESS": "60 Pilgrim AVE " }, "geometry": { "type": "Point", "coordinates": [ -97.10527247, 49.8621014 ] } },
{ "type": "Feature", "properties": { "PERMIT ID": "18-189539 HO", "DATE OF ISSUE": "21/2/2019", "DATE OF COMPLETION": "13/4/2021", "STATUS": 1, "ADDRESS": "58 Pilgrim AVE " }, "geometry": { "type": "Point", "coordinates": [ -97.10538138, 49.86206756 ] } },
{ "type": "Feature", "properties": { "PERMIT ID": "18-189549 HO", "DATE OF ISSUE": "10/5/2019", "DATE OF COMPLETION": "13/5/2021", "STATUS": 1, "ADDRESS": "11 Clonard AVE " }, "geometry": { "type": "Point", "coordinates": [ -97.10942185, 49.86369297 ] } },
{ "type": "Feature", "properties": { "PERMIT ID": "18-189560 HO", "DATE OF ISSUE": "10/5/2019", "DATE OF COMPLETION": "13/5/2021", "STATUS": 1, "ADDRESS": "9 Clonard AVE " }, "geometry": { "type": "Point", "coordinates": [ -97.10949644, 49.86367036 ] } },
{ "type": "Feature", "properties": { "PERMIT ID": "18-189591 HO", "DATE OF ISSUE": "12/4/2019", "DATE OF COMPLETION": "23/2/2021", "STATUS": 1, "ADDRESS": "29 Vivian AVE " }, "geometry": { "type": "Point", "coordinates": [ -97.10903225, 49.86896398 ] } },
{ "type": "Feature", "properties": { "PERMIT ID": "18-189593 HO", "DATE OF ISSUE": "12/4/2019", "DATE OF COMPLETION": "23/2/2021", "STATUS": 1, "ADDRESS": "31 Vivian AVE " }, "geometry": { "type": "Point", "coordinates": [ -97.10894717, 49.8689908 ] } },
{ "type": "Feature", "properties": { "PERMIT ID": "18-189688 HO", "DATE OF ISSUE": "14/1/2019", "DATE OF COMPLETION": null, "STATUS": 0, "ADDRESS": "93 Hill Grove PT " }, "geometry": { "type": "Point", "coordinates": [ -97.19297518, 49.79613025 ] } },
{ "type": "Feature", "properties": { "PERMIT ID": "18-190192 HO", "DATE OF ISSUE": "4/10/2019", "DATE OF COMPLETION": "20/7/2022", "STATUS": 1, "ADDRESS": "1021 Beauty AVE " }, "geometry": { "type": "Point", "coordinates": [ -97.15415677, 49.94708482 ] } },
{ "type": "Feature", "properties": { "PERMIT ID": "19-103596 HO", "DATE OF ISSUE": "6/3/2019", "DATE OF COMPLETION": "21/6/2019", "STATUS": 1, "ADDRESS": "690 Hugo ST S" }, "geometry": { "type": "Point", "coordinates": [ -97.14549686, 49.86148345 ] } },
{ "type": "Feature", "properties": { "PERMIT ID": "19-104357 HO", "DATE OF ISSUE": "2/5/2019", "DATE OF COMPLETION": "10/12/2019", "STATUS": 1, "ADDRESS": "111 Fifth AVE " }, "geometry": { "type": "Point", "coordinates": [ -97.1068322, 49.87316166 ] } },
{ "type": "Feature", "properties": { "PERMIT ID": "19-106123 HO", "DATE OF ISSUE": "26/3/2019", "DATE OF COMPLETION": "17/12/2019", "STATUS": 1, "ADDRESS": "15 Fifth AVE " }, "geometry": { "type": "Point", "coordinates": [ -97.11171063, 49.8716428 ] } },
{ "type": "Feature", "properties": { "PERMIT ID": "19-106488 HO", "DATE OF ISSUE": "4/2/2019", "DATE OF COMPLETION": "4/10/2019", "STATUS": 1, "ADDRESS": "506 Beresford AVE " }, "geometry": { "type": "Point", "coordinates": [ -97.13350678, 49.86043965 ] } },
{ "type": "Feature", "properties": { "PERMIT ID": "19-106492 HO", "DATE OF ISSUE": "14/2/2019", "DATE OF COMPLETION": "4/10/2019", "STATUS": 1, "ADDRESS": "504 Beresford AVE " }, "geometry": { "type": "Point", "coordinates": [ -97.13340685, 49.86047381 ] } },
{ "type": "Feature", "properties": { "PERMIT ID": "19-106512 HO", "DATE OF ISSUE": "11/3/2019", "DATE OF COMPLETION": "21/6/2021", "STATUS": 1, "ADDRESS": "587 Cambridge ST " }, "geometry": { "type": "Point", "coordinates": [ -97.17528761, 49.86358429 ] } },
{ "type": "Feature", "properties": { "PERMIT ID": "19-106798 HO", "DATE OF ISSUE": "30/4/2019", "DATE OF COMPLETION": "25/5/2020", "STATUS": 1, "ADDRESS": "222 Havelock AVE " }, "geometry": { "type": "Point", "coordinates": [ -97.10014703, 49.848643 ] } },
{ "type": "Feature", "properties": { "PERMIT ID": "19-107584 HO", "DATE OF ISSUE": "26/4/2019", "DATE OF COMPLETION": "22/10/2020", "STATUS": 1, "ADDRESS": "219 Roger ST " }, "geometry": { "type": "Point", "coordinates": [ -97.11774364, 49.87650824 ] } },
{ "type": "Feature", "properties": { "PERMIT ID": "19-107921 HO", "DATE OF ISSUE": "14/3/2019", "DATE OF COMPLETION": "27/11/2019", "STATUS": 1, "ADDRESS": "364 Roseberry ST " }, "geometry": { "type": "Point", "coordinates": [ -97.2163002, 49.88509765 ] } },
{ "type": "Feature", "properties": { "PERMIT ID": "19-107956 HO", "DATE OF ISSUE": "26/2/2019", "DATE OF COMPLETION": "28/8/2019", "STATUS": 1, "ADDRESS": "372 Roseberry ST " }, "geometry": { "type": "Point", "coordinates": [ -97.21627781, 49.88536987 ] } },
{ "type": "Feature", "properties": { "PERMIT ID": "19-107957 HO", "DATE OF ISSUE": "14/3/2019", "DATE OF COMPLETION": "17/4/2020", "STATUS": 1, "ADDRESS": "366 Roseberry ST " }, "geometry": { "type": "Point", "coordinates": [ -97.21629512, 49.88516372 ] } },
{ "type": "Feature", "properties": { "PERMIT ID": "19-108963 HO", "DATE OF ISSUE": "26/3/2019", "DATE OF COMPLETION": "6/8/2019", "STATUS": 1, "ADDRESS": "266 Aubrey ST " }, "geometry": { "type": "Point", "coordinates": [ -97.17551883, 49.88200877 ] } },
{ "type": "Feature", "properties": { "PERMIT ID": "19-109068 HO", "DATE OF ISSUE": "19/6/2019", "DATE OF COMPLETION": null, "STATUS": 0, "ADDRESS": "473 Ritchot ST " }, "geometry": { "type": "Point", "coordinates": [ -97.11619275, 49.88748816 ] } },
{ "type": "Feature", "properties": { "PERMIT ID": "19-109571 HO", "DATE OF ISSUE": "2/5/2019", "DATE OF COMPLETION": "30/3/2021", "STATUS": 1, "ADDRESS": "568 Prosper ST " }, "geometry": { "type": "Point", "coordinates": [ -97.09968965, 49.8808706 ] } },
{ "type": "Feature", "properties": { "PERMIT ID": "19-110200 HO", "DATE OF ISSUE": "24/5/2019", "DATE OF COMPLETION": "10/11/2020", "STATUS": 1, "ADDRESS": "598 Warsaw AVE " }, "geometry": { "type": "Point", "coordinates": [ -97.14640113, 49.87083602 ] } },
{ "type": "Feature", "properties": { "PERMIT ID": "19-111684 HO", "DATE OF ISSUE": "28/5/2019", "DATE OF COMPLETION": "9/12/2019", "STATUS": 1, "ADDRESS": "1830 Logan AVE " }, "geometry": { "type": "Point", "coordinates": [ -97.19720289, 49.92203542 ] } },
{ "type": "Feature", "properties": { "PERMIT ID": "19-113776 HO", "DATE OF ISSUE": "10/9/2019", "DATE OF COMPLETION": "21/10/2020", "STATUS": 1, "ADDRESS": "402 Bannatyne AVE " }, "geometry": { "type": "Point", "coordinates": [ -97.14660846, 49.89975333 ] } },
{ "type": "Feature", "properties": { "PERMIT ID": "19-117072 HO", "DATE OF ISSUE": "29/5/2019", "DATE OF COMPLETION": "13/6/2022", "STATUS": 1, "ADDRESS": "215 Campbell ST " }, "geometry": { "type": "Point", "coordinates": [ -97.19074586, 49.8724683 ] } },
{ "type": "Feature", "properties": { "PERMIT ID": "19-117451 HO", "DATE OF ISSUE": "7/8/2019", "DATE OF COMPLETION": "25/1/2021", "STATUS": 1, "ADDRESS": "416 Martin AVE W" }, "geometry": { "type": "Point", "coordinates": [ -97.10269283, 49.91265849 ] } },
{ "type": "Feature", "properties": { "PERMIT ID": "19-117534 HO", "DATE OF ISSUE": "17/6/2019", "DATE OF COMPLETION": "3/9/2020", "STATUS": 1, "ADDRESS": "578 Riverton AVE " }, "geometry": { "type": "Point", "coordinates": [ -97.09696998, 49.90593613 ] } },
{ "type": "Feature", "properties": { "PERMIT ID": "19-119601 HO", "DATE OF ISSUE": "9/8/2019", "DATE OF COMPLETION": "4/8/2021", "STATUS": 1, "ADDRESS": "139 Pilgrim AVE " }, "geometry": { "type": "Point", "coordinates": [ -97.10150121, 49.86382746 ] } },
{ "type": "Feature", "properties": { "PERMIT ID": "19-120004 HO", "DATE OF ISSUE": "9/8/2019", "DATE OF COMPLETION": "21/7/2020", "STATUS": 1, "ADDRESS": "141 Pilgrim AVE " }, "geometry": { "type": "Point", "coordinates": [ -97.10141925, 49.86384994 ] } },
{ "type": "Feature", "properties": { "PERMIT ID": "19-123001 HO", "DATE OF ISSUE": "4/6/2020", "DATE OF COMPLETION": "30/12/2020", "STATUS": 1, "ADDRESS": "569 Talbot AVE " }, "geometry": { "type": "Point", "coordinates": [ -97.09941605, 49.90603208 ] } },
{ "type": "Feature", "properties": { "PERMIT ID": "19-123912 HO", "DATE OF ISSUE": "30/5/2019", "DATE OF COMPLETION": "14/8/2020", "STATUS": 1, "ADDRESS": "7 Vivian AVE " }, "geometry": { "type": "Point", "coordinates": [ -97.10997777, 49.86864087 ] } },
{ "type": "Feature", "properties": { "PERMIT ID": "19-123922 HO", "DATE OF ISSUE": "30/5/2019", "DATE OF COMPLETION": "14/8/2020", "STATUS": 1, "ADDRESS": "9 Vivian AVE " }, "geometry": { "type": "Point", "coordinates": [ -97.10988819, 49.86866959 ] } },
{ "type": "Feature", "properties": { "PERMIT ID": "19-125728 HO", "DATE OF ISSUE": "10/5/2019", "DATE OF COMPLETION": "10/5/2022", "STATUS": 1, "ADDRESS": "22 Regal AVE " }, "geometry": { "type": "Point", "coordinates": [ -97.1105248, 49.85649407 ] } },
{ "type": "Feature", "properties": { "PERMIT ID": "19-125733 HO", "DATE OF ISSUE": "10/5/2019", "DATE OF COMPLETION": "10/5/2022", "STATUS": 1, "ADDRESS": "24 Regal AVE " }, "geometry": { "type": "Point", "coordinates": [ -97.11042039, 49.85652572 ] } },
{ "type": "Feature", "properties": { "PERMIT ID": "19-126280 HO", "DATE OF ISSUE": "28/11/2019", "DATE OF COMPLETION": null, "STATUS": 0, "ADDRESS": "174 Bertrand ST " }, "geometry": { "type": "Point", "coordinates": [ -97.12102517, 49.88392938 ] } },
{ "type": "Feature", "properties": { "PERMIT ID": "19-126879 HO", "DATE OF ISSUE": "19/6/2019", "DATE OF COMPLETION": null, "STATUS": 0, "ADDRESS": "459 Rosedale AVE " }, "geometry": { "type": "Point", "coordinates": [ -97.13860414, 49.85827712 ] } },
{ "type": "Feature", "properties": { "PERMIT ID": "19-128762 HO", "DATE OF ISSUE": "7/5/2019", "DATE OF COMPLETION": "27/8/2019", "STATUS": 1, "ADDRESS": "115 Briar Cliff BAY " }, "geometry": { "type": "Point", "coordinates": [ -97.14719916, 49.79235688 ] } },
{ "type": "Feature", "properties": { "PERMIT ID": "19-128772 HO", "DATE OF ISSUE": "24/7/2019", "DATE OF COMPLETION": "5/1/2021", "STATUS": 1, "ADDRESS": "69 Fermor AVE " }, "geometry": { "type": "Point", "coordinates": [ -97.10603561, 49.85492002 ] } },
{ "type": "Feature", "properties": { "PERMIT ID": "19-128774 HO", "DATE OF ISSUE": "24/7/2019", "DATE OF COMPLETION": "5/1/2021", "STATUS": 1, "ADDRESS": "69 Fermor AVE " }, "geometry": { "type": "Point", "coordinates": [ -97.10594137, 49.85494793 ] } },
{ "type": "Feature", "properties": { "PERMIT ID": "19-128815 HO", "DATE OF ISSUE": "17/7/2019", "DATE OF COMPLETION": "4/11/2020", "STATUS": 1, "ADDRESS": "995 Jessie AVE " }, "geometry": { "type": "Point", "coordinates": [ -97.16426513, 49.86636475 ] } },
{ "type": "Feature", "properties": { "PERMIT ID": "19-128822 HO", "DATE OF ISSUE": "18/7/2019", "DATE OF COMPLETION": "4/11/2020", "STATUS": 1, "ADDRESS": "993 Jessie AVE " }, "geometry": { "type": "Point", "coordinates": [ -97.16417082, 49.86639439 ] } },
{ "type": "Feature", "properties": { "PERMIT ID": "19-132078 HO", "DATE OF ISSUE": "10/9/2019", "DATE OF COMPLETION": null, "STATUS": 0, "ADDRESS": "311 Regent AVE E" }, "geometry": { "type": "Point", "coordinates": [ -96.99717388, 49.89535319 ] } },
{ "type": "Feature", "properties": { "PERMIT ID": "19-132085 HO", "DATE OF ISSUE": "10/9/2019", "DATE OF COMPLETION": null, "STATUS": 0, "ADDRESS": "313 Regent AVE E" }, "geometry": { "type": "Point", "coordinates": [ -96.99705828, 49.89535633 ] } },
{ "type": "Feature", "properties": { "PERMIT ID": "19-132090 HO", "DATE OF ISSUE": "10/9/2019", "DATE OF COMPLETION": null, "STATUS": 0, "ADDRESS": "315 Regent AVE E" }, "geometry": { "type": "Point", "coordinates": [ -96.99694659, 49.89535886 ] } },
{ "type": "Feature", "properties": { "PERMIT ID": "19-133146 HO", "DATE OF ISSUE": "27/5/2019", "DATE OF COMPLETION": "22/12/2023", "STATUS": 1, "ADDRESS": "47 Stranmillis AVE " }, "geometry": { "type": "Point", "coordinates": [ -97.10723246, 49.86366872 ] } },
{ "type": "Feature", "properties": { "PERMIT ID": "19-134323 HO", "DATE OF ISSUE": "20/8/2019", "DATE OF COMPLETION": "10/8/2020", "STATUS": 1, "ADDRESS": "64 Morier AVE " }, "geometry": { "type": "Point", "coordinates": [ -97.10750249, 49.87065861 ] } },
{ "type": "Feature", "properties": { "PERMIT ID": "19-134327 HO", "DATE OF ISSUE": "20/8/2019", "DATE OF COMPLETION": "12/8/2020", "STATUS": 1, "ADDRESS": "66 Morier AVE " }, "geometry": { "type": "Point", "coordinates": [ -97.10740547, 49.87068879 ] } },
{ "type": "Feature", "properties": { "PERMIT ID": "19-138878 HO", "DATE OF ISSUE": "3/7/2019", "DATE OF COMPLETION": "6/6/2023", "STATUS": 1, "ADDRESS": "454 Centennial ST " }, "geometry": { "type": "Point", "coordinates": [ -97.20071284, 49.86576682 ] } },
{ "type": "Feature", "properties": { "PERMIT ID": "19-140287 HO", "DATE OF ISSUE": "6/8/2019", "DATE OF COMPLETION": "15/6/2020", "STATUS": 1, "ADDRESS": "1835 William AVE W" }, "geometry": { "type": "Point", "coordinates": [ -97.19722843, 49.91806168 ] } },
{ "type": "Feature", "properties": { "PERMIT ID": "19-140298 HO", "DATE OF ISSUE": "6/8/2019", "DATE OF COMPLETION": "15/6/2020", "STATUS": 1, "ADDRESS": "1837 William AVE W" }, "geometry": { "type": "Point", "coordinates": [ -97.19730381, 49.91808508 ] } },
{ "type": "Feature", "properties": { "PERMIT ID": "19-140527 HO", "DATE OF ISSUE": "3/9/2019", "DATE OF COMPLETION": "21/4/2022", "STATUS": 1, "ADDRESS": "367 Royal AVE " }, "geometry": { "type": "Point", "coordinates": [ -97.12293763, 49.94293887 ] } },
{ "type": "Feature", "properties": { "PERMIT ID": "19-141416 HO", "DATE OF ISSUE": "3/12/2019", "DATE OF COMPLETION": "28/5/2021", "STATUS": 1, "ADDRESS": "837 Jubilee AVE " }, "geometry": { "type": "Point", "coordinates": [ -97.14642262, 49.85449238 ] } },
{ "type": "Feature", "properties": { "PERMIT ID": "19-141419 HO", "DATE OF ISSUE": "3/12/2019", "DATE OF COMPLETION": "6/10/2020", "STATUS": 1, "ADDRESS": "839 Jubilee AVE " }, "geometry": { "type": "Point", "coordinates": [ -97.14651005, 49.85445365 ] } },
{ "type": "Feature", "properties": { "PERMIT ID": "19-142111 HO", "DATE OF ISSUE": "5/7/2019", "DATE OF COMPLETION": "1/12/2020", "STATUS": 1, "ADDRESS": "35 Tulane BAY " }, "geometry": { "type": "Point", "coordinates": [ -97.14349372, 49.80136982 ] } },
{ "type": "Feature", "properties": { "PERMIT ID": "19-142675 HO", "DATE OF ISSUE": "12/11/2019", "DATE OF COMPLETION": "26/1/2022", "STATUS": 1, "ADDRESS": "87 Grassy Lake DR " }, "geometry": { "type": "Point", "coordinates": [ -97.18838892, 49.78460937 ] } },
{ "type": "Feature", "properties": { "PERMIT ID": "19-144583 HO", "DATE OF ISSUE": "16/7/2019", "DATE OF COMPLETION": "2/7/2020", "STATUS": 1, "ADDRESS": "66 Malwa COVE " }, "geometry": { "type": "Point", "coordinates": [ -97.20260572, 49.95868646 ] } },
{ "type": "Feature", "properties": { "PERMIT ID": "19-149790 HO", "DATE OF ISSUE": "1/10/2019", "DATE OF COMPLETION": "14/2/2020", "STATUS": 1, "ADDRESS": "133 Bartlet AVE " }, "geometry": { "type": "Point", "coordinates": [ -97.1236297, 49.86817722 ] } },
{ "type": "Feature", "properties": { "PERMIT ID": "19-152830 HO", "DATE OF ISSUE": "24/9/2019", "DATE OF COMPLETION": "18/9/2020", "STATUS": 1, "ADDRESS": "61 Sunset BLVD " }, "geometry": { "type": "Point", "coordinates": [ -97.11585082, 49.85439629 ] } },
{ "type": "Feature", "properties": { "PERMIT ID": "19-154967 HO", "DATE OF ISSUE": "22/7/2019", "DATE OF COMPLETION": "21/7/2022", "STATUS": 1, "ADDRESS": "31 Agnes Arnold PL " }, "geometry": { "type": "Point", "coordinates": [ -97.17680407, 49.96042794 ] } },
{ "type": "Feature", "properties": { "PERMIT ID": "19-162393 HO", "DATE OF ISSUE": "27/2/2020", "DATE OF COMPLETION": "5/1/2023", "STATUS": 1, "ADDRESS": "1059 Dudley AVE " }, "geometry": { "type": "Point", "coordinates": [ -97.16536558, 49.86156858 ] } },
{ "type": "Feature", "properties": { "PERMIT ID": "19-162916 HO", "DATE OF ISSUE": "2/12/2019", "DATE OF COMPLETION": "8/1/2021", "STATUS": 1, "ADDRESS": "80 Guay AVE " }, "geometry": { "type": "Point", "coordinates": [ -97.10721819, 49.87159151 ] } },
{ "type": "Feature", "properties": { "PERMIT ID": "19-162921 HO", "DATE OF ISSUE": "2/12/2019", "DATE OF COMPLETION": "7/4/2021", "STATUS": 1, "ADDRESS": "82 Guay AVE " }, "geometry": { "type": "Point", "coordinates": [ -97.107122, 49.8716241 ] } },
{ "type": "Feature", "properties": { "PERMIT ID": "19-166058 HO", "DATE OF ISSUE": "2/10/2019", "DATE OF COMPLETION": "24/2/2021", "STATUS": 1, "ADDRESS": "74 Humboldt AVE " }, "geometry": { "type": "Point", "coordinates": [ -97.104096, 49.86167317 ] } },
{ "type": "Feature", "properties": { "PERMIT ID": "19-166635 HO", "DATE OF ISSUE": "11/9/2019", "DATE OF COMPLETION": "13/8/2020", "STATUS": 1, "ADDRESS": "371 Dubuc ST " }, "geometry": { "type": "Point", "coordinates": [ -97.10962017, 49.87775543 ] } },
{ "type": "Feature", "properties": { "PERMIT ID": "19-167962 HO", "DATE OF ISSUE": "4/5/2020", "DATE OF COMPLETION": "4/8/2021", "STATUS": 1, "ADDRESS": "421 Rosedale AVE " }, "geometry": { "type": "Point", "coordinates": [ -97.1366227, 49.85894373 ] } },
{ "type": "Feature", "properties": { "PERMIT ID": "19-168256 HO", "DATE OF ISSUE": "1/4/2020", "DATE OF COMPLETION": "12/11/2021", "STATUS": 1, "ADDRESS": "18 Havelock AVE " }, "geometry": { "type": "Point", "coordinates": [ -97.11112947, 49.84490946 ] } },
{ "type": "Feature", "properties": { "PERMIT ID": "19-169106 HO", "DATE OF ISSUE": "30/8/2019", "DATE OF COMPLETION": "30/10/2019", "STATUS": 1, "ADDRESS": "15 Polydore RD " }, "geometry": { "type": "Point", "coordinates": [ -97.09464868, 49.82184956 ] } },
{ "type": "Feature", "properties": { "PERMIT ID": "19-173673 HO", "DATE OF ISSUE": "30/9/2019", "DATE OF COMPLETION": "19/9/2022", "STATUS": 1, "ADDRESS": "111 Guay AVE " }, "geometry": { "type": "Point", "coordinates": [ -97.10609999, 49.87242207 ] } },
{ "type": "Feature", "properties": { "PERMIT ID": "19-173776 HO", "DATE OF ISSUE": "30/9/2019", "DATE OF COMPLETION": "26/8/2022", "STATUS": 1, "ADDRESS": "115 Guay AVE " }, "geometry": { "type": "Point", "coordinates": [ -97.1060177, 49.87245249 ] } },
{ "type": "Feature", "properties": { "PERMIT ID": "19-174128 HO", "DATE OF ISSUE": "29/8/2019", "DATE OF COMPLETION": "12/3/2021", "STATUS": 1, "ADDRESS": "22 Harrowby AVE " }, "geometry": { "type": "Point", "coordinates": [ -97.10940662, 49.8657993 ] } },
{ "type": "Feature", "properties": { "PERMIT ID": "19-174242 HO", "DATE OF ISSUE": "29/8/2019", "DATE OF COMPLETION": "12/3/2021", "STATUS": 1, "ADDRESS": "20 Harrowby AVE " }, "geometry": { "type": "Point", "coordinates": [ -97.10949619, 49.86577058 ] } },
{ "type": "Feature", "properties": { "PERMIT ID": "19-174503 HO", "DATE OF ISSUE": "9/10/2019", "DATE OF COMPLETION": "27/10/2020", "STATUS": 1, "ADDRESS": "452 Rosedale AVE " }, "geometry": { "type": "Point", "coordinates": [ -97.13785816, 49.85794293 ] } },
{ "type": "Feature", "properties": { "PERMIT ID": "19-174754 HO", "DATE OF ISSUE": "23/9/2019", "DATE OF COMPLETION": "13/7/2021", "STATUS": 1, "ADDRESS": "67 Lansdowne AVE " }, "geometry": { "type": "Point", "coordinates": [ -97.11659328, 49.92628248 ] } },
{ "type": "Feature", "properties": { "PERMIT ID": "19-177286 HO", "DATE OF ISSUE": "17/9/2019", "DATE OF COMPLETION": "8/7/2020", "STATUS": 1, "ADDRESS": "577 Linden AVE " }, "geometry": { "type": "Point", "coordinates": [ -97.08439638, 49.92595023 ] } },
{ "type": "Feature", "properties": { "PERMIT ID": "19-177288 HO", "DATE OF ISSUE": "23/9/2019", "DATE OF COMPLETION": "12/2/2021", "STATUS": 1, "ADDRESS": "42 Nihal BAY " }, "geometry": { "type": "Point", "coordinates": [ -97.1831196, 49.96342517 ] } },
{ "type": "Feature", "properties": { "PERMIT ID": "19-177900 HO", "DATE OF ISSUE": "22/10/2019", "DATE OF COMPLETION": "10/8/2022", "STATUS": 1, "ADDRESS": "31 Crystal AVE " }, "geometry": { "type": "Point", "coordinates": [ -97.11027822, 49.85617944 ] } },
{ "type": "Feature", "properties": { "PERMIT ID": "19-180006 HO", "DATE OF ISSUE": "14/4/2020", "DATE OF COMPLETION": "22/6/2022", "STATUS": 1, "ADDRESS": "437 Ferry RD " }, "geometry": { "type": "Point", "coordinates": [ -97.21783277, 49.88748722 ] } },
{ "type": "Feature", "properties": { "PERMIT ID": "19-180013 HO", "DATE OF ISSUE": "14/4/2020", "DATE OF COMPLETION": "14/7/2022", "STATUS": 1, "ADDRESS": "439 Ferry RD " }, "geometry": { "type": "Point", "coordinates": [ -97.21782902, 49.88755375 ] } },
{ "type": "Feature", "properties": { "PERMIT ID": "19-180087 HO", "DATE OF ISSUE": "23/10/2019", "DATE OF COMPLETION": "1/6/2020", "STATUS": 1, "ADDRESS": "665 Talbot AVE " }, "geometry": { "type": "Point", "coordinates": [ -97.09451355, 49.90517372 ] } },
{ "type": "Feature", "properties": { "PERMIT ID": "19-180540 HO", "DATE OF ISSUE": "7/11/2019", "DATE OF COMPLETION": null, "STATUS": 0, "ADDRESS": "189 Crestwood CRES " }, "geometry": { "type": "Point", "coordinates": [ -97.06698725, 49.85645018 ] } },
{ "type": "Feature", "properties": { "PERMIT ID": "19-181141 HO", "DATE OF ISSUE": "29/10/2019", "DATE OF COMPLETION": null, "STATUS": 0, "ADDRESS": "119 Pilgrim AVE " }, "geometry": { "type": "Point", "coordinates": [ -97.10246098, 49.86351512 ] } },
{ "type": "Feature", "properties": { "PERMIT ID": "19-181145 HO", "DATE OF ISSUE": "29/10/2019", "DATE OF COMPLETION": null, "STATUS": 0, "ADDRESS": "121 Pilgrim AVE " }, "geometry": { "type": "Point", "coordinates": [ -97.10236103, 49.86354016 ] } },
{ "type": "Feature", "properties": { "PERMIT ID": "19-182650 HO", "DATE OF ISSUE": "25/10/2019", "DATE OF COMPLETION": "17/11/2020", "STATUS": 1, "ADDRESS": "51 Atlantic AVE " }, "geometry": { "type": "Point", "coordinates": [ -97.11792833, 49.92320169 ] } },
{ "type": "Feature", "properties": { "PERMIT ID": "19-182826 HO", "DATE OF ISSUE": "17/3/2020", "DATE OF COMPLETION": "31/5/2021", "STATUS": 1, "ADDRESS": "481 Centennial ST " }, "geometry": { "type": "Point", "coordinates": [ -97.20144933, 49.86493364 ] } },
{ "type": "Feature", "properties": { "PERMIT ID": "19-182841 HO", "DATE OF ISSUE": "17/3/2020", "DATE OF COMPLETION": "2/9/2021", "STATUS": 1, "ADDRESS": "483 Centennial ST " }, "geometry": { "type": "Point", "coordinates": [ -97.20145278, 49.86488136 ] } },
{ "type": "Feature", "properties": { "PERMIT ID": "19-183322 HO", "DATE OF ISSUE": "15/11/2019", "DATE OF COMPLETION": "3/6/2021", "STATUS": 1, "ADDRESS": "462 Centennial ST " }, "geometry": { "type": "Point", "coordinates": [ -97.20083108, 49.86549523 ] } },
{ "type": "Feature", "properties": { "PERMIT ID": "19-183337 HO", "DATE OF ISSUE": "15/11/2019", "DATE OF COMPLETION": "3/6/2021", "STATUS": 1, "ADDRESS": "464 Centennial ST " }, "geometry": { "type": "Point", "coordinates": [ -97.20084356, 49.8654301 ] } },