{
"type": "FeatureCollection",
"name": "Calgary_ss",
"crs": { "type": "name", "properties": { "name": "urn:ogc:def:crs:OGC:1.3:CRS84" } },
"features": [
{ "type": "Feature", "properties": { "PERMIT ID": "BP2024-17038", "DATE OF ISSUE": "23/8/2024", "DATE OF COMPLETION": "", "STATUS": "0", "ADDRESS": "146 AMBLEHURST WY NW" }, "geometry": { "type": "Point", "coordinates": [ -114.115403, 51.183687121672207 ] } },
{ "type": "Feature", "properties": { "PERMIT ID": "BP2024-17023", "DATE OF ISSUE": "28/8/2024", "DATE OF COMPLETION": "", "STATUS": "0", "ADDRESS": "10 ALPINE BV SW" }, "geometry": { "type": "Point", "coordinates": [ -114.1447128, 50.920417333542616 ] } },
{ "type": "Feature", "properties": { "PERMIT ID": "BP2024-17099", "DATE OF ISSUE": "16/8/2024", "DATE OF COMPLETION": "", "STATUS": "0", "ADDRESS": "52 NOLANCREST CI NW" }, "geometry": { "type": "Point", "coordinates": [ -114.1727966, 51.175467424740333 ] } },
{ "type": "Feature", "properties": { "PERMIT ID": "BP2024-17186", "DATE OF ISSUE": "5/9/2024", "DATE OF COMPLETION": "", "STATUS": "0", "ADDRESS": "56 RANCHRIDGE DR NW" }, "geometry": { "type": "Point", "coordinates": [ -114.1837295, 51.12301903392266 ] } },
{ "type": "Feature", "properties": { "PERMIT ID": "BP2024-17148", "DATE OF ISSUE": "16/8/2024", "DATE OF COMPLETION": "", "STATUS": "0", "ADDRESS": "211 SADDLEBROOK CI NE" }, "geometry": { "type": "Point", "coordinates": [ -113.9282253, 51.135299769741884 ] } },
{ "type": "Feature", "properties": { "PERMIT ID": "BP2024-17137", "DATE OF ISSUE": "31/8/2024", "DATE OF COMPLETION": "", "STATUS": "0", "ADDRESS": "52 PRESTWICK BA SE" }, "geometry": { "type": "Point", "coordinates": [ -113.9616629, 50.92836561438402 ] } },
{ "type": "Feature", "properties": { "PERMIT ID": "BP2024-17263", "DATE OF ISSUE": "21/8/2024", "DATE OF COMPLETION": "", "STATUS": "0", "ADDRESS": "104 FALCHURCH CR NE" }, "geometry": { "type": "Point", "coordinates": [ -113.9463977, 51.102234048195044 ] } },
{ "type": "Feature", "properties": { "PERMIT ID": "BP2024-17327", "DATE OF ISSUE": "29/8/2024", "DATE OF COMPLETION": "", "STATUS": "0", "ADDRESS": "37 WESTLAND MR SW" }, "geometry": { "type": "Point", "coordinates": [ -114.2065058, 51.058835215960045 ] } },
{ "type": "Feature", "properties": { "PERMIT ID": "BP2024-16816", "DATE OF ISSUE": "19/8/2024", "DATE OF COMPLETION": "", "STATUS": "0", "ADDRESS": "39 ELMONT DR SW" }, "geometry": { "type": "Point", "coordinates": [ -114.1929509, 51.025497423369835 ] } },
{ "type": "Feature", "properties": { "PERMIT ID": "BP2024-17104", "DATE OF ISSUE": "20/8/2024", "DATE OF COMPLETION": "", "STATUS": "0", "ADDRESS": "139 GLOUCESTER CR SW" }, "geometry": { "type": "Point", "coordinates": [ -114.1442501, 51.018298293368844 ] } },
{ "type": "Feature", "properties": { "PERMIT ID": "BP2024-17020", "DATE OF ISSUE": "20/8/2024", "DATE OF COMPLETION": "", "STATUS": "0", "ADDRESS": "384 SILVERADO PLAINS CI SW" }, "geometry": { "type": "Point", "coordinates": [ -114.0828859, 50.878069428569979 ] } },
{ "type": "Feature", "properties": { "PERMIT ID": "BP2024-17399", "DATE OF ISSUE": "10/9/2024", "DATE OF COMPLETION": "", "STATUS": "0", "ADDRESS": "835 RUNDLESIDE DR NE" }, "geometry": { "type": "Point", "coordinates": [ -113.9651918, 51.079376226300305 ] } },
{ "type": "Feature", "properties": { "PERMIT ID": "BP2024-17019", "DATE OF ISSUE": "20/8/2024", "DATE OF COMPLETION": "", "STATUS": "0", "ADDRESS": "138 PANTEGO WY NW" }, "geometry": { "type": "Point", "coordinates": [ -114.0985398, 51.162622073864824 ] } },
{ "type": "Feature", "properties": { "PERMIT ID": "BP2024-17426", "DATE OF ISSUE": "21/8/2024", "DATE OF COMPLETION": "", "STATUS": "0", "ADDRESS": "706 REDSTONE DR NE" }, "geometry": { "type": "Point", "coordinates": [ -113.9479663, 51.16853117 ] } },
{ "type": "Feature", "properties": { "PERMIT ID": "BP2024-17655", "DATE OF ISSUE": "26/8/2024", "DATE OF COMPLETION": "", "STATUS": "0", "ADDRESS": "631 SAVANNA CR NE" }, "geometry": { "type": "Point", "coordinates": [ -113.9525995, 51.138831612485212 ] } },
{ "type": "Feature", "properties": { "PERMIT ID": "BP2024-17728", "DATE OF ISSUE": "27/8/2024", "DATE OF COMPLETION": "", "STATUS": "0", "ADDRESS": "3812 3 AV SW" }, "geometry": { "type": "Point", "coordinates": [ -114.1420685, 51.050669000206859 ] } },
{ "type": "Feature", "properties": { "PERMIT ID": "BP2024-17512", "DATE OF ISSUE": "29/8/2024", "DATE OF COMPLETION": "", "STATUS": "0", "ADDRESS": "1792 CORNERSTONE BV NE" }, "geometry": { "type": "Point", "coordinates": [ -113.9378637, 51.167564356401847 ] } },
{ "type": "Feature", "properties": { "PERMIT ID": "BP2024-17519", "DATE OF ISSUE": "27/8/2024", "DATE OF COMPLETION": "", "STATUS": "0", "ADDRESS": "33 PANATELLA RO NW" }, "geometry": { "type": "Point", "coordinates": [ -114.0748938, 51.171800568761512 ] } },
{ "type": "Feature", "properties": { "PERMIT ID": "BP2024-17624", "DATE OF ISSUE": "29/8/2024", "DATE OF COMPLETION": "", "STATUS": "0", "ADDRESS": "121 AMBLETON DR NW" }, "geometry": { "type": "Point", "coordinates": [ -114.1116811, 51.18599654530766 ] } },
{ "type": "Feature", "properties": { "PERMIT ID": "BP2024-17262", "DATE OF ISSUE": "22/8/2024", "DATE OF COMPLETION": "", "STATUS": "0", "ADDRESS": "355 TEMPLESIDE CI NE" }, "geometry": { "type": "Point", "coordinates": [ -113.9516153, 51.083943068873566 ] } },
{ "type": "Feature", "properties": { "PERMIT ID": "BP2024-17611", "DATE OF ISSUE": "29/8/2024", "DATE OF COMPLETION": "", "STATUS": "0", "ADDRESS": "20373 45 ST SE" }, "geometry": { "type": "Point", "coordinates": [ -113.9387244, 50.868501950367815 ] } },
{ "type": "Feature", "properties": { "PERMIT ID": "BP2024-17621", "DATE OF ISSUE": "11/9/2024", "DATE OF COMPLETION": "", "STATUS": "0", "ADDRESS": "607 TARALAKE WY NE" }, "geometry": { "type": "Point", "coordinates": [ -113.9263699, 51.123852415076982 ] } },
{ "type": "Feature", "properties": { "PERMIT ID": "BP2023-12420", "DATE OF ISSUE": "1/9/2023", "DATE OF COMPLETION": "23/8/2024", "STATUS": "1", "ADDRESS": "216 WALGROVE WY SE" }, "geometry": { "type": "Point", "coordinates": [ -114.0175057, 50.866161339112189 ] } },
{ "type": "Feature", "properties": { "PERMIT ID": "BP2024-18153", "DATE OF ISSUE": "28/8/2024", "DATE OF COMPLETION": "", "STATUS": "0", "ADDRESS": "119 KINCORA PT NW" }, "geometry": { "type": "Point", "coordinates": [ -114.1360611, 51.159693697004961 ] } },
{ "type": "Feature", "properties": { "PERMIT ID": "BP2024-17876", "DATE OF ISSUE": "7/9/2024", "DATE OF COMPLETION": "", "STATUS": "0", "ADDRESS": "5832 21 ST SW" }, "geometry": { "type": "Point", "coordinates": [ -114.1117178, 51.001929894157712 ] } },
{ "type": "Feature", "properties": { "PERMIT ID": "BP2024-17970", "DATE OF ISSUE": "4/9/2024", "DATE OF COMPLETION": "", "STATUS": "0", "ADDRESS": "257 AUBURN CREST WY SE" }, "geometry": { "type": "Point", "coordinates": [ -113.9438506, 50.888866858258325 ] } },
{ "type": "Feature", "properties": { "PERMIT ID": "BP2024-18322", "DATE OF ISSUE": "12/9/2024", "DATE OF COMPLETION": "", "STATUS": "0", "ADDRESS": "34 SAVOY LD SE" }, "geometry": { "type": "Point", "coordinates": [ -113.9139272, 50.882434279410255 ] } },
{ "type": "Feature", "properties": { "PERMIT ID": "BP2024-17763", "DATE OF ISSUE": "26/8/2024", "DATE OF COMPLETION": "", "STATUS": "0", "ADDRESS": "156 LEGACY GLEN PL SE" }, "geometry": { "type": "Point", "coordinates": [ -113.9985628, 50.852111241206792 ] } },
{ "type": "Feature", "properties": { "PERMIT ID": "BP2024-17908", "DATE OF ISSUE": "27/8/2024", "DATE OF COMPLETION": "", "STATUS": "0", "ADDRESS": "72 HOWSE HT NE" }, "geometry": { "type": "Point", "coordinates": [ -114.0553404, 51.185906409378084 ] } },
{ "type": "Feature", "properties": { "PERMIT ID": "BP2023-19309", "DATE OF ISSUE": "27/8/2024", "DATE OF COMPLETION": "", "STATUS": "0", "ADDRESS": "85 ROYAL RIDGE MT NW" }, "geometry": { "type": "Point", "coordinates": [ -114.2269117, 51.140931437029053 ] } },
{ "type": "Feature", "properties": { "PERMIT ID": "BP2024-18152", "DATE OF ISSUE": "5/9/2024", "DATE OF COMPLETION": "", "STATUS": "0", "ADDRESS": "5015 WAVERLEY DR SW" }, "geometry": { "type": "Point", "coordinates": [ -114.1584474, 51.050243334799347 ] } },
{ "type": "Feature", "properties": { "PERMIT ID": "BP2024-17845", "DATE OF ISSUE": "28/8/2024", "DATE OF COMPLETION": "", "STATUS": "0", "ADDRESS": "72 PANAMOUNT CM NW" }, "geometry": { "type": "Point", "coordinates": [ -114.0940188, 51.157672548736095 ] } },
{ "type": "Feature", "properties": { "PERMIT ID": "BP2024-17971", "DATE OF ISSUE": "30/8/2024", "DATE OF COMPLETION": "", "STATUS": "0", "ADDRESS": "12 YORKVILLE LD SW" }, "geometry": { "type": "Point", "coordinates": [ -114.0765827, 50.873369988133668 ] } },
{ "type": "Feature", "properties": { "PERMIT ID": "BP2024-18308", "DATE OF ISSUE": "30/8/2024", "DATE OF COMPLETION": "", "STATUS": "0", "ADDRESS": "8 BERKLEY RI NW" }, "geometry": { "type": "Point", "coordinates": [ -114.077172, 51.126760176257207 ] } },
{ "type": "Feature", "properties": { "PERMIT ID": "BP2024-18347", "DATE OF ISSUE": "3/9/2024", "DATE OF COMPLETION": "", "STATUS": "0", "ADDRESS": "248 CORNER GLEN AV NE" }, "geometry": { "type": "Point", "coordinates": [ -113.9360823, 51.16812075 ] } },
{ "type": "Feature", "properties": { "PERMIT ID": "BP2024-18335", "DATE OF ISSUE": "3/9/2024", "DATE OF COMPLETION": "", "STATUS": "0", "ADDRESS": "212 SAVANNA TC NE" }, "geometry": { "type": "Point", "coordinates": [ -113.9512193, 51.137900622555456 ] } },
{ "type": "Feature", "properties": { "PERMIT ID": "BP2024-18515", "DATE OF ISSUE": "3/9/2024", "DATE OF COMPLETION": "", "STATUS": "0", "ADDRESS": "1235 CORNERSTONE WY NE" }, "geometry": { "type": "Point", "coordinates": [ -113.9250674, 51.149222654648071 ] } },
{ "type": "Feature", "properties": { "PERMIT ID": "BP2020-14217", "DATE OF ISSUE": "2/10/2020", "DATE OF COMPLETION": "3/9/2024", "STATUS": "1", "ADDRESS": "4724 21 ST SW" }, "geometry": { "type": "Point", "coordinates": [ -114.1121233, 51.011524934703147 ] } },
{ "type": "Feature", "properties": { "PERMIT ID": "BP2024-18330", "DATE OF ISSUE": "3/9/2024", "DATE OF COMPLETION": "", "STATUS": "0", "ADDRESS": "216 SAVANNA TC NE" }, "geometry": { "type": "Point", "coordinates": [ -113.951233, 51.137959060588621 ] } },
{ "type": "Feature", "properties": { "PERMIT ID": "BP2024-18500", "DATE OF ISSUE": "12/9/2024", "DATE OF COMPLETION": "", "STATUS": "0", "ADDRESS": "560 LEGACY CI SE" }, "geometry": { "type": "Point", "coordinates": [ -113.9995473, 50.851553867215969 ] } },
{ "type": "Feature", "properties": { "PERMIT ID": "BP2024-18512", "DATE OF ISSUE": "3/9/2024", "DATE OF COMPLETION": "", "STATUS": "0", "ADDRESS": "1231 CORNERSTONE WY NE" }, "geometry": { "type": "Point", "coordinates": [ -113.9250823, 51.149299075543354 ] } },
{ "type": "Feature", "properties": { "PERMIT ID": "BP2023-13260", "DATE OF ISSUE": "5/9/2023", "DATE OF COMPLETION": "6/9/2024", "STATUS": "1", "ADDRESS": "11 MAHOGANY CA SE" }, "geometry": { "type": "Point", "coordinates": [ -113.9311974, 50.896775754906351 ] } },
{ "type": "Feature", "properties": { "PERMIT ID": "BP2024-18607", "DATE OF ISSUE": "6/9/2024", "DATE OF COMPLETION": "", "STATUS": "0", "ADDRESS": "206 PANAMOUNT CO NW" }, "geometry": { "type": "Point", "coordinates": [ -114.0793342, 51.16015555781064 ] } },
{ "type": "Feature", "properties": { "PERMIT ID": "BP2024-18588", "DATE OF ISSUE": "6/9/2024", "DATE OF COMPLETION": "", "STATUS": "0", "ADDRESS": "28 NOLANCLIFF PL NW" }, "geometry": { "type": "Point", "coordinates": [ -114.1717221, 51.172794618146433 ] } },
{ "type": "Feature", "properties": { "PERMIT ID": "BP2024-00293", "DATE OF ISSUE": "23/1/2024", "DATE OF COMPLETION": "9/9/2024", "STATUS": "1", "ADDRESS": "788 SHAWNEE DR SW" }, "geometry": { "type": "Point", "coordinates": [ -114.0809846, 50.925989834252931 ] } },
{ "type": "Feature", "properties": { "PERMIT ID": "BP2024-18737", "DATE OF ISSUE": "10/9/2024", "DATE OF COMPLETION": "", "STATUS": "0", "ADDRESS": "114 RED SKY GR NE" }, "geometry": { "type": "Point", "coordinates": [ -113.9566444, 51.171029302380759 ] } },
{ "type": "Feature", "properties": { "PERMIT ID": "BP2024-19536", "DATE OF ISSUE": "16/9/2024", "DATE OF COMPLETION": "", "STATUS": "0", "ADDRESS": "167 BELVEDERE GR SE" }, "geometry": { "type": "Point", "coordinates": [ -113.9061431, 51.04195340393462 ] } },
{ "type": "Feature", "properties": { "PERMIT ID": "BP2024-19551", "DATE OF ISSUE": "16/9/2024", "DATE OF COMPLETION": "", "STATUS": "0", "ADDRESS": "1408 LIVINGSTON WY NE" }, "geometry": { "type": "Point", "coordinates": [ -114.0664018, 51.187833400448248 ] } },
{ "type": "Feature", "properties": { "PERMIT ID": "BP2023-21308", "DATE OF ISSUE": "15/12/2023", "DATE OF COMPLETION": "12/9/2024", "STATUS": "1", "ADDRESS": "1828 19 AV NW" }, "geometry": { "type": "Point", "coordinates": [ -114.1037162, 51.069750271261263 ] } },
{ "type": "Feature", "properties": { "PERMIT ID": "BP2024-18715", "DATE OF ISSUE": "11/9/2024", "DATE OF COMPLETION": "", "STATUS": "0", "ADDRESS": "5084 WHITESTONE WY NE" }, "geometry": { "type": "Point", "coordinates": [ -113.9599287, 51.083852784096877 ] } },
{ "type": "Feature", "properties": { "PERMIT ID": "BP2023-01961", "DATE OF ISSUE": "16/9/2024", "DATE OF COMPLETION": "", "STATUS": "0", "ADDRESS": "71 HOMESTEAD GV NE" }, "geometry": { "type": "Point", "coordinates": [ -113.9168228, 51.115056603045062 ] } },
{ "type": "Feature", "properties": { "PERMIT ID": "BP2024-19155", "DATE OF ISSUE": "13/9/2024", "DATE OF COMPLETION": "", "STATUS": "0", "ADDRESS": "205 LEGACY REACH CR SE" }, "geometry": { "type": "Point", "coordinates": [ -113.9954238, 50.855181255189734 ] } },
{ "type": "Feature", "properties": { "PERMIT ID": "BP2024-07350", "DATE OF ISSUE": "11/6/2024", "DATE OF COMPLETION": "12/9/2024", "STATUS": "1", "ADDRESS": "702 12A ST NE" }, "geometry": { "type": "Point", "coordinates": [ -114.0324658, 51.058073693454567 ] } },
{ "type": "Feature", "properties": { "PERMIT ID": "BP2023-09580", "DATE OF ISSUE": "13/9/2024", "DATE OF COMPLETION": "", "STATUS": "0", "ADDRESS": "265 HARVEST HILLS WY NE" }, "geometry": { "type": "Point", "coordinates": [ -114.0432817, 51.151270290961314 ] } },
{ "type": "Feature", "properties": { "PERMIT ID": "BP2023-21010", "DATE OF ISSUE": "18/12/2023", "DATE OF COMPLETION": "12/9/2024", "STATUS": "1", "ADDRESS": "1828 19 AV NW" }, "geometry": { "type": "Point", "coordinates": [ -114.1037162, 51.069750271261263 ] } },
{ "type": "Feature", "properties": { "PERMIT ID": "BP2023-00679", "DATE OF ISSUE": "16/9/2024", "DATE OF COMPLETION": "", "STATUS": "0", "ADDRESS": "92 AMBLESIDE CR NW" }, "geometry": { "type": "Point", "coordinates": [ -114.1095751, 51.183701714167256 ] } },
{ "type": "Feature", "properties": { "PERMIT ID": "BP2022-04664", "DATE OF ISSUE": "2/5/2022", "DATE OF COMPLETION": "2/8/2022", "STATUS": "1", "ADDRESS": "28 LUCAS RI NW" }, "geometry": { "type": "Point", "coordinates": [ -114.0756644, 51.189212162179665 ] } },
{ "type": "Feature", "properties": { "PERMIT ID": "BP2022-18034", "DATE OF ISSUE": "13/12/2022", "DATE OF COMPLETION": "", "STATUS": "0", "ADDRESS": "4704 14 ST NW" }, "geometry": { "type": "Point", "coordinates": [ -114.0944631, 51.094367357738747 ] } },
{ "type": "Feature", "properties": { "PERMIT ID": "BP2018-08596", "DATE OF ISSUE": "5/7/2018", "DATE OF COMPLETION": "7/2/2019", "STATUS": "1", "ADDRESS": "220 EVERGLEN WY SW" }, "geometry": { "type": "Point", "coordinates": [ -114.1261971, 50.909821695160339 ] } },
{ "type": "Feature", "properties": { "PERMIT ID": "BP2022-20010", "DATE OF ISSUE": "1/2/2023", "DATE OF COMPLETION": "7/12/2023", "STATUS": "1", "ADDRESS": "72 SAGE HILL WY NW" }, "geometry": { "type": "Point", "coordinates": [ -114.1441171, 51.178370153491286 ] } },
{ "type": "Feature", "properties": { "PERMIT ID": "BP2020-16255", "DATE OF ISSUE": "5/11/2020", "DATE OF COMPLETION": "24/11/2020", "STATUS": "1", "ADDRESS": "5008 MARSHALL RD NE" }, "geometry": { "type": "Point", "coordinates": [ -113.9638775, 51.057821978428976 ] } },
{ "type": "Feature", "properties": { "PERMIT ID": "BP2021-01810", "DATE OF ISSUE": "4/2/2021", "DATE OF COMPLETION": "19/2/2021", "STATUS": "1", "ADDRESS": "3910 12 AV SW" }, "geometry": { "type": "Point", "coordinates": [ -114.1427047, 51.042474817933119 ] } },
{ "type": "Feature", "properties": { "PERMIT ID": "BP2020-07471", "DATE OF ISSUE": "18/6/2020", "DATE OF COMPLETION": "24/8/2020", "STATUS": "1", "ADDRESS": "72 RED EMBERS PL NE" }, "geometry": { "type": "Point", "coordinates": [ -113.9493491, 51.170788148628681 ] } },
{ "type": "Feature", "properties": { "PERMIT ID": "BP2021-01379", "DATE OF ISSUE": "27/1/2021", "DATE OF COMPLETION": "12/4/2021", "STATUS": "1", "ADDRESS": "218 SCHILLER PL NW" }, "geometry": { "type": "Point", "coordinates": [ -114.2242102, 51.115716272553513 ] } },
{ "type": "Feature", "properties": { "PERMIT ID": "BP2023-09598", "DATE OF ISSUE": "18/8/2023", "DATE OF COMPLETION": "", "STATUS": "0", "ADDRESS": "600 30 AV NE" }, "geometry": { "type": "Point", "coordinates": [ -114.0503695, 51.07832563296315 ] } },
{ "type": "Feature", "properties": { "PERMIT ID": "BP2020-09745", "DATE OF ISSUE": "14/8/2020", "DATE OF COMPLETION": "15/12/2021", "STATUS": "1", "ADDRESS": "45 COPPERPOND AV SE" }, "geometry": { "type": "Point", "coordinates": [ -113.9164088, 50.916732778793133 ] } },
{ "type": "Feature", "properties": { "PERMIT ID": "BP2022-00588", "DATE OF ISSUE": "3/2/2022", "DATE OF COMPLETION": "18/8/2022", "STATUS": "1", "ADDRESS": "30 COPPERHEAD WY SE" }, "geometry": { "type": "Point", "coordinates": [ -113.9259916, 50.911062100484479 ] } },
{ "type": "Feature", "properties": { "PERMIT ID": "BP2022-10095", "DATE OF ISSUE": "22/6/2022", "DATE OF COMPLETION": "5/4/2023", "STATUS": "1", "ADDRESS": "3 SADDLEBROOK PL NE" }, "geometry": { "type": "Point", "coordinates": [ -113.9326893, 51.137271144790176 ] } },
{ "type": "Feature", "properties": { "PERMIT ID": "BP2022-18157", "DATE OF ISSUE": "14/11/2022", "DATE OF COMPLETION": "2/5/2023", "STATUS": "1", "ADDRESS": "336 COPPERHEAD WY SE" }, "geometry": { "type": "Point", "coordinates": [ -113.9236617, 50.912584395351814 ] } },
{ "type": "Feature", "properties": { "PERMIT ID": "BP2021-07677", "DATE OF ISSUE": "17/5/2021", "DATE OF COMPLETION": "", "STATUS": "0", "ADDRESS": "1102 17 AV NW" }, "geometry": { "type": "Point", "coordinates": [ -114.0851879, 51.067971796780249 ] } },
{ "type": "Feature", "properties": { "PERMIT ID": "BP2021-05361", "DATE OF ISSUE": "16/4/2021", "DATE OF COMPLETION": "8/11/2021", "STATUS": "1", "ADDRESS": "4633 82 ST NW" }, "geometry": { "type": "Point", "coordinates": [ -114.206809, 51.093161837731991 ] } },
{ "type": "Feature", "properties": { "PERMIT ID": "BP2018-16655", "DATE OF ISSUE": "10/1/2019", "DATE OF COMPLETION": "12/2/2019", "STATUS": "1", "ADDRESS": "112 MARTINDALE CL NE" }, "geometry": { "type": "Point", "coordinates": [ -113.954124, 51.111827434899467 ] } },
{ "type": "Feature", "properties": { "PERMIT ID": "BP2023-10240", "DATE OF ISSUE": "4/7/2023", "DATE OF COMPLETION": "20/10/2023", "STATUS": "1", "ADDRESS": "77 CITYLINE SQ NE" }, "geometry": { "type": "Point", "coordinates": [ -113.9480421, 51.144699874964054 ] } },
{ "type": "Feature", "properties": { "PERMIT ID": "BP2022-08462", "DATE OF ISSUE": "28/6/2022", "DATE OF COMPLETION": "15/5/2023", "STATUS": "1", "ADDRESS": "318 28 AV NE" }, "geometry": { "type": "Point", "coordinates": [ -114.056414, 51.07795879032107 ] } },
{ "type": "Feature", "properties": { "PERMIT ID": "BP2022-13274", "DATE OF ISSUE": "12/8/2022", "DATE OF COMPLETION": "27/10/2022", "STATUS": "1", "ADDRESS": "50 BELMONT CR SW" }, "geometry": { "type": "Point", "coordinates": [ -114.0639254, 50.868855634500171 ] } },
{ "type": "Feature", "properties": { "PERMIT ID": "BP2019-16882", "DATE OF ISSUE": "18/2/2020", "DATE OF COMPLETION": "17/3/2020", "STATUS": "1", "ADDRESS": "18 HARVEST OAK CR NE" }, "geometry": { "type": "Point", "coordinates": [ -114.0634727, 51.152901772628788 ] } },
{ "type": "Feature", "properties": { "PERMIT ID": "BP2019-15895", "DATE OF ISSUE": "26/11/2019", "DATE OF COMPLETION": "4/6/2020", "STATUS": "1", "ADDRESS": "143 SETON GD SE" }, "geometry": { "type": "Point", "coordinates": [ -113.9548447, 50.866621397981895 ] } },
{ "type": "Feature", "properties": { "PERMIT ID": "BP2020-00486", "DATE OF ISSUE": "6/2/2020", "DATE OF COMPLETION": "22/4/2020", "STATUS": "1", "ADDRESS": "2319 19 ST NW" }, "geometry": { "type": "Point", "coordinates": [ -114.1064567, 51.072741376264872 ] } },
{ "type": "Feature", "properties": { "PERMIT ID": "BP2019-11261", "DATE OF ISSUE": "20/8/2019", "DATE OF COMPLETION": "30/9/2019", "STATUS": "1", "ADDRESS": "804 78 AV NW" }, "geometry": { "type": "Point", "coordinates": [ -114.0787273, 51.122148664516523 ] } },
{ "type": "Feature", "properties": { "PERMIT ID": "BP2021-01406", "DATE OF ISSUE": "27/1/2021", "DATE OF COMPLETION": "", "STATUS": "0", "ADDRESS": "53 TARALAKE TC NE" }, "geometry": { "type": "Point", "coordinates": [ -113.9329443, 51.121917049159265 ] } },
{ "type": "Feature", "properties": { "PERMIT ID": "BP2019-08384", "DATE OF ISSUE": "11/7/2019", "DATE OF COMPLETION": "13/11/2019", "STATUS": "1", "ADDRESS": "87 SETON GD SE" }, "geometry": { "type": "Point", "coordinates": [ -113.9563327, 50.866747824283429 ] } },
{ "type": "Feature", "properties": { "PERMIT ID": "BP2021-18484", "DATE OF ISSUE": "4/11/2021", "DATE OF COMPLETION": "2/3/2022", "STATUS": "1", "ADDRESS": "221 CREEKSIDE DR SW" }, "geometry": { "type": "Point", "coordinates": [ -114.0783019, 50.859695041461869 ] } },
{ "type": "Feature", "properties": { "PERMIT ID": "BP2022-00992", "DATE OF ISSUE": "22/2/2022", "DATE OF COMPLETION": "2/6/2022", "STATUS": "1", "ADDRESS": "60 FYFFE RD SE" }, "geometry": { "type": "Point", "coordinates": [ -114.0569063, 50.984626288571384 ] } },
{ "type": "Feature", "properties": { "PERMIT ID": "BP2022-17389", "DATE OF ISSUE": "19/10/2022", "DATE OF COMPLETION": "27/3/2023", "STATUS": "1", "ADDRESS": "10 CORNER MEADOWS GV NE" }, "geometry": { "type": "Point", "coordinates": [ -113.9272494, 51.152383866110924 ] } },
{ "type": "Feature", "properties": { "PERMIT ID": "BP2017-00382", "DATE OF ISSUE": "19/1/2017", "DATE OF COMPLETION": "22/2/2017", "STATUS": "1", "ADDRESS": "177 SAGE BLUFF CL NW" }, "geometry": { "type": "Point", "coordinates": [ -114.1390249, 51.180200470701379 ] } },
{ "type": "Feature", "properties": { "PERMIT ID": "BP2020-12819", "DATE OF ISSUE": "11/9/2020", "DATE OF COMPLETION": "9/12/2020", "STATUS": "1", "ADDRESS": "2413 9 ST NW" }, "geometry": { "type": "Point", "coordinates": [ -114.0832277, 51.073779230018154 ] } },
{ "type": "Feature", "properties": { "PERMIT ID": "BP2023-09131", "DATE OF ISSUE": "16/6/2023", "DATE OF COMPLETION": "9/1/2024", "STATUS": "1", "ADDRESS": "335 CORNER MEADOWS AV NE" }, "geometry": { "type": "Point", "coordinates": [ -113.9299511, 51.149068363661371 ] } },
{ "type": "Feature", "properties": { "PERMIT ID": "BP2023-08672", "DATE OF ISSUE": "14/6/2023", "DATE OF COMPLETION": "17/11/2023", "STATUS": "1", "ADDRESS": "87 SAGE HILL LN NW" }, "geometry": { "type": "Point", "coordinates": [ -114.151223, 51.173011691013805 ] } },
{ "type": "Feature", "properties": { "PERMIT ID": "BP2020-05668", "DATE OF ISSUE": "12/5/2020", "DATE OF COMPLETION": "3/3/2021", "STATUS": "1", "ADDRESS": "2013 43 ST SE" }, "geometry": { "type": "Point", "coordinates": [ -113.9716161, 51.035753256573294 ] } },
{ "type": "Feature", "properties": { "PERMIT ID": "BP2019-09535", "DATE OF ISSUE": "22/7/2019", "DATE OF COMPLETION": "28/10/2019", "STATUS": "1", "ADDRESS": "15 CORNERBROOK GA NE" }, "geometry": { "type": "Point", "coordinates": [ -113.9339527, 51.154657708446535 ] } },
{ "type": "Feature", "properties": { "PERMIT ID": "BP2023-05977", "DATE OF ISSUE": "15/5/2023", "DATE OF COMPLETION": "8/9/2023", "STATUS": "1", "ADDRESS": "100 RED EMBERS SQ NE" }, "geometry": { "type": "Point", "coordinates": [ -113.9544195, 51.170174450504781 ] } },
{ "type": "Feature", "properties": { "PERMIT ID": "BP2023-19341", "DATE OF ISSUE": "29/11/2023", "DATE OF COMPLETION": "31/1/2024", "STATUS": "1", "ADDRESS": "780 CORNER MEADOWS WY NE" }, "geometry": { "type": "Point", "coordinates": [ -113.9246282, 51.15226984 ] } },
{ "type": "Feature", "properties": { "PERMIT ID": "BP2022-09773", "DATE OF ISSUE": "22/6/2022", "DATE OF COMPLETION": "13/7/2022", "STATUS": "1", "ADDRESS": "79 CORNERSTONE AV NE" }, "geometry": { "type": "Point", "coordinates": [ -113.9446157, 51.160794122341315 ] } },
{ "type": "Feature", "properties": { "PERMIT ID": "BP2022-16964", "DATE OF ISSUE": "18/10/2022", "DATE OF COMPLETION": "20/3/2023", "STATUS": "1", "ADDRESS": "544 CORNERSTONE AV NE" }, "geometry": { "type": "Point", "coordinates": [ -113.9341681, 51.161359546241883 ] } },
{ "type": "Feature", "properties": { "PERMIT ID": "BP2012-11960", "DATE OF ISSUE": "24/9/2012", "DATE OF COMPLETION": "25/10/2013", "STATUS": "1", "ADDRESS": "65 MARY DOVER DR SW" }, "geometry": { "type": "Point", "coordinates": [ -114.1298031, 51.017977137514244 ] } },
{ "type": "Feature", "properties": { "PERMIT ID": "BP2020-13322", "DATE OF ISSUE": "18/9/2020", "DATE OF COMPLETION": "22/1/2021", "STATUS": "1", "ADDRESS": "1707 39 ST SE" }, "geometry": { "type": "Point", "coordinates": [ -113.9773808, 51.03895331726833 ] } },
{ "type": "Feature", "properties": { "PERMIT ID": "BP2020-12572", "DATE OF ISSUE": "8/9/2020", "DATE OF COMPLETION": "17/11/2020", "STATUS": "1", "ADDRESS": "149 EDGEVIEW RD NW" }, "geometry": { "type": "Point", "coordinates": [ -114.1501239, 51.12851431155682 ] } },
{ "type": "Feature", "properties": { "PERMIT ID": "BP2020-13080", "DATE OF ISSUE": "22/9/2020", "DATE OF COMPLETION": "17/11/2023", "STATUS": "1", "ADDRESS": "21 EVANSFIELD GA NW" }, "geometry": { "type": "Point", "coordinates": [ -114.1150373, 51.18012314 ] } },
{ "type": "Feature", "properties": { "PERMIT ID": "BP2020-13927", "DATE OF ISSUE": "28/9/2020", "DATE OF COMPLETION": "19/10/2020", "STATUS": "1", "ADDRESS": "5928 MADIGAN DR NE" }, "geometry": { "type": "Point", "coordinates": [ -113.9416493, 51.063399030503881 ] } },
{ "type": "Feature", "properties": { "PERMIT ID": "BP2020-02296", "DATE OF ISSUE": "5/3/2020", "DATE OF COMPLETION": "24/8/2020", "STATUS": "1", "ADDRESS": "91 SAGE BLUFF MR NW" }, "geometry": { "type": "Point", "coordinates": [ -114.1401842, 51.177030277454051 ] } },
{ "type": "Feature", "properties": { "PERMIT ID": "BP2023-11356", "DATE OF ISSUE": "21/9/2023", "DATE OF COMPLETION": "2/10/2023", "STATUS": "1", "ADDRESS": "171 RED SKY CR NE" }, "geometry": { "type": "Point", "coordinates": [ -113.9538384, 51.174340872820387 ] } },
{ "type": "Feature", "properties": { "PERMIT ID": "BP2020-16986", "DATE OF ISSUE": "3/12/2020", "DATE OF COMPLETION": "23/12/2020", "STATUS": "1", "ADDRESS": "6904 5 ST NW" }, "geometry": { "type": "Point", "coordinates": [ -114.0727042, 51.114339073200881 ] } },
{ "type": "Feature", "properties": { "PERMIT ID": "BP2020-07713", "DATE OF ISSUE": "16/6/2020", "DATE OF COMPLETION": "19/11/2020", "STATUS": "1", "ADDRESS": "1627 26 AV SW" }, "geometry": { "type": "Point", "coordinates": [ -114.0987617, 51.030325616685587 ] } },
{ "type": "Feature", "properties": { "PERMIT ID": "BP2020-18592", "DATE OF ISSUE": "6/1/2021", "DATE OF COMPLETION": "10/9/2021", "STATUS": "1", "ADDRESS": "143 MCHUGH RD NE" }, "geometry": { "type": "Point", "coordinates": [ -114.002507, 51.06224378 ] } },
{ "type": "Feature", "properties": { "PERMIT ID": "BP2023-15849", "DATE OF ISSUE": "2/10/2023", "DATE OF COMPLETION": "11/1/2024", "STATUS": "1", "ADDRESS": "79 CARRINGWOOD MR NW" }, "geometry": { "type": "Point", "coordinates": [ -114.093985, 51.187944843749378 ] } },
{ "type": "Feature", "properties": { "PERMIT ID": "BP2022-02238", "DATE OF ISSUE": "29/3/2022", "DATE OF COMPLETION": "1/6/2022", "STATUS": "1", "ADDRESS": "112 WALCREST VW SE" }, "geometry": { "type": "Point", "coordinates": [ -114.0079171, 50.865191462228104 ] } },
{ "type": "Feature", "properties": { "PERMIT ID": "BP2022-11096", "DATE OF ISSUE": "7/9/2022", "DATE OF COMPLETION": "20/4/2023", "STATUS": "1", "ADDRESS": "25 SADDLESTONE DR NE" }, "geometry": { "type": "Point", "coordinates": [ -113.9284783, 51.12884988714535 ] } },
{ "type": "Feature", "properties": { "PERMIT ID": "BP2018-13912", "DATE OF ISSUE": "26/10/2018", "DATE OF COMPLETION": "18/1/2019", "STATUS": "1", "ADDRESS": "139 SETON RI SE" }, "geometry": { "type": "Point", "coordinates": [ -113.9598673, 50.86737839 ] } },
{ "type": "Feature", "properties": { "PERMIT ID": "BP2017-02507", "DATE OF ISSUE": "21/3/2017", "DATE OF COMPLETION": "28/3/2017", "STATUS": "1", "ADDRESS": "423 31 AV NW" }, "geometry": { "type": "Point", "coordinates": [ -114.0688144, 51.080409900766526 ] } },
{ "type": "Feature", "properties": { "PERMIT ID": "BP2022-20534", "DATE OF ISSUE": "4/1/2023", "DATE OF COMPLETION": "14/4/2023", "STATUS": "1", "ADDRESS": "84 CORNERSTONE GR NE" }, "geometry": { "type": "Point", "coordinates": [ -113.9355203, 51.157274545676053 ] } },
{ "type": "Feature", "properties": { "PERMIT ID": "BP2017-04358", "DATE OF ISSUE": "18/5/2017", "DATE OF COMPLETION": "20/11/2017", "STATUS": "1", "ADDRESS": "383 EVANSGLEN DR NW" }, "geometry": { "type": "Point", "coordinates": [ -114.0982039, 51.179136142877233 ] } },
{ "type": "Feature", "properties": { "PERMIT ID": "BP2018-08326", "DATE OF ISSUE": "4/7/2018", "DATE OF COMPLETION": "13/12/2018", "STATUS": "1", "ADDRESS": "92 SETON TC SE" }, "geometry": { "type": "Point", "coordinates": [ -113.9587434, 50.869234438203677 ] } },
{ "type": "Feature", "properties": { "PERMIT ID": "BP2018-06176", "DATE OF ISSUE": "30/5/2018", "DATE OF COMPLETION": "30/8/2018", "STATUS": "1", "ADDRESS": "4520 BRISEBOIS DR NW" }, "geometry": { "type": "Point", "coordinates": [ -114.127834, 51.093799105007619 ] } },
{ "type": "Feature", "properties": { "PERMIT ID": "BP2021-07002", "DATE OF ISSUE": "5/5/2021", "DATE OF COMPLETION": "15/11/2021", "STATUS": "1", "ADDRESS": "615 SHERMAN AV SW" }, "geometry": { "type": "Point", "coordinates": [ -114.0791259, 50.962112398975961 ] } },
{ "type": "Feature", "properties": { "PERMIT ID": "BP2023-14751", "DATE OF ISSUE": "1/9/2023", "DATE OF COMPLETION": "23/11/2023", "STATUS": "1", "ADDRESS": "253 AMBLETON DR NW" }, "geometry": { "type": "Point", "coordinates": [ -114.1151604, 51.18598868 ] } },
{ "type": "Feature", "properties": { "PERMIT ID": "BP2020-18886", "DATE OF ISSUE": "11/1/2021", "DATE OF COMPLETION": "", "STATUS": "0", "ADDRESS": "128 SADDLEBROOK CM NE" }, "geometry": { "type": "Point", "coordinates": [ -113.9303978, 51.136532657094612 ] } },
{ "type": "Feature", "properties": { "PERMIT ID": "BP2023-19558", "DATE OF ISSUE": "7/12/2023", "DATE OF COMPLETION": "", "STATUS": "0", "ADDRESS": "84 COVECREEK ME NE" }, "geometry": { "type": "Point", "coordinates": [ -114.0487269, 51.173589206462928 ] } },
{ "type": "Feature", "properties": { "PERMIT ID": "BP2023-20319", "DATE OF ISSUE": "4/12/2023", "DATE OF COMPLETION": "", "STATUS": "0", "ADDRESS": "204 LUCAS MR NW" }, "geometry": { "type": "Point", "coordinates": [ -114.0737683, 51.185932200434657 ] } },
{ "type": "Feature", "properties": { "PERMIT ID": "BP2020-00481", "DATE OF ISSUE": "22/1/2020", "DATE OF COMPLETION": "11/5/2020", "STATUS": "1", "ADDRESS": "2141 1 AV NW" }, "geometry": { "type": "Point", "coordinates": [ -114.1102182, 51.053342594955353 ] } },
{ "type": "Feature", "properties": { "PERMIT ID": "BP2020-16829", "DATE OF ISSUE": "18/11/2020", "DATE OF COMPLETION": "9/3/2021", "STATUS": "1", "ADDRESS": "47 CARRINGSBY AV NW" }, "geometry": { "type": "Point", "coordinates": [ -114.0887429, 51.179530251051347 ] } },
{ "type": "Feature", "properties": { "PERMIT ID": "BP2023-07967", "DATE OF ISSUE": "10/7/2023", "DATE OF COMPLETION": "", "STATUS": "0", "ADDRESS": "115 HOWSE LN NE" }, "geometry": { "type": "Point", "coordinates": [ -114.068812, 51.188263504445842 ] } },
{ "type": "Feature", "properties": { "PERMIT ID": "BP2022-04057", "DATE OF ISSUE": "20/4/2022", "DATE OF COMPLETION": "6/2/2024", "STATUS": "1", "ADDRESS": "1118 COPPERFIELD BV SE" }, "geometry": { "type": "Point", "coordinates": [ -113.9274011, 50.911314703724088 ] } },
{ "type": "Feature", "properties": { "PERMIT ID": "BP2022-14512", "DATE OF ISSUE": "8/9/2022", "DATE OF COMPLETION": "7/12/2022", "STATUS": "1", "ADDRESS": "177 SKYVIEW RANCH DR NE" }, "geometry": { "type": "Point", "coordinates": [ -113.9622807, 51.16075171 ] } },
{ "type": "Feature", "properties": { "PERMIT ID": "BP2022-12361", "DATE OF ISSUE": "25/7/2022", "DATE OF COMPLETION": "1/6/2023", "STATUS": "1", "ADDRESS": "168 LUCAS WY NW" }, "geometry": { "type": "Point", "coordinates": [ -114.0809353, 51.186570212821245 ] } },
{ "type": "Feature", "properties": { "PERMIT ID": "BP2021-09559", "DATE OF ISSUE": "1/6/2021", "DATE OF COMPLETION": "8/6/2021", "STATUS": "1", "ADDRESS": "115 41 AV NW" }, "geometry": { "type": "Point", "coordinates": [ -114.0634043, 51.089515928803827 ] } },
{ "type": "Feature", "properties": { "PERMIT ID": "BP2018-08187", "DATE OF ISSUE": "26/6/2018", "DATE OF COMPLETION": "15/8/2019", "STATUS": "1", "ADDRESS": "302 CORNERSTONE MR NE" }, "geometry": { "type": "Point", "coordinates": [ -113.9364676, 51.161742873685412 ] } },
{ "type": "Feature", "properties": { "PERMIT ID": "BP2021-15475", "DATE OF ISSUE": "24/9/2021", "DATE OF COMPLETION": "7/3/2022", "STATUS": "1", "ADDRESS": "28 CARRINGSBY MR NW" }, "geometry": { "type": "Point", "coordinates": [ -114.0890761, 51.178033241418042 ] } },
{ "type": "Feature", "properties": { "PERMIT ID": "BP2019-02039", "DATE OF ISSUE": "29/3/2019", "DATE OF COMPLETION": "17/3/2020", "STATUS": "1", "ADDRESS": "120 DOUGLASDALE PT SE" }, "geometry": { "type": "Point", "coordinates": [ -113.9845715, 50.93388192 ] } },
{ "type": "Feature", "properties": { "PERMIT ID": "BP2021-01806", "DATE OF ISSUE": "30/3/2021", "DATE OF COMPLETION": "23/7/2021", "STATUS": "1", "ADDRESS": "355 TARACOVE ESTATE DR NE" }, "geometry": { "type": "Point", "coordinates": [ -113.9377418, 51.118251847626382 ] } },
{ "type": "Feature", "properties": { "PERMIT ID": "BP2020-15436", "DATE OF ISSUE": "22/10/2020", "DATE OF COMPLETION": "4/2/2022", "STATUS": "1", "ADDRESS": "5311 BUCKTHORN RD NW" }, "geometry": { "type": "Point", "coordinates": [ -114.0672051, 51.098313296945157 ] } },
{ "type": "Feature", "properties": { "PERMIT ID": "BP2018-11475", "DATE OF ISSUE": "31/8/2018", "DATE OF COMPLETION": "1/2/2019", "STATUS": "1", "ADDRESS": "14648 1 ST NE" }, "geometry": { "type": "Point", "coordinates": [ -114.0689459, 51.185656466408268 ] } },
{ "type": "Feature", "properties": { "PERMIT ID": "BP2020-09053", "DATE OF ISSUE": "4/11/2020", "DATE OF COMPLETION": "28/12/2020", "STATUS": "1", "ADDRESS": "14 SAVANNA WY NE" }, "geometry": { "type": "Point", "coordinates": [ -113.9676517, 51.135515090327857 ] } },
{ "type": "Feature", "properties": { "PERMIT ID": "BP2021-00733", "DATE OF ISSUE": "25/3/2021", "DATE OF COMPLETION": "29/3/2021", "STATUS": "1", "ADDRESS": "202 PANTEGO VW NW" }, "geometry": { "type": "Point", "coordinates": [ -114.0969261, 51.167620964376979 ] } },
{ "type": "Feature", "properties": { "PERMIT ID": "BP2021-00440", "DATE OF ISSUE": "11/1/2021", "DATE OF COMPLETION": "16/4/2021", "STATUS": "1", "ADDRESS": "52 ABINGDON CR NE" }, "geometry": { "type": "Point", "coordinates": [ -113.9278224, 51.064735271648829 ] } },
{ "type": "Feature", "properties": { "PERMIT ID": "BP2020-07055", "DATE OF ISSUE": "9/6/2020", "DATE OF COMPLETION": "15/9/2020", "STATUS": "1", "ADDRESS": "31 HOWSE RI NE" }, "geometry": { "type": "Point", "coordinates": [ -114.0592304, 51.183976253398548 ] } },
{ "type": "Feature", "properties": { "PERMIT ID": "BP2018-00747", "DATE OF ISSUE": "25/1/2018", "DATE OF COMPLETION": "20/2/2018", "STATUS": "1", "ADDRESS": "11 CORNERSTONE AV NE" }, "geometry": { "type": "Point", "coordinates": [ -113.9462706, 51.160781409806368 ] } },
{ "type": "Feature", "properties": { "PERMIT ID": "BP2022-08802", "DATE OF ISSUE": "26/5/2022", "DATE OF COMPLETION": "1/9/2022", "STATUS": "1", "ADDRESS": "68 HOWSE CR NE" }, "geometry": { "type": "Point", "coordinates": [ -114.0574201, 51.183869281580975 ] } },
{ "type": "Feature", "properties": { "PERMIT ID": "BP2022-09904", "DATE OF ISSUE": "27/6/2022", "DATE OF COMPLETION": "15/5/2023", "STATUS": "1", "ADDRESS": "1247 REGAL CR NE" }, "geometry": { "type": "Point", "coordinates": [ -114.0453967, 51.063157562063573 ] } },
{ "type": "Feature", "properties": { "PERMIT ID": "BP2016-04209", "DATE OF ISSUE": "4/5/2016", "DATE OF COMPLETION": "2/2/2017", "STATUS": "1", "ADDRESS": "1531 43 ST SE" }, "geometry": { "type": "Point", "coordinates": [ -113.9716235, 51.039861571374395 ] } },
{ "type": "Feature", "properties": { "PERMIT ID": "BP2016-02236", "DATE OF ISSUE": "29/3/2016", "DATE OF COMPLETION": "23/2/2017", "STATUS": "1", "ADDRESS": "163 BERNARD DR NW" }, "geometry": { "type": "Point", "coordinates": [ -114.0801568, 51.134660559103665 ] } },
{ "type": "Feature", "properties": { "PERMIT ID": "BP2023-21021", "DATE OF ISSUE": "19/12/2023", "DATE OF COMPLETION": "9/9/2024", "STATUS": "1", "ADDRESS": "116 BEACONSFIELD WY NW" }, "geometry": { "type": "Point", "coordinates": [ -114.1052099, 51.129883795765409 ] } },
{ "type": "Feature", "properties": { "PERMIT ID": "BP2021-03853", "DATE OF ISSUE": "23/3/2021", "DATE OF COMPLETION": "6/7/2021", "STATUS": "1", "ADDRESS": "30 CORNERBROOK MR NE" }, "geometry": { "type": "Point", "coordinates": [ -113.9343109, 51.16050562 ] } },
{ "type": "Feature", "properties": { "PERMIT ID": "BP2021-21020", "DATE OF ISSUE": "14/10/2022", "DATE OF COMPLETION": "23/2/2023", "STATUS": "1", "ADDRESS": "375 CORNER MEADOWS AV NE" }, "geometry": { "type": "Point", "coordinates": [ -113.9299511, 51.150052721808855 ] } },
{ "type": "Feature", "properties": { "PERMIT ID": "BP2021-01921", "DATE OF ISSUE": "16/2/2021", "DATE OF COMPLETION": "25/5/2021", "STATUS": "1", "ADDRESS": "2727 40 ST SW" }, "geometry": { "type": "Point", "coordinates": [ -114.1455747, 51.02946310643528 ] } },
{ "type": "Feature", "properties": { "PERMIT ID": "BP2020-00476", "DATE OF ISSUE": "1/4/2020", "DATE OF COMPLETION": "1/4/2020", "STATUS": "1", "ADDRESS": "3431 19 AV SW" }, "geometry": { "type": "Point", "coordinates": [ -114.1358715, 51.036149684919607 ] } },
{ "type": "Feature", "properties": { "PERMIT ID": "BP2019-11908", "DATE OF ISSUE": "23/10/2019", "DATE OF COMPLETION": "7/12/2020", "STATUS": "1", "ADDRESS": "1131 REGENT CR NE" }, "geometry": { "type": "Point", "coordinates": [ -114.0456338, 51.062489076154307 ] } },
{ "type": "Feature", "properties": { "PERMIT ID": "BP2020-00477", "DATE OF ISSUE": "1/4/2020", "DATE OF COMPLETION": "1/4/2020", "STATUS": "1", "ADDRESS": "3435 19 AV SW" }, "geometry": { "type": "Point", "coordinates": [ -114.1359801, 51.036149558593983 ] } },
{ "type": "Feature", "properties": { "PERMIT ID": "BP2023-04060", "DATE OF ISSUE": "27/9/2023", "DATE OF COMPLETION": "17/1/2024", "STATUS": "1", "ADDRESS": "159 CITYSIDE CO NE" }, "geometry": { "type": "Point", "coordinates": [ -113.9687875, 51.145403942796257 ] } },
{ "type": "Feature", "properties": { "PERMIT ID": "BP2020-07911", "DATE OF ISSUE": "18/6/2020", "DATE OF COMPLETION": "1/10/2020", "STATUS": "1", "ADDRESS": "3806 45 ST SW" }, "geometry": { "type": "Point", "coordinates": [ -114.1522834, 51.020369935778859 ] } },
{ "type": "Feature", "properties": { "PERMIT ID": "BP2021-13786", "DATE OF ISSUE": "19/8/2021", "DATE OF COMPLETION": "29/8/2022", "STATUS": "1", "ADDRESS": "1110 COPPERFIELD BV SE" }, "geometry": { "type": "Point", "coordinates": [ -113.9275813, 50.91120244137992 ] } },
{ "type": "Feature", "properties": { "PERMIT ID": "BP2021-17806", "DATE OF ISSUE": "21/10/2021", "DATE OF COMPLETION": "30/8/2022", "STATUS": "1", "ADDRESS": "118 CORNER MEADOWS RO NE" }, "geometry": { "type": "Point", "coordinates": [ -113.9260011, 51.148059099207536 ] } },
{ "type": "Feature", "properties": { "PERMIT ID": "BP2017-15713", "DATE OF ISSUE": "4/12/2017", "DATE OF COMPLETION": "8/6/2018", "STATUS": "1", "ADDRESS": "28 HOWSE ST NE" }, "geometry": { "type": "Point", "coordinates": [ -114.0676733, 51.18567968316875 ] } },
{ "type": "Feature", "properties": { "PERMIT ID": "BP2019-02706", "DATE OF ISSUE": "15/4/2019", "DATE OF COMPLETION": "30/5/2019", "STATUS": "1", "ADDRESS": "126 15 ST NW" }, "geometry": { "type": "Point", "coordinates": [ -114.0960566, 51.053485441736406 ] } },
{ "type": "Feature", "properties": { "PERMIT ID": "BP2023-01289", "DATE OF ISSUE": "2/2/2023", "DATE OF COMPLETION": "1/6/2023", "STATUS": "1", "ADDRESS": "447 EVANSGLEN DR NW" }, "geometry": { "type": "Point", "coordinates": [ -114.0984713, 51.177562750491276 ] } },
{ "type": "Feature", "properties": { "PERMIT ID": "BP2018-11420", "DATE OF ISSUE": "28/8/2018", "DATE OF COMPLETION": "12/12/2018", "STATUS": "1", "ADDRESS": "20 SETON RI SE" }, "geometry": { "type": "Point", "coordinates": [ -113.9562636, 50.868271604753119 ] } },
{ "type": "Feature", "properties": { "PERMIT ID": "BP2020-14657", "DATE OF ISSUE": "8/10/2020", "DATE OF COMPLETION": "17/11/2020", "STATUS": "1", "ADDRESS": "2409 32 ST SW" }, "geometry": { "type": "Point", "coordinates": [ -114.1342605, 51.032757914526812 ] } },
{ "type": "Feature", "properties": { "PERMIT ID": "BP2019-09510", "DATE OF ISSUE": "19/7/2019", "DATE OF COMPLETION": "14/11/2019", "STATUS": "1", "ADDRESS": "711 WALGROVE BV SE" }, "geometry": { "type": "Point", "coordinates": [ -114.013652, 50.866494483795393 ] } },
{ "type": "Feature", "properties": { "PERMIT ID": "BP2019-07282", "DATE OF ISSUE": "14/6/2019", "DATE OF COMPLETION": "25/10/2019", "STATUS": "1", "ADDRESS": "747 WALGROVE BV SE" }, "geometry": { "type": "Point", "coordinates": [ -114.0133602, 50.866107947169432 ] } },
{ "type": "Feature", "properties": { "PERMIT ID": "BP2020-04631", "DATE OF ISSUE": "22/4/2020", "DATE OF COMPLETION": "7/6/2021", "STATUS": "1", "ADDRESS": "1216 40 AV NW" }, "geometry": { "type": "Point", "coordinates": [ -114.0873969, 51.089963423858912 ] } },
{ "type": "Feature", "properties": { "PERMIT ID": "BP2019-07714", "DATE OF ISSUE": "18/6/2019", "DATE OF COMPLETION": "14/11/2019", "STATUS": "1", "ADDRESS": "4586 MARBANK DR NE" }, "geometry": { "type": "Point", "coordinates": [ -113.9699212, 51.06358439 ] } },
{ "type": "Feature", "properties": { "PERMIT ID": "BP2020-07667", "DATE OF ISSUE": "15/6/2020", "DATE OF COMPLETION": "3/6/2021", "STATUS": "1", "ADDRESS": "1442 45 ST SW" }, "geometry": { "type": "Point", "coordinates": [ -114.1524537, 51.03988694597431 ] } },
{ "type": "Feature", "properties": { "PERMIT ID": "BP2018-01027", "DATE OF ISSUE": "8/3/2018", "DATE OF COMPLETION": "26/7/2018", "STATUS": "1", "ADDRESS": "163 HOWSE LN NE" }, "geometry": { "type": "Point", "coordinates": [ -114.067535, 51.188268743250212 ] } },
{ "type": "Feature", "properties": { "PERMIT ID": "BP2022-18085", "DATE OF ISSUE": "15/11/2022", "DATE OF COMPLETION": "13/4/2023", "STATUS": "1", "ADDRESS": "148 EVANSTON HL NW" }, "geometry": { "type": "Point", "coordinates": [ -114.1109504, 51.182221641568589 ] } },
{ "type": "Feature", "properties": { "PERMIT ID": "BP2015-15734", "DATE OF ISSUE": "14/12/2015", "DATE OF COMPLETION": "14/2/2017", "STATUS": "1", "ADDRESS": "69 SAGE MEADOWS WY NW" }, "geometry": { "type": "Point", "coordinates": [ -114.1314665, 51.173210855489025 ] } },
{ "type": "Feature", "properties": { "PERMIT ID": "BP2022-14502", "DATE OF ISSUE": "13/9/2022", "DATE OF COMPLETION": "17/3/2023", "STATUS": "1", "ADDRESS": "20689 MAIN ST SE" }, "geometry": { "type": "Point", "coordinates": [ -113.946143, 50.86687392257673 ] } },
{ "type": "Feature", "properties": { "PERMIT ID": "BP2021-03788", "DATE OF ISSUE": "23/3/2021", "DATE OF COMPLETION": "27/5/2021", "STATUS": "1", "ADDRESS": "213 COPPERLEAF WY SE" }, "geometry": { "type": "Point", "coordinates": [ -113.9275545, 50.912150863444772 ] } },
{ "type": "Feature", "properties": { "PERMIT ID": "BP2022-20340", "DATE OF ISSUE": "8/2/2023", "DATE OF COMPLETION": "12/10/2023", "STATUS": "1", "ADDRESS": "341 ARBOUR WOOD CL NW" }, "geometry": { "type": "Point", "coordinates": [ -114.2086055, 51.131818596601192 ] } },
{ "type": "Feature", "properties": { "PERMIT ID": "BP2023-09684", "DATE OF ISSUE": "21/6/2023", "DATE OF COMPLETION": "", "STATUS": "0", "ADDRESS": "220 CARRINGHAM RD NW" }, "geometry": { "type": "Point", "coordinates": [ -114.0908975, 51.186176348430315 ] } },
{ "type": "Feature", "properties": { "PERMIT ID": "BP2020-11265", "DATE OF ISSUE": "19/10/2020", "DATE OF COMPLETION": "26/10/2020", "STATUS": "1", "ADDRESS": "2814 29 ST SW" }, "geometry": { "type": "Point", "coordinates": [ -114.1293719, 51.029450702234506 ] } },
{ "type": "Feature", "properties": { "PERMIT ID": "BP2020-02316", "DATE OF ISSUE": "5/3/2020", "DATE OF COMPLETION": "20/7/2020", "STATUS": "1", "ADDRESS": "10 WOLF CREEK MR SE" }, "geometry": { "type": "Point", "coordinates": [ -114.0050042, 50.875197497028964 ] } },
{ "type": "Feature", "properties": { "PERMIT ID": "BP2019-05872", "DATE OF ISSUE": "8/7/2019", "DATE OF COMPLETION": "16/7/2019", "STATUS": "1", "ADDRESS": "67 BERKLEY RI NW" }, "geometry": { "type": "Point", "coordinates": [ -114.0779386, 51.125822105640246 ] } },
{ "type": "Feature", "properties": { "PERMIT ID": "BP2020-09674", "DATE OF ISSUE": "30/9/2020", "DATE OF COMPLETION": "", "STATUS": "0", "ADDRESS": "480 EVANSTON WY NW" }, "geometry": { "type": "Point", "coordinates": [ -114.1004104, 51.18035235092222 ] } },
{ "type": "Feature", "properties": { "PERMIT ID": "BP2020-09326", "DATE OF ISSUE": "29/7/2020", "DATE OF COMPLETION": "9/9/2020", "STATUS": "1", "ADDRESS": "278 CORNERSTONE CR NE" }, "geometry": { "type": "Point", "coordinates": [ -113.9430404, 51.159979811184527 ] } },
{ "type": "Feature", "properties": { "PERMIT ID": "BP2019-07845", "DATE OF ISSUE": "2/7/2019", "DATE OF COMPLETION": "6/12/2019", "STATUS": "1", "ADDRESS": "43 CORNERBROOK GA NE" }, "geometry": { "type": "Point", "coordinates": [ -113.9339521, 51.155084712392949 ] } },
{ "type": "Feature", "properties": { "PERMIT ID": "BP2022-01315", "DATE OF ISSUE": "9/3/2022", "DATE OF COMPLETION": "1/3/2023", "STATUS": "1", "ADDRESS": "658 CORNERSTONE AV NE" }, "geometry": { "type": "Point", "coordinates": [ -113.9311255, 51.161362289257212 ] } },
{ "type": "Feature", "properties": { "PERMIT ID": "BP2022-03184", "DATE OF ISSUE": "21/3/2022", "DATE OF COMPLETION": "29/11/2022", "STATUS": "1", "ADDRESS": "84 LEGACY REACH CR SE" }, "geometry": { "type": "Point", "coordinates": [ -113.9952142, 50.856215099731742 ] } },
{ "type": "Feature", "properties": { "PERMIT ID": "BP2017-15816", "DATE OF ISSUE": "5/12/2017", "DATE OF COMPLETION": "23/1/2018", "STATUS": "1", "ADDRESS": "7372 HUNTLEY RD NE" }, "geometry": { "type": "Point", "coordinates": [ -114.0559085, 51.119517324077933 ] } },
{ "type": "Feature", "properties": { "PERMIT ID": "BP2022-00964", "DATE OF ISSUE": "14/2/2022", "DATE OF COMPLETION": "14/12/2022", "STATUS": "1", "ADDRESS": "232 LEGACY GLEN PR SE" }, "geometry": { "type": "Point", "coordinates": [ -113.9986047, 50.854952090882414 ] } },
{ "type": "Feature", "properties": { "PERMIT ID": "BP2019-05785", "DATE OF ISSUE": "21/5/2019", "DATE OF COMPLETION": "26/8/2019", "STATUS": "1", "ADDRESS": "72 CORNER MEADOWS GA NE" }, "geometry": { "type": "Point", "coordinates": [ -113.9334222, 51.151924579542488 ] } },
{ "type": "Feature", "properties": { "PERMIT ID": "BP2020-16623", "DATE OF ISSUE": "23/11/2020", "DATE OF COMPLETION": "2/2/2021", "STATUS": "1", "ADDRESS": "334 WALGROVE WY SE" }, "geometry": { "type": "Point", "coordinates": [ -114.0145051, 50.866179730586673 ] } },
{ "type": "Feature", "properties": { "PERMIT ID": "BP2018-04376", "DATE OF ISSUE": "24/4/2018", "DATE OF COMPLETION": "26/4/2018", "STATUS": "1", "ADDRESS": "1527 50 ST SE" }, "geometry": { "type": "Point", "coordinates": [ -113.9615426, 51.039975942203405 ] } },
{ "type": "Feature", "properties": { "PERMIT ID": "BP2019-04799", "DATE OF ISSUE": "30/4/2019", "DATE OF COMPLETION": "30/8/2019", "STATUS": "1", "ADDRESS": "1322 HARVEST HILLS DR NE" }, "geometry": { "type": "Point", "coordinates": [ -114.0450133, 51.149480712930341 ] } },
{ "type": "Feature", "properties": { "PERMIT ID": "BP2018-10827", "DATE OF ISSUE": "22/8/2018", "DATE OF COMPLETION": "20/9/2018", "STATUS": "1", "ADDRESS": "512 96 AV SE" }, "geometry": { "type": "Point", "coordinates": [ -114.0550959, 50.966774510372019 ] } },
{ "type": "Feature", "properties": { "PERMIT ID": "BP2020-08607", "DATE OF ISSUE": "3/7/2020", "DATE OF COMPLETION": "20/1/2021", "STATUS": "1", "ADDRESS": "29 SETON MR SE" }, "geometry": { "type": "Point", "coordinates": [ -113.9571222, 50.869040568830805 ] } },
{ "type": "Feature", "properties": { "PERMIT ID": "BP2019-10946", "DATE OF ISSUE": "29/8/2019", "DATE OF COMPLETION": "28/11/2019", "STATUS": "1", "ADDRESS": "21 LUCAS CR NW" }, "geometry": { "type": "Point", "coordinates": [ -114.0771451, 51.18549403115982 ] } },
{ "type": "Feature", "properties": { "PERMIT ID": "BP2019-09163", "DATE OF ISSUE": "15/7/2019", "DATE OF COMPLETION": "11/12/2019", "STATUS": "1", "ADDRESS": "139 SETON GD SE" }, "geometry": { "type": "Point", "coordinates": [ -113.9549523, 50.866612449556776 ] } },
{ "type": "Feature", "properties": { "PERMIT ID": "BP2020-16827", "DATE OF ISSUE": "18/11/2020", "DATE OF COMPLETION": "9/3/2021", "STATUS": "1", "ADDRESS": "51 CARRINGSBY AV NW" }, "geometry": { "type": "Point", "coordinates": [ -114.0886374, 51.179534825829585 ] } },
{ "type": "Feature", "properties": { "PERMIT ID": "BP2022-09197", "DATE OF ISSUE": "6/7/2022", "DATE OF COMPLETION": "4/4/2023", "STATUS": "1", "ADDRESS": "19 WHITEFIELD PL NE" }, "geometry": { "type": "Point", "coordinates": [ -113.9735562, 51.087741186788662 ] } },
{ "type": "Feature", "properties": { "PERMIT ID": "BP2017-01560", "DATE OF ISSUE": "22/3/2017", "DATE OF COMPLETION": "2/3/2018", "STATUS": "1", "ADDRESS": "190 SAGE BLUFF DR NW" }, "geometry": { "type": "Point", "coordinates": [ -114.1375861, 51.17731203717446 ] } },
{ "type": "Feature", "properties": { "PERMIT ID": "BP2020-00088", "DATE OF ISSUE": "6/1/2020", "DATE OF COMPLETION": "28/6/2023", "STATUS": "1", "ADDRESS": "125 LUCAS CR NW" }, "geometry": { "type": "Point", "coordinates": [ -114.0771809, 51.183727567188811 ] } },
{ "type": "Feature", "properties": { "PERMIT ID": "BP2018-14263", "DATE OF ISSUE": "12/11/2018", "DATE OF COMPLETION": "25/3/2019", "STATUS": "1", "ADDRESS": "2427 37 ST SW" }, "geometry": { "type": "Point", "coordinates": [ -114.1414599, 51.032075190097231 ] } },
{ "type": "Feature", "properties": { "PERMIT ID": "BP2020-11222", "DATE OF ISSUE": "20/8/2020", "DATE OF COMPLETION": "9/2/2021", "STATUS": "1", "ADDRESS": "2255 BRIGHTONCREST CM SE" }, "geometry": { "type": "Point", "coordinates": [ -113.9451052, 50.924737344867204 ] } },
{ "type": "Feature", "properties": { "PERMIT ID": "BP2020-00250", "DATE OF ISSUE": "10/1/2020", "DATE OF COMPLETION": "10/7/2020", "STATUS": "1", "ADDRESS": "31 CORNERBROOK GA NE" }, "geometry": { "type": "Point", "coordinates": [ -113.9339523, 51.154900426483081 ] } },
{ "type": "Feature", "properties": { "PERMIT ID": "BP2019-05326", "DATE OF ISSUE": "10/5/2019", "DATE OF COMPLETION": "6/9/2019", "STATUS": "1", "ADDRESS": "16 REDSTONE LI NE" }, "geometry": { "type": "Point", "coordinates": [ -113.9668325, 51.172156326460268 ] } },
{ "type": "Feature", "properties": { "PERMIT ID": "BP2019-07283", "DATE OF ISSUE": "14/6/2019", "DATE OF COMPLETION": "25/10/2019", "STATUS": "1", "ADDRESS": "743 WALGROVE BV SE" }, "geometry": { "type": "Point", "coordinates": [ -114.0133991, 50.86619335 ] } },
{ "type": "Feature", "properties": { "PERMIT ID": "BP2018-00526", "DATE OF ISSUE": "14/2/2018", "DATE OF COMPLETION": "14/10/2020", "STATUS": "1", "ADDRESS": "68 LUCAS BV NW" }, "geometry": { "type": "Point", "coordinates": [ -114.0753514, 51.184690638244533 ] } },
{ "type": "Feature", "properties": { "PERMIT ID": "BP2021-12407", "DATE OF ISSUE": "28/7/2021", "DATE OF COMPLETION": "3/2/2022", "STATUS": "1", "ADDRESS": "5924 53 ST NW" }, "geometry": { "type": "Point", "coordinates": [ -114.1602244, 51.109408806118893 ] } },
{ "type": "Feature", "properties": { "PERMIT ID": "BP2023-14156", "DATE OF ISSUE": "28/8/2023", "DATE OF COMPLETION": "2/11/2023", "STATUS": "1", "ADDRESS": "529 SAVANNA DR NE" }, "geometry": { "type": "Point", "coordinates": [ -113.9535445, 51.13646772949317 ] } },
{ "type": "Feature", "properties": { "PERMIT ID": "BP2016-14405", "DATE OF ISSUE": "29/11/2016", "DATE OF COMPLETION": "13/6/2017", "STATUS": "1", "ADDRESS": "7616 RANCHERO DR NW" }, "geometry": { "type": "Point", "coordinates": [ -114.1929537, 51.120562803392843 ] } },
{ "type": "Feature", "properties": { "PERMIT ID": "BP2022-17067", "DATE OF ISSUE": "18/11/2022", "DATE OF COMPLETION": "24/7/2023", "STATUS": "1", "ADDRESS": "145 STRADDOCK TC SW" }, "geometry": { "type": "Point", "coordinates": [ -114.185311, 51.050928314096204 ] } },
{ "type": "Feature", "properties": { "PERMIT ID": "BP2017-15428", "DATE OF ISSUE": "12/12/2017", "DATE OF COMPLETION": "28/3/2018", "STATUS": "1", "ADDRESS": "159 PRESTWICK LD SE" }, "geometry": { "type": "Point", "coordinates": [ -113.9679812, 50.918412456643225 ] } },
{ "type": "Feature", "properties": { "PERMIT ID": "BP2015-08881", "DATE OF ISSUE": "22/7/2015", "DATE OF COMPLETION": "30/10/2015", "STATUS": "1", "ADDRESS": "2418 32 ST SW" }, "geometry": { "type": "Point", "coordinates": [ -114.1338881, 51.032447961341681 ] } },
{ "type": "Feature", "properties": { "PERMIT ID": "BP2020-14214", "DATE OF ISSUE": "2/10/2020", "DATE OF COMPLETION": "", "STATUS": "0", "ADDRESS": "4701 21A ST SW" }, "geometry": { "type": "Point", "coordinates": [ -114.1138929, 51.01222442666127 ] } },
{ "type": "Feature", "properties": { "PERMIT ID": "BP2019-11282", "DATE OF ISSUE": "17/9/2019", "DATE OF COMPLETION": "4/12/2019", "STATUS": "1", "ADDRESS": "85 SOMERSIDE CL SW" }, "geometry": { "type": "Point", "coordinates": [ -114.0933558, 50.899140018688406 ] } },
{ "type": "Feature", "properties": { "PERMIT ID": "BP2023-07981", "DATE OF ISSUE": "19/9/2023", "DATE OF COMPLETION": "", "STATUS": "0", "ADDRESS": "254 NOLAN HILL BV NW" }, "geometry": { "type": "Point", "coordinates": [ -114.1630064, 51.172285692758116 ] } },
{ "type": "Feature", "properties": { "PERMIT ID": "BP2022-01304", "DATE OF ISSUE": "16/3/2022", "DATE OF COMPLETION": "22/9/2023", "STATUS": "1", "ADDRESS": "152 CITADEL CL NW" }, "geometry": { "type": "Point", "coordinates": [ -114.169001, 51.141482370196272 ] } },
{ "type": "Feature", "properties": { "PERMIT ID": "BP2017-12787", "DATE OF ISSUE": "13/10/2017", "DATE OF COMPLETION": "3/4/2018", "STATUS": "1", "ADDRESS": "32 HOWSE ST NE" }, "geometry": { "type": "Point", "coordinates": [ -114.0676733, 51.185747104517894 ] } },
{ "type": "Feature", "properties": { "PERMIT ID": "BP2019-16175", "DATE OF ISSUE": "13/12/2019", "DATE OF COMPLETION": "", "STATUS": "0", "ADDRESS": "128 PANAMOUNT MR NW" }, "geometry": { "type": "Point", "coordinates": [ -114.0845346, 51.161680139877618 ] } },
{ "type": "Feature", "properties": { "PERMIT ID": "BP2019-01904", "DATE OF ISSUE": "1/3/2019", "DATE OF COMPLETION": "25/9/2020", "STATUS": "1", "ADDRESS": "97 SINCLAIR CR SW" }, "geometry": { "type": "Point", "coordinates": [ -114.0908597, 50.964194 ] } },
{ "type": "Feature", "properties": { "PERMIT ID": "BP2019-16903", "DATE OF ISSUE": "13/1/2020", "DATE OF COMPLETION": "17/2/2022", "STATUS": "1", "ADDRESS": "195 SETON HE SE" }, "geometry": { "type": "Point", "coordinates": [ -113.9481783, 50.868097485069768 ] } },
{ "type": "Feature", "properties": { "PERMIT ID": "BP2020-13532", "DATE OF ISSUE": "25/9/2020", "DATE OF COMPLETION": "8/12/2021", "STATUS": "1", "ADDRESS": "8217 SADDLEBROOK DR NE" }, "geometry": { "type": "Point", "coordinates": [ -113.9299077, 51.126490980869619 ] } },
{ "type": "Feature", "properties": { "PERMIT ID": "BP2021-00111", "DATE OF ISSUE": "5/1/2021", "DATE OF COMPLETION": "", "STATUS": "0", "ADDRESS": "1463 43 ST NE" }, "geometry": { "type": "Point", "coordinates": [ -113.9719129, 51.065684614356471 ] } },
{ "type": "Feature", "properties": { "PERMIT ID": "BP2019-11623", "DATE OF ISSUE": "5/9/2019", "DATE OF COMPLETION": "27/12/2019", "STATUS": "1", "ADDRESS": "10 CITYSCAPE BA NE" }, "geometry": { "type": "Point", "coordinates": [ -113.9608584, 51.14806697 ] } },
{ "type": "Feature", "properties": { "PERMIT ID": "BP2019-05786", "DATE OF ISSUE": "21/5/2019", "DATE OF COMPLETION": "26/8/2019", "STATUS": "1", "ADDRESS": "68 CORNER MEADOWS GA NE" }, "geometry": { "type": "Point", "coordinates": [ -113.9334222, 51.151866147353566 ] } },
{ "type": "Feature", "properties": { "PERMIT ID": "BP2019-11409", "DATE OF ISSUE": "5/9/2019", "DATE OF COMPLETION": "27/5/2020", "STATUS": "1", "ADDRESS": "4119 BOWLEN ST NW" }, "geometry": { "type": "Point", "coordinates": [ -114.1231046, 51.091572891710818 ] } },
{ "type": "Feature", "properties": { "PERMIT ID": "BP2019-08526", "DATE OF ISSUE": "18/10/2021", "DATE OF COMPLETION": "20/9/2022", "STATUS": "1", "ADDRESS": "4713 21A ST SW" }, "geometry": { "type": "Point", "coordinates": [ -114.1138329, 51.011814236184392 ] } },
{ "type": "Feature", "properties": { "PERMIT ID": "BP2021-13345", "DATE OF ISSUE": "17/8/2021", "DATE OF COMPLETION": "16/3/2022", "STATUS": "1", "ADDRESS": "225 PANATELLA BV NW" }, "geometry": { "type": "Point", "coordinates": [ -114.0819748, 51.163039384143943 ] } },
{ "type": "Feature", "properties": { "PERMIT ID": "BP2022-01083", "DATE OF ISSUE": "22/2/2022", "DATE OF COMPLETION": "23/9/2022", "STATUS": "1", "ADDRESS": "307 SCOTIA PT NW" }, "geometry": { "type": "Point", "coordinates": [ -114.2162173, 51.124500708110233 ] } },
{ "type": "Feature", "properties": { "PERMIT ID": "BP2022-05102", "DATE OF ISSUE": "21/4/2022", "DATE OF COMPLETION": "9/11/2022", "STATUS": "1", "ADDRESS": "1062 COPPERFIELD BV SE" }, "geometry": { "type": "Point", "coordinates": [ -113.9288285, 50.910533457567574 ] } },
{ "type": "Feature", "properties": { "PERMIT ID": "BP2022-02568", "DATE OF ISSUE": "26/4/2022", "DATE OF COMPLETION": "25/5/2023", "STATUS": "1", "ADDRESS": "155 REDSTONE HT NE" }, "geometry": { "type": "Point", "coordinates": [ -113.9677965, 51.173167918541637 ] } },
{ "type": "Feature", "properties": { "PERMIT ID": "BP2022-04604", "DATE OF ISSUE": "12/4/2022", "DATE OF COMPLETION": "8/2/2023", "STATUS": "1", "ADDRESS": "283 WOLF CREEK WY SE" }, "geometry": { "type": "Point", "coordinates": [ -114.0114897, 50.876199423241438 ] } },
{ "type": "Feature", "properties": { "PERMIT ID": "BP2016-07709", "DATE OF ISSUE": "28/7/2016", "DATE OF COMPLETION": "17/3/2017", "STATUS": "1", "ADDRESS": "48 RIVERBEND GA SE" }, "geometry": { "type": "Point", "coordinates": [ -114.0182099, 50.975878766067865 ] } },
{ "type": "Feature", "properties": { "PERMIT ID": "BP2020-00363", "DATE OF ISSUE": "13/1/2020", "DATE OF COMPLETION": "27/7/2020", "STATUS": "1", "ADDRESS": "115 SETON HE SE" }, "geometry": { "type": "Point", "coordinates": [ -113.9495214, 50.868727374091264 ] } },
{ "type": "Feature", "properties": { "PERMIT ID": "BP2018-11512", "DATE OF ISSUE": "7/9/2018", "DATE OF COMPLETION": "22/2/2019", "STATUS": "1", "ADDRESS": "153 SADDLECREEK PT NE" }, "geometry": { "type": "Point", "coordinates": [ -113.9575951, 51.129174209913437 ] } },
{ "type": "Feature", "properties": { "PERMIT ID": "BP2019-14890", "DATE OF ISSUE": "1/11/2019", "DATE OF COMPLETION": "5/5/2020", "STATUS": "1", "ADDRESS": "264 LUCAS AV NW" }, "geometry": { "type": "Point", "coordinates": [ -114.0756682, 51.18848401 ] } },
{ "type": "Feature", "properties": { "PERMIT ID": "BP2018-14319", "DATE OF ISSUE": "13/11/2018", "DATE OF COMPLETION": "22/1/2019", "STATUS": "1", "ADDRESS": "968 RIVERBEND DR SE" }, "geometry": { "type": "Point", "coordinates": [ -114.0185088, 50.977577169254353 ] } },
{ "type": "Feature", "properties": { "PERMIT ID": "BP2021-01057", "DATE OF ISSUE": "26/1/2021", "DATE OF COMPLETION": "2/2/2021", "STATUS": "1", "ADDRESS": "3601 25 AV SW" }, "geometry": { "type": "Point", "coordinates": [ -114.1386214, 51.03149425716596 ] } },
{ "type": "Feature", "properties": { "PERMIT ID": "BP2019-08746", "DATE OF ISSUE": "9/7/2019", "DATE OF COMPLETION": "15/1/2020", "STATUS": "1", "ADDRESS": "146 SETON GV SE" }, "geometry": { "type": "Point", "coordinates": [ -113.9555788, 50.866001368990922 ] } },
{ "type": "Feature", "properties": { "PERMIT ID": "BP2023-19327", "DATE OF ISSUE": "15/11/2023", "DATE OF COMPLETION": "29/1/2024", "STATUS": "1", "ADDRESS": "48 CORNER GLEN AV NE" }, "geometry": { "type": "Point", "coordinates": [ -113.941061, 51.168132352102333 ] } },
{ "type": "Feature", "properties": { "PERMIT ID": "BP2023-20135", "DATE OF ISSUE": "1/12/2023", "DATE OF COMPLETION": "2/4/2024", "STATUS": "1", "ADDRESS": "95 CARRINGWOOD MR NW" }, "geometry": { "type": "Point", "coordinates": [ -114.0939874, 51.188142611161467 ] } },
{ "type": "Feature", "properties": { "PERMIT ID": "BP2020-03142", "DATE OF ISSUE": "16/3/2020", "DATE OF COMPLETION": "5/4/2021", "STATUS": "1", "ADDRESS": "223 8A ST NE" }, "geometry": { "type": "Point", "coordinates": [ -114.0418664, 51.054115229464095 ] } },
{ "type": "Feature", "properties": { "PERMIT ID": "BP2022-15965", "DATE OF ISSUE": "21/9/2022", "DATE OF COMPLETION": "18/11/2022", "STATUS": "1", "ADDRESS": "131 CORNERSTONE CR NE" }, "geometry": { "type": "Point", "coordinates": [ -113.9459167, 51.159329433509477 ] } },
{ "type": "Feature", "properties": { "PERMIT ID": "BP2019-15607", "DATE OF ISSUE": "6/12/2019", "DATE OF COMPLETION": "25/5/2020", "STATUS": "1", "ADDRESS": "260 LUCAS AV NW" }, "geometry": { "type": "Point", "coordinates": [ -114.0755578, 51.18848408060353 ] } },
{ "type": "Feature", "properties": { "PERMIT ID": "BP2020-13610", "DATE OF ISSUE": "25/9/2020", "DATE OF COMPLETION": "11/2/2022", "STATUS": "1", "ADDRESS": "1225 COPPERFIELD BV SE" }, "geometry": { "type": "Point", "coordinates": [ -113.9254282, 50.913012558988349 ] } },
{ "type": "Feature", "properties": { "PERMIT ID": "BP2019-03171", "DATE OF ISSUE": "1/4/2019", "DATE OF COMPLETION": "17/4/2020", "STATUS": "1", "ADDRESS": "37 HOWSE TC NE" }, "geometry": { "type": "Point", "coordinates": [ -114.0618551, 51.18780892383139 ] } },
{ "type": "Feature", "properties": { "PERMIT ID": "BP2023-10516", "DATE OF ISSUE": "14/7/2023", "DATE OF COMPLETION": "20/10/2023", "STATUS": "1", "ADDRESS": "26 LUCAS WY NW" }, "geometry": { "type": "Point", "coordinates": [ -114.0796946, 51.18391016722358 ] } },
{ "type": "Feature", "properties": { "PERMIT ID": "BP2021-17066", "DATE OF ISSUE": "8/10/2021", "DATE OF COMPLETION": "28/1/2022", "STATUS": "1", "ADDRESS": "165 CREEKSIDE DR SW" }, "geometry": { "type": "Point", "coordinates": [ -114.078267, 50.860616541988044 ] } },
{ "type": "Feature", "properties": { "PERMIT ID": "BP2023-18893", "DATE OF ISSUE": "21/11/2023", "DATE OF COMPLETION": "12/2/2024", "STATUS": "1", "ADDRESS": "40 EVANSBOROUGH RD NW" }, "geometry": { "type": "Point", "coordinates": [ -114.125042, 51.182027639830437 ] } },
{ "type": "Feature", "properties": { "PERMIT ID": "BP2022-06214", "DATE OF ISSUE": "4/5/2022", "DATE OF COMPLETION": "19/9/2022", "STATUS": "1", "ADDRESS": "4811 32 AV NW" }, "geometry": { "type": "Point", "coordinates": [ -114.1593308, 51.081266424653393 ] } },
{ "type": "Feature", "properties": { "PERMIT ID": "BP2023-02770", "DATE OF ISSUE": "21/3/2023", "DATE OF COMPLETION": "24/4/2023", "STATUS": "1", "ADDRESS": "23 SADDLECREEK CR NE" }, "geometry": { "type": "Point", "coordinates": [ -113.9576638, 51.127254954269745 ] } },
{ "type": "Feature", "properties": { "PERMIT ID": "BP2019-16417", "DATE OF ISSUE": "30/4/2020", "DATE OF COMPLETION": "6/2/2024", "STATUS": "1", "ADDRESS": "55 HOWSE RI NE" }, "geometry": { "type": "Point", "coordinates": [ -114.0592316, 51.184344823056144 ] } },
{ "type": "Feature", "properties": { "PERMIT ID": "BP2019-01826", "DATE OF ISSUE": "22/3/2019", "DATE OF COMPLETION": "17/5/2019", "STATUS": "1", "ADDRESS": "28 PATTERSON CR SW" }, "geometry": { "type": "Point", "coordinates": [ -114.1730178, 51.063640645302684 ] } },
{ "type": "Feature", "properties": { "PERMIT ID": "BP2018-16404", "DATE OF ISSUE": "24/12/2018", "DATE OF COMPLETION": "5/7/2019", "STATUS": "1", "ADDRESS": "4411 20 ST SW" }, "geometry": { "type": "Point", "coordinates": [ -114.1095094, 51.014613750779887 ] } },
{ "type": "Feature", "properties": { "PERMIT ID": "BP2023-04484", "DATE OF ISSUE": "2/5/2023", "DATE OF COMPLETION": "26/6/2023", "STATUS": "1", "ADDRESS": "140 CORNERBROOK GR NE" }, "geometry": { "type": "Point", "coordinates": [ -113.9302892, 51.160058308391733 ] } },
{ "type": "Feature", "properties": { "PERMIT ID": "BP2015-06396", "DATE OF ISSUE": "4/6/2015", "DATE OF COMPLETION": "16/12/2016", "STATUS": "1", "ADDRESS": "128 CAPRI AV NW" }, "geometry": { "type": "Point", "coordinates": [ -114.1086042, 51.090133271487744 ] } },
{ "type": "Feature", "properties": { "PERMIT ID": "BP2022-02306", "DATE OF ISSUE": "17/2/2022", "DATE OF COMPLETION": "16/9/2022", "STATUS": "1", "ADDRESS": "68 CARRINGSBY MR NW" }, "geometry": { "type": "Point", "coordinates": [ -114.0904219, 51.178409769317788 ] } },
{ "type": "Feature", "properties": { "PERMIT ID": "BP2023-20632", "DATE OF ISSUE": "6/12/2023", "DATE OF COMPLETION": "", "STATUS": "0", "ADDRESS": "4328 73 ST NW" }, "geometry": { "type": "Point", "coordinates": [ -114.1947602, 51.090246897453788 ] } },
{ "type": "Feature", "properties": { "PERMIT ID": "BP2017-02560", "DATE OF ISSUE": "28/3/2017", "DATE OF COMPLETION": "4/8/2017", "STATUS": "1", "ADDRESS": "20 TOMMY PRINCE RD SW" }, "geometry": { "type": "Point", "coordinates": [ -114.1303184, 51.021233 ] } },
{ "type": "Feature", "properties": { "PERMIT ID": "BP2022-13907", "DATE OF ISSUE": "19/8/2022", "DATE OF COMPLETION": "", "STATUS": "0", "ADDRESS": "185 RED EMBERS PL NE" }, "geometry": { "type": "Point", "coordinates": [ -113.9458864, 51.170889977930742 ] } },
{ "type": "Feature", "properties": { "PERMIT ID": "BP2022-14631", "DATE OF ISSUE": "6/9/2022", "DATE OF COMPLETION": "19/10/2022", "STATUS": "1", "ADDRESS": "264 KINCORA HT NW" }, "geometry": { "type": "Point", "coordinates": [ -114.1331422, 51.156555437123856 ] } },
{ "type": "Feature", "properties": { "PERMIT ID": "BP2017-14255", "DATE OF ISSUE": "18/12/2017", "DATE OF COMPLETION": "18/6/2018", "STATUS": "1", "ADDRESS": "256 CRANBROOK CI SE" }, "geometry": { "type": "Point", "coordinates": [ -113.980956, 50.867060099150059 ] } },
{ "type": "Feature", "properties": { "PERMIT ID": "BP2015-08737", "DATE OF ISSUE": "5/8/2015", "DATE OF COMPLETION": "29/4/2016", "STATUS": "1", "ADDRESS": "208 PANAMOUNT LN NW" }, "geometry": { "type": "Point", "coordinates": [ -114.0853328, 51.157485931776151 ] } },
{ "type": "Feature", "properties": { "PERMIT ID": "BP2020-17448", "DATE OF ISSUE": "15/12/2020", "DATE OF COMPLETION": "22/2/2021", "STATUS": "1", "ADDRESS": "163 WALCREST WY SE" }, "geometry": { "type": "Point", "coordinates": [ -114.0119948, 50.864696663786638 ] } },
{ "type": "Feature", "properties": { "PERMIT ID": "BP2021-00425", "DATE OF ISSUE": "5/3/2021", "DATE OF COMPLETION": "21/6/2023", "STATUS": "1", "ADDRESS": "323 SADDLECREEK PT NE" }, "geometry": { "type": "Point", "coordinates": [ -113.957406, 51.128594311809508 ] } },
{ "type": "Feature", "properties": { "PERMIT ID": "BP2019-12995", "DATE OF ISSUE": "26/9/2019", "DATE OF COMPLETION": "16/3/2020", "STATUS": "1", "ADDRESS": "186 SETON GV SE" }, "geometry": { "type": "Point", "coordinates": [ -113.9544998, 50.866023428401519 ] } },
{ "type": "Feature", "properties": { "PERMIT ID": "BP2023-08077", "DATE OF ISSUE": "23/6/2023", "DATE OF COMPLETION": "29/9/2023", "STATUS": "1", "ADDRESS": "191 SADDLESTONE GR NE" }, "geometry": { "type": "Point", "coordinates": [ -113.9283338, 51.127371008556906 ] } },
{ "type": "Feature", "properties": { "PERMIT ID": "BP2022-04881", "DATE OF ISSUE": "20/4/2022", "DATE OF COMPLETION": "25/5/2023", "STATUS": "1", "ADDRESS": "46 BELMONT GD SW" }, "geometry": { "type": "Point", "coordinates": [ -114.0626717, 50.866361587065548 ] } },
{ "type": "Feature", "properties": { "PERMIT ID": "BP2022-00404", "DATE OF ISSUE": "13/1/2022", "DATE OF COMPLETION": "18/7/2022", "STATUS": "1", "ADDRESS": "15 COPPERHEAD WY SE" }, "geometry": { "type": "Point", "coordinates": [ -113.9267513, 50.91112551 ] } },
{ "type": "Feature", "properties": { "PERMIT ID": "BP2022-09811", "DATE OF ISSUE": "23/6/2022", "DATE OF COMPLETION": "27/3/2023", "STATUS": "1", "ADDRESS": "12 SAGE HILL CR NW" }, "geometry": { "type": "Point", "coordinates": [ -114.1467194, 51.17481983 ] } },
{ "type": "Feature", "properties": { "PERMIT ID": "BP2023-01667", "DATE OF ISSUE": "13/2/2023", "DATE OF COMPLETION": "2/6/2023", "STATUS": "1", "ADDRESS": "650 CORNERSTONE AV NE" }, "geometry": { "type": "Point", "coordinates": [ -113.9312188, 51.161362344166989 ] } },
{ "type": "Feature", "properties": { "PERMIT ID": "BP2020-18044", "DATE OF ISSUE": "27/1/2021", "DATE OF COMPLETION": "12/2/2021", "STATUS": "1", "ADDRESS": "51 REDSTONE PA NE" }, "geometry": { "type": "Point", "coordinates": [ -113.9599044, 51.169969699441424 ] } },
{ "type": "Feature", "properties": { "PERMIT ID": "BP2023-15789", "DATE OF ISSUE": "23/11/2023", "DATE OF COMPLETION": "26/1/2024", "STATUS": "1", "ADDRESS": "133 YORKVILLE ST SW" }, "geometry": { "type": "Point", "coordinates": [ -114.072992, 50.872365408574922 ] } },
{ "type": "Feature", "properties": { "PERMIT ID": "BP2023-22089", "DATE OF ISSUE": "13/1/2024", "DATE OF COMPLETION": "", "STATUS": "0", "ADDRESS": "96 EVANSBOROUGH CR NW" }, "geometry": { "type": "Point", "coordinates": [ -114.118545, 51.18132873 ] } },
{ "type": "Feature", "properties": { "PERMIT ID": "BP2023-19852", "DATE OF ISSUE": "11/12/2023", "DATE OF COMPLETION": "", "STATUS": "0", "ADDRESS": "131 WILDWOOD DR SW" }, "geometry": { "type": "Point", "coordinates": [ -114.1487942, 51.055331531879254 ] } },
{ "type": "Feature", "properties": { "PERMIT ID": "BP2022-02022", "DATE OF ISSUE": "9/6/2023", "DATE OF COMPLETION": "25/1/2024", "STATUS": "1", "ADDRESS": "11 MARTINBROOK LI NE" }, "geometry": { "type": "Point", "coordinates": [ -113.9598395, 51.114948938130858 ] } },
{ "type": "Feature", "properties": { "PERMIT ID": "BP2022-15921", "DATE OF ISSUE": "4/10/2022", "DATE OF COMPLETION": "3/8/2023", "STATUS": "1", "ADDRESS": "2415 7 ST NE" }, "geometry": { "type": "Point", "coordinates": [ -114.0470961, 51.073634381692813 ] } },
{ "type": "Feature", "properties": { "PERMIT ID": "BP2022-18947", "DATE OF ISSUE": "2/12/2022", "DATE OF COMPLETION": "13/2/2024", "STATUS": "1", "ADDRESS": "38 RUNDLELAWN CL NE" }, "geometry": { "type": "Point", "coordinates": [ -113.9772575, 51.080658103700614 ] } },
{ "type": "Feature", "properties": { "PERMIT ID": "BP2020-02503", "DATE OF ISSUE": "2/3/2020", "DATE OF COMPLETION": "18/3/2022", "STATUS": "1", "ADDRESS": "43 CARRINGVUE ST NW" }, "geometry": { "type": "Point", "coordinates": [ -114.08057, 51.179127141167989 ] } },
{ "type": "Feature", "properties": { "PERMIT ID": "BP2021-00188", "DATE OF ISSUE": "25/3/2021", "DATE OF COMPLETION": "9/11/2021", "STATUS": "1", "ADDRESS": "75 MARTHA'S MEADOW DR NE" }, "geometry": { "type": "Point", "coordinates": [ -113.9644041, 51.124758089019089 ] } },
{ "type": "Feature", "properties": { "PERMIT ID": "BP2020-13094", "DATE OF ISSUE": "23/9/2020", "DATE OF COMPLETION": "9/8/2023", "STATUS": "1", "ADDRESS": "217 COPPERLEAF WY SE" }, "geometry": { "type": "Point", "coordinates": [ -113.9275038, 50.912231741456139 ] } },
{ "type": "Feature", "properties": { "PERMIT ID": "BP2019-12996", "DATE OF ISSUE": "26/9/2019", "DATE OF COMPLETION": "16/3/2020", "STATUS": "1", "ADDRESS": "190 SETON GV SE" }, "geometry": { "type": "Point", "coordinates": [ -113.9543906, 50.866032375800067 ] } },
{ "type": "Feature", "properties": { "PERMIT ID": "BP2020-01093", "DATE OF ISSUE": "30/1/2020", "DATE OF COMPLETION": "9/6/2020", "STATUS": "1", "ADDRESS": "36 SANDARAC WY NW" }, "geometry": { "type": "Point", "coordinates": [ -114.097648, 51.133290580658212 ] } },
{ "type": "Feature", "properties": { "PERMIT ID": "BP2023-06560", "DATE OF ISSUE": "29/5/2023", "DATE OF COMPLETION": "", "STATUS": "0", "ADDRESS": "597 CRANBROOK GD SE" }, "geometry": { "type": "Point", "coordinates": [ -113.9758604, 50.859966035734026 ] } },
{ "type": "Feature", "properties": { "PERMIT ID": "BP2020-04859", "DATE OF ISSUE": "7/5/2020", "DATE OF COMPLETION": "12/6/2020", "STATUS": "1", "ADDRESS": "245 COPPERLEAF WY SE" }, "geometry": { "type": "Point", "coordinates": [ -113.9272544, 50.912802447485582 ] } },
{ "type": "Feature", "properties": { "PERMIT ID": "BP2022-03318", "DATE OF ISSUE": "15/3/2022", "DATE OF COMPLETION": "20/6/2023", "STATUS": "1", "ADDRESS": "8916 ANCOURT RD SE" }, "geometry": { "type": "Point", "coordinates": [ -114.0532385, 50.973242822240437 ] } },
{ "type": "Feature", "properties": { "PERMIT ID": "BP2023-16155", "DATE OF ISSUE": "8/11/2023", "DATE OF COMPLETION": "", "STATUS": "0", "ADDRESS": "111 CORAL SPRINGS BV NE" }, "geometry": { "type": "Point", "coordinates": [ -113.9272043, 51.09890914625317 ] } },
{ "type": "Feature", "properties": { "PERMIT ID": "BP2015-06945", "DATE OF ISSUE": "15/6/2015", "DATE OF COMPLETION": "20/4/2016", "STATUS": "1", "ADDRESS": "46 MARTHA'S HAVEN WY NE" }, "geometry": { "type": "Point", "coordinates": [ -113.9650977, 51.124726834463289 ] } },
{ "type": "Feature", "properties": { "PERMIT ID": "BP2018-00060", "DATE OF ISSUE": "2/2/2018", "DATE OF COMPLETION": "20/4/2018", "STATUS": "1", "ADDRESS": "169 LIVINGSTON VW NE" }, "geometry": { "type": "Point", "coordinates": [ -114.0686015, 51.189670486603873 ] } },
{ "type": "Feature", "properties": { "PERMIT ID": "BP2017-15423", "DATE OF ISSUE": "24/11/2017", "DATE OF COMPLETION": "12/12/2017", "STATUS": "1", "ADDRESS": "143 PRESTWICK DR SE" }, "geometry": { "type": "Point", "coordinates": [ -113.9708061, 50.923179925046647 ] } },
{ "type": "Feature", "properties": { "PERMIT ID": "BP2022-20523", "DATE OF ISSUE": "22/3/2023", "DATE OF COMPLETION": "11/9/2023", "STATUS": "1", "ADDRESS": "351 RANCHRIDGE CO NW" }, "geometry": { "type": "Point", "coordinates": [ -114.1873554, 51.1229953 ] } },
{ "type": "Feature", "properties": { "PERMIT ID": "BP2020-01794", "DATE OF ISSUE": "25/2/2020", "DATE OF COMPLETION": "3/9/2020", "STATUS": "1", "ADDRESS": "189 UNION AV SE" }, "geometry": { "type": "Point", "coordinates": [ -113.9501601, 50.869199623853909 ] } },
{ "type": "Feature", "properties": { "PERMIT ID": "BP2021-00408", "DATE OF ISSUE": "5/3/2021", "DATE OF COMPLETION": "14/5/2021", "STATUS": "1", "ADDRESS": "355 WHITNEY CR SE" }, "geometry": { "type": "Point", "coordinates": [ -114.0639899, 50.963034142535022 ] } },
{ "type": "Feature", "properties": { "PERMIT ID": "BP2021-02918", "DATE OF ISSUE": "13/5/2021", "DATE OF COMPLETION": "4/8/2021", "STATUS": "1", "ADDRESS": "135 RED EMBERS CM NE" }, "geometry": { "type": "Point", "coordinates": [ -113.9476746, 51.167380375425509 ] } },
{ "type": "Feature", "properties": { "PERMIT ID": "BP2018-13167", "DATE OF ISSUE": "1/10/2018", "DATE OF COMPLETION": "5/3/2019", "STATUS": "1", "ADDRESS": "63 MIDBEND CR SE" }, "geometry": { "type": "Point", "coordinates": [ -114.0609076, 50.910458353306069 ] } },
{ "type": "Feature", "properties": { "PERMIT ID": "BP2023-07501", "DATE OF ISSUE": "6/6/2023", "DATE OF COMPLETION": "5/10/2023", "STATUS": "1", "ADDRESS": "29 HOMESTEAD CR NE" }, "geometry": { "type": "Point", "coordinates": [ -113.9144768, 51.11562575 ] } },
{ "type": "Feature", "properties": { "PERMIT ID": "BP2021-00576", "DATE OF ISSUE": "29/3/2021", "DATE OF COMPLETION": "14/4/2021", "STATUS": "1", "ADDRESS": "68 BERKLEY PL NW" }, "geometry": { "type": "Point", "coordinates": [ -114.0759643, 51.125808598771158 ] } },
{ "type": "Feature", "properties": { "PERMIT ID": "BP2021-02427", "DATE OF ISSUE": "14/4/2021", "DATE OF COMPLETION": "28/7/2022", "STATUS": "1", "ADDRESS": "92 CRANBROOK WY SE" }, "geometry": { "type": "Point", "coordinates": [ -113.9794441, 50.868399353745929 ] } },
{ "type": "Feature", "properties": { "PERMIT ID": "BP2019-09974", "DATE OF ISSUE": "30/7/2019", "DATE OF COMPLETION": "20/2/2020", "STATUS": "1", "ADDRESS": "276 LUCAS AV NW" }, "geometry": { "type": "Point", "coordinates": [ -114.0760028, 51.188479297668287 ] } },
{ "type": "Feature", "properties": { "PERMIT ID": "BP2023-16179", "DATE OF ISSUE": "22/9/2023", "DATE OF COMPLETION": "6/2/2024", "STATUS": "1", "ADDRESS": "2419 23 ST NW" }, "geometry": { "type": "Point", "coordinates": [ -114.1150255, 51.072474607721674 ] } },
{ "type": "Feature", "properties": { "PERMIT ID": "BP2020-02519", "DATE OF ISSUE": "6/3/2020", "DATE OF COMPLETION": "4/12/2023", "STATUS": "1", "ADDRESS": "133 CORNER MEADOWS WY NE" }, "geometry": { "type": "Point", "coordinates": [ -113.9348637, 51.147282277069209 ] } },
{ "type": "Feature", "properties": { "PERMIT ID": "BP2016-11969", "DATE OF ISSUE": "14/10/2016", "DATE OF COMPLETION": "27/6/2017", "STATUS": "1", "ADDRESS": "208 LYNNBROOK CL SE" }, "geometry": { "type": "Point", "coordinates": [ -114.019415, 50.992608639562363 ] } },
{ "type": "Feature", "properties": { "PERMIT ID": "BP2022-17189", "DATE OF ISSUE": "11/10/2022", "DATE OF COMPLETION": "9/12/2022", "STATUS": "1", "ADDRESS": "177 WALCREST BV SE" }, "geometry": { "type": "Point", "coordinates": [ -114.0096346, 50.865339668272178 ] } },
{ "type": "Feature", "properties": { "PERMIT ID": "BP2022-04610", "DATE OF ISSUE": "20/12/2022", "DATE OF COMPLETION": "5/4/2023", "STATUS": "1", "ADDRESS": "355 WOLF CREEK WY SE" }, "geometry": { "type": "Point", "coordinates": [ -114.0113185, 50.875021750646454 ] } },
{ "type": "Feature", "properties": { "PERMIT ID": "BP2023-02179", "DATE OF ISSUE": "21/3/2023", "DATE OF COMPLETION": "5/6/2023", "STATUS": "1", "ADDRESS": "102 EVANSFIELD PA NW" }, "geometry": { "type": "Point", "coordinates": [ -114.1159289, 51.177043341126748 ] } },
{ "type": "Feature", "properties": { "PERMIT ID": "BP2022-18233", "DATE OF ISSUE": "25/11/2022", "DATE OF COMPLETION": "", "STATUS": "0", "ADDRESS": "3321 42 ST SW" }, "geometry": { "type": "Point", "coordinates": [ -114.148416, 51.024605481151816 ] } },
{ "type": "Feature", "properties": { "PERMIT ID": "BP2021-09499", "DATE OF ISSUE": "29/9/2021", "DATE OF COMPLETION": "", "STATUS": "0", "ADDRESS": "320 PRESTWICK TC SE" }, "geometry": { "type": "Point", "coordinates": [ -113.9725078, 50.927947421734018 ] } },
{ "type": "Feature", "properties": { "PERMIT ID": "BP2020-03041", "DATE OF ISSUE": "24/4/2020", "DATE OF COMPLETION": "24/6/2021", "STATUS": "1", "ADDRESS": "2054 NEW BRIGHTON GD SE" }, "geometry": { "type": "Point", "coordinates": [ -113.949308, 50.914418808256229 ] } },
{ "type": "Feature", "properties": { "PERMIT ID": "BP2020-00468", "DATE OF ISSUE": "28/1/2020", "DATE OF COMPLETION": "21/4/2020", "STATUS": "1", "ADDRESS": "2418 17 ST NW" }, "geometry": { "type": "Point", "coordinates": [ -114.1019478, 51.073828653175383 ] } },
{ "type": "Feature", "properties": { "PERMIT ID": "BP2020-08273", "DATE OF ISSUE": "29/7/2020", "DATE OF COMPLETION": "12/11/2020", "STATUS": "1", "ADDRESS": "52 HOWSE RI NE" }, "geometry": { "type": "Point", "coordinates": [ -114.0588453, 51.184300070362816 ] } },
{ "type": "Feature", "properties": { "PERMIT ID": "BP2017-11281", "DATE OF ISSUE": "12/9/2017", "DATE OF COMPLETION": "8/12/2017", "STATUS": "1", "ADDRESS": "19 SHAWMEADOWS CL SW" }, "geometry": { "type": "Point", "coordinates": [ -114.0716404, 50.911592365719478 ] } },
{ "type": "Feature", "properties": { "PERMIT ID": "BP2022-09619", "DATE OF ISSUE": "22/6/2022", "DATE OF COMPLETION": "24/4/2023", "STATUS": "1", "ADDRESS": "8 COPPERHEAD PL SE" }, "geometry": { "type": "Point", "coordinates": [ -113.9224251, 50.912282417378265 ] } },
{ "type": "Feature", "properties": { "PERMIT ID": "BP2022-11216", "DATE OF ISSUE": "7/10/2022", "DATE OF COMPLETION": "29/3/2023", "STATUS": "1", "ADDRESS": "96 CREEKSTONE DR SW" }, "geometry": { "type": "Point", "coordinates": [ -114.0646407, 50.86139353041245 ] } },
{ "type": "Feature", "properties": { "PERMIT ID": "BP2017-01665", "DATE OF ISSUE": "21/3/2017", "DATE OF COMPLETION": "27/9/2017", "STATUS": "1", "ADDRESS": "75 EVANSGLEN CI NW" }, "geometry": { "type": "Point", "coordinates": [ -114.100519, 51.178864490867838 ] } },
{ "type": "Feature", "properties": { "PERMIT ID": "BP2017-01861", "DATE OF ISSUE": "10/3/2017", "DATE OF COMPLETION": "7/6/2017", "STATUS": "1", "ADDRESS": "3736 DOUGLAS RIDGE WY SE" }, "geometry": { "type": "Point", "coordinates": [ -113.9802171, 50.933428107403536 ] } },
{ "type": "Feature", "properties": { "PERMIT ID": "BP2015-14176", "DATE OF ISSUE": "17/12/2015", "DATE OF COMPLETION": "29/9/2016", "STATUS": "1", "ADDRESS": "1433 CHILD AV NE" }, "geometry": { "type": "Point", "coordinates": [ -114.0295168, 51.054150464423756 ] } },
{ "type": "Feature", "properties": { "PERMIT ID": "BP2022-12450", "DATE OF ISSUE": "5/8/2022", "DATE OF COMPLETION": "9/1/2024", "STATUS": "1", "ADDRESS": "127 EVERGREEN CI SW" }, "geometry": { "type": "Point", "coordinates": [ -114.1066007, 50.91802207493182 ] } },
{ "type": "Feature", "properties": { "PERMIT ID": "BP2021-03585", "DATE OF ISSUE": "12/3/2021", "DATE OF COMPLETION": "26/8/2021", "STATUS": "1", "ADDRESS": "100 RED EMBERS MR NE" }, "geometry": { "type": "Point", "coordinates": [ -113.9477692, 51.170167175740076 ] } },
{ "type": "Feature", "properties": { "PERMIT ID": "BP2023-16316", "DATE OF ISSUE": "23/10/2023", "DATE OF COMPLETION": "17/1/2024", "STATUS": "1", "ADDRESS": "49 COPPERHEAD RD SE" }, "geometry": { "type": "Point", "coordinates": [ -113.925515, 50.911470839754045 ] } },
{ "type": "Feature", "properties": { "PERMIT ID": "BP2019-06639", "DATE OF ISSUE": "4/6/2019", "DATE OF COMPLETION": "18/12/2019", "STATUS": "1", "ADDRESS": "71 SETON GD SE" }, "geometry": { "type": "Point", "coordinates": [ -113.9567239, 50.866896305122069 ] } },
{ "type": "Feature", "properties": { "PERMIT ID": "BP2020-16683", "DATE OF ISSUE": "13/11/2020", "DATE OF COMPLETION": "12/11/2021", "STATUS": "1", "ADDRESS": "701 CANFIELD WY SW" }, "geometry": { "type": "Point", "coordinates": [ -114.0737383, 50.947997328251546 ] } },
{ "type": "Feature", "properties": { "PERMIT ID": "BP2019-08212", "DATE OF ISSUE": "27/6/2019", "DATE OF COMPLETION": "10/12/2019", "STATUS": "1", "ADDRESS": "252 LUCAS AV NW" }, "geometry": { "type": "Point", "coordinates": [ -114.075337, 51.18848422298327 ] } },
{ "type": "Feature", "properties": { "PERMIT ID": "BP2022-08779", "DATE OF ISSUE": "13/7/2022", "DATE OF COMPLETION": "31/3/2023", "STATUS": "1", "ADDRESS": "159 ARBOUR LAKE WY NW" }, "geometry": { "type": "Point", "coordinates": [ -114.1914255, 51.13578189 ] } },
{ "type": "Feature", "properties": { "PERMIT ID": "BP2021-15478", "DATE OF ISSUE": "6/10/2021", "DATE OF COMPLETION": "10/3/2022", "STATUS": "1", "ADDRESS": "56 CARRINGSBY MR NW" }, "geometry": { "type": "Point", "coordinates": [ -114.0899967, 51.178221317086432 ] } },
{ "type": "Feature", "properties": { "PERMIT ID": "BP2020-12202", "DATE OF ISSUE": "1/9/2020", "DATE OF COMPLETION": "20/11/2020", "STATUS": "1", "ADDRESS": "129 FIELDING DR SE" }, "geometry": { "type": "Point", "coordinates": [ -114.0658057, 50.981651428915583 ] } },
{ "type": "Feature", "properties": { "PERMIT ID": "BP2023-08053", "DATE OF ISSUE": "9/6/2023", "DATE OF COMPLETION": "", "STATUS": "0", "ADDRESS": "6424 54 ST NE" }, "geometry": { "type": "Point", "coordinates": [ -113.9556704, 51.108892916428417 ] } },
{ "type": "Feature", "properties": { "PERMIT ID": "BP2020-05504", "DATE OF ISSUE": "14/5/2020", "DATE OF COMPLETION": "24/6/2020", "STATUS": "1", "ADDRESS": "1134 COPPERFIELD BV SE" }, "geometry": { "type": "Point", "coordinates": [ -113.9268762, 50.911664983891484 ] } },
{ "type": "Feature", "properties": { "PERMIT ID": "BP2021-01673", "DATE OF ISSUE": "28/4/2021", "DATE OF COMPLETION": "30/4/2021", "STATUS": "1", "ADDRESS": "7 SOMERGLEN PL SW" }, "geometry": { "type": "Point", "coordinates": [ -114.0740334, 50.898373775295816 ] } },
{ "type": "Feature", "properties": { "PERMIT ID": "BP2019-11080", "DATE OF ISSUE": "26/8/2019", "DATE OF COMPLETION": "19/2/2020", "STATUS": "1", "ADDRESS": "79 SETON GD SE" }, "geometry": { "type": "Point", "coordinates": [ -113.9565248, 50.866815321066326 ] } },
{ "type": "Feature", "properties": { "PERMIT ID": "BP2024-01239", "DATE OF ISSUE": "30/1/2024", "DATE OF COMPLETION": "", "STATUS": "0", "ADDRESS": "186 SETONSTONE LD SE" }, "geometry": { "type": "Point", "coordinates": [ -113.9421182, 50.867420386663689 ] } },
{ "type": "Feature", "properties": { "PERMIT ID": "BP2023-22118", "DATE OF ISSUE": "2/1/2024", "DATE OF COMPLETION": "", "STATUS": "0", "ADDRESS": "94 CORNER MEADOWS GV NE" }, "geometry": { "type": "Point", "coordinates": [ -113.9248251, 51.151451912878315 ] } },
{ "type": "Feature", "properties": { "PERMIT ID": "BP2016-05785", "DATE OF ISSUE": "31/5/2016", "DATE OF COMPLETION": "5/8/2016", "STATUS": "1", "ADDRESS": "639 MALVERN WY NE" }, "geometry": { "type": "Point", "coordinates": [ -113.9380944, 51.057027992292845 ] } },
{ "type": "Feature", "properties": { "PERMIT ID": "BP2022-20007", "DATE OF ISSUE": "16/1/2023", "DATE OF COMPLETION": "", "STATUS": "0", "ADDRESS": "1916 RANGEVIEW DR SE" }, "geometry": { "type": "Point", "coordinates": [ -113.9122571, 50.883224154811245 ] } },
{ "type": "Feature", "properties": { "PERMIT ID": "BP2021-15658", "DATE OF ISSUE": "20/9/2021", "DATE OF COMPLETION": "16/2/2022", "STATUS": "1", "ADDRESS": "1245 COPPERFIELD BV SE" }, "geometry": { "type": "Point", "coordinates": [ -113.9250826, 50.913344965440785 ] } },
{ "type": "Feature", "properties": { "PERMIT ID": "BP2020-02714", "DATE OF ISSUE": "13/3/2020", "DATE OF COMPLETION": "2/9/2020", "STATUS": "1", "ADDRESS": "83 CORNERSTONE AV NE" }, "geometry": { "type": "Point", "coordinates": [ -113.9445168, 51.16079857028398 ] } },
{ "type": "Feature", "properties": { "PERMIT ID": "BP2020-12645", "DATE OF ISSUE": "8/1/2021", "DATE OF COMPLETION": "8/8/2023", "STATUS": "1", "ADDRESS": "1 WHITAKER BA NE" }, "geometry": { "type": "Point", "coordinates": [ -113.9779321, 51.085989109360007 ] } },
{ "type": "Feature", "properties": { "PERMIT ID": "BP2021-02373", "DATE OF ISSUE": "25/2/2021", "DATE OF COMPLETION": "12/4/2022", "STATUS": "1", "ADDRESS": "4816 NIPAWIN CR NW" }, "geometry": { "type": "Point", "coordinates": [ -114.085767, 51.095416860242011 ] } },
{ "type": "Feature", "properties": { "PERMIT ID": "BP2020-17986", "DATE OF ISSUE": "27/1/2021", "DATE OF COMPLETION": "20/7/2021", "STATUS": "1", "ADDRESS": "46 CITYSCAPE HE NE" }, "geometry": { "type": "Point", "coordinates": [ -113.9624126, 51.153447734512937 ] } },
{ "type": "Feature", "properties": { "PERMIT ID": "BP2021-00608", "DATE OF ISSUE": "20/1/2021", "DATE OF COMPLETION": "23/3/2021", "STATUS": "1", "ADDRESS": "83 SETON HE SE" }, "geometry": { "type": "Point", "coordinates": [ -113.9501601, 50.868448958372177 ] } },
{ "type": "Feature", "properties": { "PERMIT ID": "BP2023-16815", "DATE OF ISSUE": "20/10/2023", "DATE OF COMPLETION": "", "STATUS": "0", "ADDRESS": "4619 20 AV NW" }, "geometry": { "type": "Point", "coordinates": [ -114.1576566, 51.073079086694385 ] } },
{ "type": "Feature", "properties": { "PERMIT ID": "BP2015-14111", "DATE OF ISSUE": "28/10/2015", "DATE OF COMPLETION": "4/4/2019", "STATUS": "1", "ADDRESS": "927 HARVEST HILLS DR NE" }, "geometry": { "type": "Point", "coordinates": [ -114.0518478, 51.14390528 ] } },
{ "type": "Feature", "properties": { "PERMIT ID": "BP2023-21161", "DATE OF ISSUE": "14/12/2023", "DATE OF COMPLETION": "8/3/2024", "STATUS": "1", "ADDRESS": "72 LUCAS ST NW" }, "geometry": { "type": "Point", "coordinates": [ -114.0746471, 51.188048673817057 ] } },
{ "type": "Feature", "properties": { "PERMIT ID": "BP2021-15679", "DATE OF ISSUE": "22/3/2022", "DATE OF COMPLETION": "21/10/2022", "STATUS": "1", "ADDRESS": "415 11A ST NW" }, "geometry": { "type": "Point", "coordinates": [ -114.0904386, 51.055553064364723 ] } },
{ "type": "Feature", "properties": { "PERMIT ID": "BP2020-16344", "DATE OF ISSUE": "10/11/2020", "DATE OF COMPLETION": "12/10/2021", "STATUS": "1", "ADDRESS": "326 MASTERS RO SE" }, "geometry": { "type": "Point", "coordinates": [ -113.9104717, 50.893242129187435 ] } },
{ "type": "Feature", "properties": { "PERMIT ID": "BP2020-00378", "DATE OF ISSUE": "13/1/2020", "DATE OF COMPLETION": "12/1/2021", "STATUS": "1", "ADDRESS": "119 SETON GD SE" }, "geometry": { "type": "Point", "coordinates": [ -113.9554961, 50.866603668144279 ] } },
{ "type": "Feature", "properties": { "PERMIT ID": "BP2020-01067", "DATE OF ISSUE": "29/1/2020", "DATE OF COMPLETION": "29/7/2021", "STATUS": "1", "ADDRESS": "2827 11 AV SE" }, "geometry": { "type": "Point", "coordinates": [ -113.9939805, 51.042755062046474 ] } },
{ "type": "Feature", "properties": { "PERMIT ID": "BP2019-14359", "DATE OF ISSUE": "22/10/2019", "DATE OF COMPLETION": "25/11/2019", "STATUS": "1", "ADDRESS": "63 FALTON RI NE" }, "geometry": { "type": "Point", "coordinates": [ -113.9416916, 51.105127908507562 ] } },
{ "type": "Feature", "properties": { "PERMIT ID": "BP2023-16402", "DATE OF ISSUE": "12/12/2023", "DATE OF COMPLETION": "", "STATUS": "0", "ADDRESS": "39 ROCKMONT CO NW" }, "geometry": { "type": "Point", "coordinates": [ -114.2502844, 51.151518448789169 ] } },
{ "type": "Feature", "properties": { "PERMIT ID": "BP2019-07578", "DATE OF ISSUE": "17/7/2020", "DATE OF COMPLETION": "12/8/2020", "STATUS": "1", "ADDRESS": "65 MASTERS RO SE" }, "geometry": { "type": "Point", "coordinates": [ -113.9069006, 50.895738547130527 ] } },
{ "type": "Feature", "properties": { "PERMIT ID": "BP2023-06957", "DATE OF ISSUE": "6/6/2023", "DATE OF COMPLETION": "", "STATUS": "0", "ADDRESS": "102 CORNERSTONE RD NE" }, "geometry": { "type": "Point", "coordinates": [ -113.9394492, 51.159793721618072 ] } },
{ "type": "Feature", "properties": { "PERMIT ID": "BP2021-03250", "DATE OF ISSUE": "12/3/2021", "DATE OF COMPLETION": "30/7/2021", "STATUS": "1", "ADDRESS": "1107 COPPERFIELD BV SE" }, "geometry": { "type": "Point", "coordinates": [ -113.9274069, 50.910896675075314 ] } },
{ "type": "Feature", "properties": { "PERMIT ID": "BP2019-06346", "DATE OF ISSUE": "30/5/2019", "DATE OF COMPLETION": "25/7/2019", "STATUS": "1", "ADDRESS": "56 CORNER MEADOWS GA NE" }, "geometry": { "type": "Point", "coordinates": [ -113.9334223, 51.151690850799525 ] } },
{ "type": "Feature", "properties": { "PERMIT ID": "BP2018-02931", "DATE OF ISSUE": "1/5/2018", "DATE OF COMPLETION": "28/5/2018", "STATUS": "1", "ADDRESS": "3412 CENTRE A ST NE" }, "geometry": { "type": "Point", "coordinates": [ -114.0608654, 51.082694118460083 ] } },
{ "type": "Feature", "properties": { "PERMIT ID": "BP2022-19183", "DATE OF ISSUE": "19/12/2022", "DATE OF COMPLETION": "12/1/2023", "STATUS": "1", "ADDRESS": "45 CREEKSTONE DR SW" }, "geometry": { "type": "Point", "coordinates": [ -114.0650863, 50.862197889355521 ] } },
{ "type": "Feature", "properties": { "PERMIT ID": "BP2023-01617", "DATE OF ISSUE": "13/2/2023", "DATE OF COMPLETION": "1/8/2023", "STATUS": "1", "ADDRESS": "63 CORNERSTONE GR NE" }, "geometry": { "type": "Point", "coordinates": [ -113.9360719, 51.157077078090367 ] } },
{ "type": "Feature", "properties": { "PERMIT ID": "BP2023-02861", "DATE OF ISSUE": "11/4/2023", "DATE OF COMPLETION": "27/6/2023", "STATUS": "1", "ADDRESS": "8 LEGACY GLEN LI SE" }, "geometry": { "type": "Point", "coordinates": [ -113.999338, 50.854008144453957 ] } },
{ "type": "Feature", "properties": { "PERMIT ID": "BP2023-02415", "DATE OF ISSUE": "21/3/2023", "DATE OF COMPLETION": "30/6/2023", "STATUS": "1", "ADDRESS": "29 SKYVIEW SHORES CV NE" }, "geometry": { "type": "Point", "coordinates": [ -113.9667647, 51.156820138000107 ] } },
{ "type": "Feature", "properties": { "PERMIT ID": "BP2022-18325", "DATE OF ISSUE": "7/11/2022", "DATE OF COMPLETION": "3/3/2023", "STATUS": "1", "ADDRESS": "57 YORKVILLE ST SW" }, "geometry": { "type": "Point", "coordinates": [ -114.0729877, 50.873637496350717 ] } },
{ "type": "Feature", "properties": { "PERMIT ID": "BP2015-06525", "DATE OF ISSUE": "5/6/2015", "DATE OF COMPLETION": "4/1/2017", "STATUS": "1", "ADDRESS": "2103 51 AV SW" }, "geometry": { "type": "Point", "coordinates": [ -114.1095474, 51.007603334243946 ] } },
{ "type": "Feature", "properties": { "PERMIT ID": "BP2019-14454", "DATE OF ISSUE": "22/10/2019", "DATE OF COMPLETION": "15/5/2020", "STATUS": "1", "ADDRESS": "4320 WORCESTER DR SW" }, "geometry": { "type": "Point", "coordinates": [ -114.1500652, 51.048213925593608 ] } },
{ "type": "Feature", "properties": { "PERMIT ID": "BP2021-00136", "DATE OF ISSUE": "7/1/2021", "DATE OF COMPLETION": "25/6/2021", "STATUS": "1", "ADDRESS": "46 CORNERBROOK MR NE" }, "geometry": { "type": "Point", "coordinates": [ -113.9339073, 51.160505391500251 ] } },
{ "type": "Feature", "properties": { "PERMIT ID": "BP2020-17204", "DATE OF ISSUE": "18/2/2021", "DATE OF COMPLETION": "2/6/2021", "STATUS": "1", "ADDRESS": "109 CITYSIDE WY NE" }, "geometry": { "type": "Point", "coordinates": [ -113.9610518, 51.143572243406048 ] } },
{ "type": "Feature", "properties": { "PERMIT ID": "BP2018-12098", "DATE OF ISSUE": "12/9/2018", "DATE OF COMPLETION": "4/3/2019", "STATUS": "1", "ADDRESS": "93 SETON MR SE" }, "geometry": { "type": "Point", "coordinates": [ -113.9587362, 50.868551195247576 ] } },
{ "type": "Feature", "properties": { "PERMIT ID": "BP2019-08984", "DATE OF ISSUE": "11/7/2019", "DATE OF COMPLETION": "20/2/2020", "STATUS": "1", "ADDRESS": "166 SETON GV SE" }, "geometry": { "type": "Point", "coordinates": [ -113.9550414, 50.865996668248975 ] } },
{ "type": "Feature", "properties": { "PERMIT ID": "BP2020-05676", "DATE OF ISSUE": "12/5/2020", "DATE OF COMPLETION": "5/2/2024", "STATUS": "1", "ADDRESS": "2706 46 ST SE" }, "geometry": { "type": "Point", "coordinates": [ -113.9669761, 51.030266194538079 ] } },
{ "type": "Feature", "properties": { "PERMIT ID": "BP2020-17918", "DATE OF ISSUE": "27/1/2021", "DATE OF COMPLETION": "29/1/2021", "STATUS": "1", "ADDRESS": "6 SKYVIEW SPRINGS RI NE" }, "geometry": { "type": "Point", "coordinates": [ -113.9655781, 51.161026907434191 ] } },
{ "type": "Feature", "properties": { "PERMIT ID": "BP2023-17805", "DATE OF ISSUE": "15/11/2023", "DATE OF COMPLETION": "23/1/2024", "STATUS": "1", "ADDRESS": "46 CORNERSTONE RD NE" }, "geometry": { "type": "Point", "coordinates": [ -113.9394494, 51.158822849532918 ] } },
{ "type": "Feature", "properties": { "PERMIT ID": "BP2022-09548", "DATE OF ISSUE": "6/6/2022", "DATE OF COMPLETION": "23/8/2022", "STATUS": "1", "ADDRESS": "66 HASKAYNE DR NW" }, "geometry": { "type": "Point", "coordinates": [ -114.2707652, 51.109257569694968 ] } },
{ "type": "Feature", "properties": { "PERMIT ID": "BP2017-02060", "DATE OF ISSUE": "28/3/2017", "DATE OF COMPLETION": "23/5/2017", "STATUS": "1", "ADDRESS": "122 WALDEN CR SE" }, "geometry": { "type": "Point", "coordinates": [ -114.0395765, 50.871275750744431 ] } },
{ "type": "Feature", "properties": { "PERMIT ID": "BP2017-00615", "DATE OF ISSUE": "24/1/2017", "DATE OF COMPLETION": "20/9/2017", "STATUS": "1", "ADDRESS": "32 LYNNDALE CR SE" }, "geometry": { "type": "Point", "coordinates": [ -114.0086195, 50.991111044954692 ] } },
{ "type": "Feature", "properties": { "PERMIT ID": "BP2017-02208", "DATE OF ISSUE": "26/4/2017", "DATE OF COMPLETION": "21/12/2017", "STATUS": "1", "ADDRESS": "220 EDENWOLD DR NW" }, "geometry": { "type": "Point", "coordinates": [ -114.139789, 51.120675348291655 ] } },
{ "type": "Feature", "properties": { "PERMIT ID": "BP2018-05137", "DATE OF ISSUE": "4/5/2018", "DATE OF COMPLETION": "29/6/2018", "STATUS": "1", "ADDRESS": "79 CRANBERRY GR SE" }, "geometry": { "type": "Point", "coordinates": [ -113.9720547, 50.887591450045463 ] } },
{ "type": "Feature", "properties": { "PERMIT ID": "BP2020-05552", "DATE OF ISSUE": "22/12/2020", "DATE OF COMPLETION": "14/6/2021", "STATUS": "1", "ADDRESS": "4512 14 ST NW" }, "geometry": { "type": "Point", "coordinates": [ -114.0944607, 51.092758210504726 ] } },
{ "type": "Feature", "properties": { "PERMIT ID": "BP2022-02593", "DATE OF ISSUE": "5/4/2022", "DATE OF COMPLETION": "18/11/2022", "STATUS": "1", "ADDRESS": "59 CORNERSTONE GD NE" }, "geometry": { "type": "Point", "coordinates": [ -113.9412025, 51.159169841793428 ] } },
{ "type": "Feature", "properties": { "PERMIT ID": "BP2022-17689", "DATE OF ISSUE": "31/10/2022", "DATE OF COMPLETION": "27/10/2023", "STATUS": "1", "ADDRESS": "138 BELMONT DR SW" }, "geometry": { "type": "Point", "coordinates": [ -114.0652077, 50.873003811691028 ] } },
{ "type": "Feature", "properties": { "PERMIT ID": "BP2016-05672", "DATE OF ISSUE": "27/5/2016", "DATE OF COMPLETION": "17/11/2016", "STATUS": "1", "ADDRESS": "1611 32 AV NW" }, "geometry": { "type": "Point", "coordinates": [ -114.0970178, 51.081383033089793 ] } },
{ "type": "Feature", "properties": { "PERMIT ID": "BP2020-05289", "DATE OF ISSUE": "5/5/2020", "DATE OF COMPLETION": "5/11/2020", "STATUS": "1", "ADDRESS": "318 31 AV NE" }, "geometry": { "type": "Point", "coordinates": [ -114.0564007, 51.08063772154469 ] } },
{ "type": "Feature", "properties": { "PERMIT ID": "BP2020-18285", "DATE OF ISSUE": "12/4/2021", "DATE OF COMPLETION": "14/4/2021", "STATUS": "1", "ADDRESS": "87 SKYVIEW SPRINGS GD NE" }, "geometry": { "type": "Point", "coordinates": [ -113.9666061, 51.16311278 ] } },
{ "type": "Feature", "properties": { "PERMIT ID": "BP2020-15294", "DATE OF ISSUE": "13/1/2022", "DATE OF COMPLETION": "11/2/2022", "STATUS": "1", "ADDRESS": "106 EVANSMEADE CI NW" }, "geometry": { "type": "Point", "coordinates": [ -114.1144131, 51.162998672080462 ] } },
{ "type": "Feature", "properties": { "PERMIT ID": "BP2023-08725", "DATE OF ISSUE": "8/6/2023", "DATE OF COMPLETION": "17/10/2023", "STATUS": "1", "ADDRESS": "63 SETON RI SE" }, "geometry": { "type": "Point", "coordinates": [ -113.9576962, 50.86805187759024 ] } },
{ "type": "Feature", "properties": { "PERMIT ID": "BP2019-06429", "DATE OF ISSUE": "29/5/2019", "DATE OF COMPLETION": "25/10/2019", "STATUS": "1", "ADDRESS": "51 SETON GD SE" }, "geometry": { "type": "Point", "coordinates": [ -113.9573198, 50.867184204816347 ] } },
{ "type": "Feature", "properties": { "PERMIT ID": "BP2019-09790", "DATE OF ISSUE": "26/7/2019", "DATE OF COMPLETION": "18/6/2020", "STATUS": "1", "ADDRESS": "178 SETON GV SE" }, "geometry": { "type": "Point", "coordinates": [ -113.9547174, 50.86600553301691 ] } },
{ "type": "Feature", "properties": { "PERMIT ID": "BP2020-05704", "DATE OF ISSUE": "13/5/2020", "DATE OF COMPLETION": "10/8/2023", "STATUS": "1", "ADDRESS": "148 CORNERSTONE AV NE" }, "geometry": { "type": "Point", "coordinates": [ -113.9428978, 51.161112425598368 ] } },
{ "type": "Feature", "properties": { "PERMIT ID": "BP2019-07664", "DATE OF ISSUE": "2/7/2019", "DATE OF COMPLETION": "15/5/2020", "STATUS": "1", "ADDRESS": "1636 4A ST NW" }, "geometry": { "type": "Point", "coordinates": [ -114.0727383, 51.066644507618165 ] } },
{ "type": "Feature", "properties": { "PERMIT ID": "BP2017-11176", "DATE OF ISSUE": "22/9/2017", "DATE OF COMPLETION": "11/12/2017", "STATUS": "1", "ADDRESS": "286 CORNERSTONE AV NE" }, "geometry": { "type": "Point", "coordinates": [ -113.9394445, 51.16109270990281 ] } },
{ "type": "Feature", "properties": { "PERMIT ID": "BP2023-11589", "DATE OF ISSUE": "31/10/2023", "DATE OF COMPLETION": "15/8/2024", "STATUS": "1", "ADDRESS": "1939 MATHESON DR NE" }, "geometry": { "type": "Point", "coordinates": [ -114.0114976, 51.055515567971781 ] } },